     2.10           OBSERVATION DATA    M (MIXED)           RINEX VERSION / TYPE
RTKCONV 2.4.3 b29                       20180509 174523 UTC PGM / RUN BY / DATE 
log: C:\Users\David\Desktop\test1.ubx                       COMMENT             
format: u-blox                                              COMMENT             
                                                            MARKER NAME         
                                                            MARKER NUMBER       
                                                            OBSERVER / AGENCY   
                                                            REC # / TYPE / VERS 
                                                            ANT # / TYPE        
   654635.4831 -5210246.6272  3608446.9296                  APPROX POSITION XYZ 
        0.0000        0.0000        0.0000                  ANTENNA: DELTA H/E/N
     1     1                                                WAVELENGTH FACT L1/2
     4    C1    L1    D1    S1                              # / TYPES OF OBSERV 
  2018     5     9    13    39   21.0040000     GPS         TIME OF FIRST OBS   
  2018     5     9    13    45   31.0040000     GPS         TIME OF LAST OBS    
                                                            END OF HEADER       
 18  5  9 13 39 21.0040000  0 10G 4G14G31G16G32G26G22G 3G27G23
  21906381.215   115118823.809       -1983.386          43.000  
  23229987.228   122074434.945       -2290.324          40.000  
  23582032.545   123924428.346       -2294.472          46.000  
  21527025.348   113125224.212        1300.342          35.000  
  25733342.609   135229364.665       -3396.246          33.000  
  21636854.401   113702430.947       -1022.189          44.000  
  23453397.724   123248381.001       -2119.436          29.000  
  23012211.216                        -920.725          23.000  
  25687713.011   134989877.781        3238.129          26.000  
  23851280.872   125339292.4282       2652.260          26.000  
 18  5  9 13 39 22.0040000  0 10G 4G14G31G16G32G26G22G 3G27G23
  21906758.629   115120807.725       -1984.741          43.000  
  23230422.890   122076725.915       -2291.544          40.000  
  23582468.993   123926722.846       -2294.870          47.000  
  21526777.432   113123924.331        1299.497          35.000  
  25733989.104   135232761.250       -3397.242          33.000  
  21637048.848   113703453.413       -1023.018          44.000  
  23453800.650   123250499.876       -2119.615          29.000  
  23012385.072                        -921.312          23.000  
  25687099.863   134986640.731        3236.631          26.000  
  23850775.897   125336640.2012       2651.516          26.000  
 18  5  9 13 39 23.0040000  0 10G 4G14G31G16G32G26G22G 3G27G23
  21907135.972   115122792.542       -1985.083          43.000  
  23230859.059   122079017.601       -2291.606          40.000  
  23582905.702   123929017.770       -2294.684          47.000  
  21526530.163   113122625.450        1299.354          35.000  
  25734635.565   135236158.385       -3396.893          33.000  
  21637243.558   113704476.822       -1023.443          45.000  
  23454204.884   123252619.662       -2120.132          28.000  
  23012557.899                        -920.952          23.000  
  25686487.413   134983403.874        3236.896          26.000  
  23850268.096   125333988.5702       2651.125          26.000  
 18  5  9 13 39 24.0040000  0 10G 4G14G31G16G32G26G22G 3G27G23
  21907513.542   115124777.496       -1985.193          43.000  
  23231294.948   122081309.267       -2291.859          40.000  
  23583341.748   123931312.351       -2294.394          46.000  
  21526282.719   113121326.824        1298.717          34.000  
  25735281.834   135239555.295       -3396.836          33.000  
  21637438.721   113705500.372       -1023.504          45.000  
  23454609.084   123254739.362       -2119.688          28.000  
  23012734.670                        -920.712          23.000  
  25685873.724   134980166.438        3237.649          26.000  
  23849761.377   125331336.6322       2651.832          26.000  
 18  5  9 13 39 25.0040000  0 10G 4G14G31G16G32G26G22G 3G27G23
  21907891.235   115126763.066       -1986.139          43.000  
  23231731.063   122083601.360       -2292.578          40.000  
  23583778.178   123933607.076       -2295.034          46.000  
  21526035.153   113120028.917        1297.484          35.000  
  25735928.818   135242952.505       -3397.891          33.000  
  21637633.745   113706524.584       -1024.794          45.000  
  23455011.503   123256859.602       -2120.971          28.000  
  23012908.998                        -921.969          23.000  
  25685257.068   134976929.077        3237.015          26.000  
  23849257.380   125328684.896        2651.605          26.000  
 18  5  9 13 39 26.0040000  0 10G 4G14G31G16G32G26G22G 3G27G23
  21908269.242   115128749.713       -1987.347          42.000  
  23232167.773   122085894.345       -2293.298          41.000  
  23584214.870   123935902.376       -2295.554          46.000  
  21525788.406   113118732.115        1296.395          34.000  
  25736575.471   135246350.382       -3398.497          33.000  
  21637828.821   113707549.840       -1025.845          45.000  
  23455420.327   123258980.818       -2121.888          27.000  
  23013084.023                        -923.916          24.000  
  25684638.632   134973692.102        3236.936          27.000  
  23848751.131   125326033.865        2650.222          26.000  
 18  5  9 13 39 27.0040000  0 10G 4G14G31G16G32G26G22G 3G27G23
  21908647.492   115130737.304       -1988.342          42.000  
  23232604.342   122088188.115       -2294.418          41.000  
  23584651.928   123938198.148       -2296.230          46.000  
  21525541.259   113117436.386        1295.193          34.000  
  25737222.473   135249748.873       -3398.962          33.000  
  21638024.403   113708576.082       -1026.907          45.000  
  23455825.032   123261102.832       -2123.186          26.000  
  23013262.225                        -926.251          23.000  
  25684020.929   134970455.503        3235.969          28.000  
  23848246.192   125323383.286        2650.111          25.000  
 18  5  9 13 39 28.0040000  0 10G 4G14G31G16G32G26G22G 3G27G23
  21909025.674   115132725.647       -1988.953          42.000  
  23233040.790   122090482.451       -2294.728          41.000  
  23585088.794   123940494.204       -2296.391          46.000  
  21525294.879   113116141.515        1294.581          34.000  
  25737869.178   135253147.773       -3399.554          33.000  
  21638220.037   113709603.108       -1027.547          45.000  
  23456228.691   123263225.434       -2122.894          25.000  
  23013438.490                        -924.624          23.000  
  25683402.912   134967218.972        3236.391          28.000  
  23847741.095                        2650.213          24.000  
 18  5  9 13 39 29.0040000  0 10G 4G14G31G16G32G26G22G 3G27G23
  21909404.134   115134714.720       -1989.563          42.000  
  23233477.464   122092777.365       -2295.649          41.000  
  23585525.590   123942790.493       -2296.711          46.000  
  21525048.290   113114847.467        1293.439          34.000  
  25738516.284   135256547.003       -3399.371          33.000  
  21638415.619   113710630.873       -1028.364          45.000  
  23456630.883   123265348.740       -2124.177          25.000  
  23013615.574                        -914.407          23.000  
  25682788.281   134963982.547        3236.529          28.000  
  23847234.638                        2649.927          25.000  
 18  5  9 13 39 30.0040000  0 10G 4G14G31G16G32G26G22G 3G27G23
  21909782.577   115136703.981       -1988.690          42.000  
  23233914.086   122095072.274       -2294.372          41.000  
  23585962.387   123945086.479       -2295.090          46.000  
  21524802.050   113113553.714        1294.354          34.000  
  25739163.251   135259946.103       -3397.909          33.000  
  21638611.219   113711658.828       -1027.092          45.000  
  23457036.147   123267472.014       -2122.756          25.000  
  23013794.369                        -937.117          24.000  
  25682171.293   134960745.674        3238.071          28.000  
  23846729.227                        2649.951          25.000  
 18  5  9 13 39 31.0040000  0 10G 4G14G31G16G32G26G22G 3G27G23
  21910160.706   115138692.065       -1988.306          42.000  
  23234350.690   122097365.821       -2293.413          41.000  
  23586398.782   123947380.799       -2294.142          46.000  
  21524555.339   113112258.837        1294.716          34.000  
  25739809.816   135263343.679       -3397.767          33.000  
  21638806.958   113712685.632       -1026.795          45.000  
  23457436.804                       -2123.255          24.000  
  23013970.965                        -925.017          25.000  
  25681554.184   134957506.979        3239.144          29.000  
  23846224.584                        2650.195          25.000  
 18  5  9 13 39 32.0040000  0 10G 4G14G31G16G32G26G22G 3G27G23
  21910539.096   115140680.866       -1989.899          42.000  
  23234787.033   122099659.943       -2295.113          41.000  
  23586835.212   123949675.366       -2295.052          46.000  
  21524308.593   113110964.795        1292.749          34.000  
  25740456.958   135266741.608       -3398.109          33.000  
  21639002.924   113713713.171       -1028.428          45.000  
  23457840.358                       -2125.135          23.000  
  23014147.823                        -917.464          24.000  
  25680936.097   134954268.366        3238.274          29.000  
  23845719.522                        2651.371          25.000  
 18  5  9 13 39 33.0040000  0 10G 4G14G31G16G32G26G22G 3G27G23
  21910917.539   115142670.744       -1989.752          42.000  
  23235223.445   122101954.936       -2295.103          41.000  
  23587271.642   123951970.534       -2294.935          46.000  
  21524062.248   113109671.918        1292.565          34.000  
  25741103.541   135270140.226       -3397.985          33.000  
  21639198.663   113714741.796       -1028.638          46.000  
  23458240.631                       -2124.449          22.000  
  23014323.408                        -929.816          24.000  
  25680321.047   134951030.194        3238.572          29.000  
  23845214.339                        2652.622          24.000  
 18  5  9 13 39 34.0040000  0 10G 4G14G31G16G32G26G22G 3G27G23
  21911295.999   115144660.645       -1990.002          42.000  
  23235660.312   122104249.774       -2294.697          41.000  
  23587708.176   123954265.214       -2294.411          46.000  
  21523815.991   113108379.111        1293.194          34.000  
  25741750.246   135273538.563       -3398.256          32.000  
  21639394.454   113715770.452       -1028.516          46.000  
  23458642.283                       -2125.223          21.000  
  23014500.423                        -926.560          24.000  
  25679705.368   134947791.392        3239.294          29.000  
  23844712.191                        2651.194          24.000  
 18  5  9 13 39 35.0040000  0 10G 4G14G31G16G32G26G22G 3G27G23
  21911674.826   115146651.091       -1991.034          42.000  
  23236097.021   122106545.003       -2295.803          40.000  
  23588144.589   123956559.978       -2295.284          45.000  
  21523570.065   113107086.977        1291.176          34.000  
  25742397.160   135276937.047       -3398.959          32.000  
  21639590.298   113716799.668       -1029.848          46.000  
  23459044.074                       -2125.933          19.000  
  23014677.001                        -927.868          25.000  
  25679088.067   134944552.505        3238.483          29.000  
  23844208.700                        2650.905          25.000  
 18  5  9 13 39 36.0040000  0 10G 4G14G31G16G32G26G22G 3G27G23
  21912053.880   115148643.111       -1992.712          42.000  
  23236534.306   122108841.605       -2297.303          40.000  
  23588581.472   123958855.823       -2296.449          45.000  
  21523323.982   113105796.447        1290.416          34.000  
  25743044.319   135280336.816       -3401.078          32.000  
  21639786.753   113717830.476       -1031.575          46.000  
  23459444.399                       -2128.312          18.000  
  23014855.692                        -931.308          26.000  
  25678470.312   134941314.546        3237.512          29.000  
  23843705.872                        2649.807          26.000  
 18  5  9 13 39 37.0040000  0 10G 4G14G31G16G32G26G22G 3G27G23
  21912433.212   115150636.133       -1993.066          42.000  
  23236971.277   122111139.037       -2297.690          40.000  
  23589018.600   123961152.174       -2296.131          45.000  
  21523078.283   113104507.099        1289.081          34.000  
  25743691.652   135283737.147       -3400.558          33.000  
  21639982.841   113718862.296       -1032.020          46.000  
  23459846.609                       -2128.219          19.000  
  23015037.244   120944836.6852       -930.938          27.000  
  25677853.394   134938076.973        3237.620          29.000  
  23843203.742   125296881.2163       2649.453          26.000  
 18  5  9 13 39 38.0040000  0 10G 4G14G31G16G32G26G22G 3G27G23
  21912812.493   115152629.565       -1993.646          42.000  
  23237408.544   122113436.697       -2297.521          40.000  
  23589455.641   123963448.467       -2296.336          45.000  
  21522832.636   113103218.191        1288.134          34.000  
  25744338.671   135287137.515       -3400.161          32.000  
  21640179.452   113719894.551       -1032.717          46.000  
  23460247.929                       -2125.643          20.000  
  23015216.021   120945767.6622       -930.831          28.000  
  25677237.995   134934839.152        3237.948          29.000  
  23842699.849   125294232.1922       2648.683          27.000  
 18  5  9 13 39 39.0040000  0 10G 4G14G31G16G32G26G22G 3G27G23
  21913191.582   115154623.590       -1994.385          42.000  
  23237845.533   122115734.782       -2298.309          40.000  
  23589892.595   123965744.864       -2296.456          45.000  
  21522587.199   113101929.991        1287.643          34.000  
  25744985.603   135290538.126       -3400.356          32.000  
  21640376.064   113720927.393       -1033.273          46.000  
  23460649.599                       -2119.624          20.000  
  23015394.799   120946699.4142       -932.614          27.000  
  25676621.304   134931601.278        3238.059          29.000  
  23842198.924   125291583.3172       2648.722          27.000  
 18  5  9 13 39 40.0040000  0 10G 4G14G31G16G32G26G22G 3G27G23
  21913571.263   115156618.220       -1994.751          42.000  
  23238282.538   122118033.291       -2298.316          40.000  
  23590329.408   123968041.381       -2296.296          45.000  
  21522341.901   113100642.484        1287.510          34.000  
  25745632.622   135293939.033       -3400.229          32.000  
  21640572.833   113721960.860       -1033.502          46.000  
  23461056.206                       -2116.237          20.000  
  23015571.639   120947631.7702       -932.922          27.000  
  25676003.287   134928363.350        3238.154          29.000  
  23841696.602   125288934.6792       2648.450          27.000  
 18  5  9 13 39 42.0040000  0 10G 4G14G31G16G32G26G22G 3G27G23
  21914330.889   115160609.297       -1994.977          42.000  
  23239157.318   122122631.636       -2298.483          40.000  
  23591203.385   123972634.800       -2295.741          45.000  
  21521851.533   113098069.543        1287.356          33.000  
  25746926.905   135300741.571       -3400.353          30.000  
  21640966.667   113724029.678       -1033.746          46.000  
  23461874.569                       -2133.278          23.000  
  23015927.658   120949498.4592       -932.752          27.000  
  25674768.405   134921887.545        3238.708          29.000  
  23840691.643   125283638.0162       2649.197          27.000  
 18  5  9 13 39 43.0040000  0 10G 4G14G31G16G32G26G22G 3G27G23
  21914710.763   115162604.063       -1994.708          42.000  
  23239594.271   122124929.769       -2298.018          40.000  
  23591640.269   123974929.999       -2294.598          45.000  
  21521606.078   113096782.465        1287.077          33.000  
  25747571.725   135304141.542       -3400.040          30.000  
  21641163.331   113725063.349       -1033.552          46.000  
  23462281.456                       -2119.296          24.000  
  23016104.621   120950431.1392       -932.656          27.000  
  25674150.318   134918647.811        3240.302          29.000  
  23840187.210   125280988.2642       2650.114          27.000  
 18  5  9 13 39 44.0040000  0 10G 4G14G31G16G32G26G22G 3G27G23
  21915090.567   115164599.276       -1995.386          42.000  
  23240031.696   122127228.181       -2298.807          40.000  
  23592077.187   123977225.163       -2295.229          45.000  
  21521361.182   113095495.899        1286.185          34.000  
  25748212.986   135307541.550       -3400.145          29.000  
  21641360.152   113726097.457       -1034.283          46.000  
  23462689.738                       -2129.000          25.000  
  23016281.444   120951364.3402       -933.571          27.000  
  25673532.179   134915407.982        3240.022          29.000  
  23839685.534   125278338.5822       2649.564          28.000  
 18  5  9 13 39 45.0040000  0 10G 4G14G31G16G32G26G22G 3G27G23
  21915470.597   115166595.440       -1997.211          42.000  
  23240469.120   122129527.332       -2300.084          39.000  
  23592513.862   123979520.792       -2296.258          45.000  
  21521116.634   113094210.408        1283.705          33.000  
  25748857.772   135310942.179       -3401.226          29.000  
  21641556.903   113727132.536       -1035.890          46.000  
  23463095.753                       -2128.667          26.000  
  23016460.797   120952298.5442       -935.503          27.000  
  25672914.424   134912168.443        3239.207          29.000  
  23839183.194   125275689.4592       2648.471          27.000  
 18  5  9 13 39 46.0040000  0 10G 4G14G31G16G32G26G22G 3G27G23
  21915851.204   115168592.942       -1998.236          42.000  
  23240906.859   122131827.677       -2301.071          39.000  
  23592950.780   123981817.295       -2296.995          45.000  
  21520872.052   113092926.292        1283.121          33.000  
  25749493.431   135314343.783       -3402.288          27.000  
  21641754.352   113728168.982       -1037.338          46.000  
  23463502.255                       -2129.977          26.000  
  23016638.022   120953234.1692       -936.650          27.000  
  25672298.344   134908929.598        3238.310          29.000  
  23838680.646   125273041.3022       2647.603          28.000  
 18  5  9 13 39 47.0040000  0 10G 4G14G31G16G32G26G22G 3G27G23
  21916232.142   115170591.752       -1999.499          42.000  
  23241344.615   122134129.130       -2301.957          39.000  
  23593387.925   123984114.600       -2297.726          45.000  
  21520627.714   113091643.596        1281.973          33.000  
  25750142.003   135317746.266       -3402.719          27.000  
  21641952.168   113729206.718       -1038.346          46.000  
  23463908.776                       -2131.367          25.000  
  23016816.258   120954171.1612       -937.798          28.000  
  25671680.170   134905691.435        3237.837          29.000  
  23838178.358   125270394.0152       2647.397          28.000  
 18  5  9 13 39 48.0040000  0 10G 4G14G31G16G32G26G22G 3G27G23
  21916612.871   115172590.638       -1998.468          42.000  
  23241782.546   122136430.516       -2301.078          39.000  
  23593825.158   123986411.527       -2296.293          46.000  
  21520383.795   113090361.066        1283.292          33.000  
  25750787.975   135321148.625       -3402.268          26.000  
  21642149.722   113730244.586       -1037.477          46.000  
  23464312.853                       -2129.290          25.000  
  23016992.122   120955108.2452       -936.410          28.000  
  25671062.938   134902452.696        3239.718          28.000  
  23837676.385   125267746.4172       2648.734          28.000  
 18  5  9 13 39 49.0040000  0 10G 4G14G31G16G32G26G22G 3G27G23
  21916993.373   115174589.608       -1999.524          42.000  
  23242220.442   122138731.766       -2301.961          38.000  
  23594262.147   123988708.029       -2296.945          46.000  
  21520139.492   113089078.746        1281.486          33.000  
  25751436.390   135324550.653       -3402.929          27.000  
  21642347.188   113731282.528       -1038.552          46.000  
  23464717.052                       -2130.642          23.000  
  23017173.499   120956045.583        -937.916          28.000  
  25670446.492   134899213.449        3238.772          28.000  
  23837172.214   125265098.575        2646.944          28.000  
 18  5  9 13 39 50.0040000  0 10G 4G14G31G16G32G26G22G 3G27G23
  21917374.486   115176589.644       -2000.653          42.000  
  23242658.198   122141033.906       -2302.734          38.000  
  23594699.362   123991005.111       -2297.289          46.000  
  21519895.695   113087797.555        1280.420          33.000  
  25752086.167   135327953.347       -3403.237          26.000  
  21642544.952   113732321.558       -1039.553          46.000  
  23465121.391                       -2133.612          23.000  
  23017351.579   120956983.943        -938.959          28.000  
  25669830.552   134895974.576        3238.455          28.000  
  23836670.188   125262451.244        2647.099          28.000  
 18  5  9 13 39 51.0040000  0 10G 4G14G31G16G32G26G22G 3G27G23
  21917755.616   115178591.136       -2002.197          42.000  
  23243096.233   122143337.368       -2304.282          38.000  
  23595136.786   123993303.199       -2298.535          46.000  
  21519652.352   113086517.942        1278.539          33.000  
  25752734.460   135331357.123       -3404.232          26.000  
  21642742.977   113733362.075       -1041.293          46.000  
  23465532.169                       -2134.145          23.000  
  23017529.327   120957923.857        -940.465          28.000  
  25669215.205   134892736.574        3237.242          29.000  
  23836167.675   125259805.096        2645.441          29.000  
 18  5  9 13 39 52.0040000  0 10G 4G14G31G16G32G26G22G 3G27G23
  21918137.235   115180593.636       -2002.930          43.000  
  23243534.705   122145641.630       -2304.351          38.000  
  23595574.089   123995601.772       -2298.693          46.000  
  21519408.659   113085239.399        1277.626          33.000  
  25753383.381   135334761.579       -3404.509          27.000  
  21642941.246   113734403.595       -1042.055          46.000  
  23465940.714                       -2139.037          23.000  
  23017706.359   120958864.897        -941.961          28.000  
  25668597.921   134889498.869        3237.327          29.000  
  23835664.271   125257159.521        2645.186          29.000  
 18  5  9 13 39 53.0040000  0 11G 4G14G31G16G32G26G22G29G 3G27G23
  21918518.627   115182596.889       -2003.705          43.000  
  23243973.107   122147946.507       -2305.219          38.000  
  23596011.461   123997900.648       -2298.880          46.000  
  21519165.281   113083961.686        1277.454          33.000  
  25754034.850   135338166.436       -3405.402          26.000  
  21643139.341   113735445.896       -1042.769          46.000  
  23466349.241                       -2132.744          22.000  
  25623300.419                       -1250.653          28.000  
  23017883.636   120959806.727        -942.624          28.000  
  25667982.574   134886261.335        3237.449          28.000  
  23835163.711   125254514.320        2644.644          29.000  
 18  5  9 13 39 54.0040000  0 11G 4G14G31G16G32G26G22G29G 3G27G23
  21918900.368   115184600.589       -2003.473          43.000  
  23244411.404   122150251.629       -2304.807          38.000  
  23596449.078   124000199.494       -2298.412          46.000  
  21518922.060   113082684.579        1277.160          33.000  
  25754683.195   135341571.438       -3404.824          26.000  
  21643337.575   113736488.662       -1042.705          46.000  
  23466760.229                       -2136.240          23.000  
  25623537.916   134652602.1272      -1250.588          28.000  
  23018063.879   120960749.028        -942.671          28.000  
  25667365.953   134883023.659        3237.677          28.000  
  23834661.546   125251869.108        2645.361          29.000  
 18  5  9 13 39 55.0040000  0 11G 4G14G31G16G32G26G22G29G 3G27G23
  21919282.074   115186604.235       -2003.644          43.000  
  23244850.120   122152556.538       -2304.856          38.000  
  23596886.275   124002497.783       -2298.063          46.000  
  21518679.153   113081407.457        1277.386          34.000  
  25755329.848   135344975.974       -3404.090          25.000  
  21643535.915   113737531.387       -1042.718          46.000  
  23467171.984                       -2137.515          23.000  
  25623775.832   134653852.3342      -1250.472          27.000  
  23018245.361   120961691.329        -942.130          28.000  
  25666751.374   134879785.224        3238.259          29.000  
  23834156.991   125249223.489        2646.070          29.000  
 18  5  9 13 39 56.0040000  0 11G 4G14G31G16G32G26G22G29G 3G27G23
  21919663.152   115188606.923       -2002.618          43.000  
  23245288.399   122154860.318       -2303.728          38.000  
  23597323.368   124004794.619       -2296.677          46.000  
  21518436.333   113080129.491        1277.966          34.000  
  25755980.165   135348379.243       -3403.288          25.000  
  21643734.219   113738573.136       -1041.461          45.000  
  23467581.157                       -2134.779          23.000  
  25624015.843   134655101.5282      -1248.898          27.000  
  23018423.580   120962632.764        -941.191          29.000  
  25666136.620   134876545.214        3240.333          28.000  
  23833654.983   125246576.507        2647.681          29.000  
 18  5  9 13 39 57.0040000  0 10G 4G14G31G16G32G26G22G 3G27G23
  21920044.317   115190609.721       -2003.418          43.000  
  23245726.784   122157164.047       -2304.635          38.000  
  23597760.601   124007091.099       -2296.887          46.000  
  21518192.972   113078851.737        1276.957          33.000  
  25756629.697   135351782.143       -3403.131          25.000  
  21643932.645   113739615.065       -1042.611          46.000  
  23467988.026                       -2135.224          23.000  
  23018606.546   120963574.371        -942.219          29.000  
  25665518.655   134873304.720        3239.966          29.000  
  23833152.451   125243929.254        2647.041          29.000  
 18  5  9 13 39 58.0040000  0 10G 4G14G31G16G32G26G22G 3G27G23
  21920425.430   115192613.833       -2004.761          43.000  
  23246165.186   122159468.885       -2305.129          38.000  
  23598197.677   124009388.405       -2297.537          46.000  
  21517949.821   113077575.378        1275.372          33.000  
  25757276.490                       -3407.001          22.000  
  21644131.141   113740658.295       -1043.881          46.000  
  23468396.570                       -2137.214          22.000  
  23018785.742   120964517.393        -943.803          29.000  
  25664902.436   134870064.845        3239.508          29.000  
  23832651.717   125241282.951        2646.440          29.000  
 18  5  9 13 39 59.0040000  0 10G 4G14G31G16G32G26G22G 3G27G23
  21920807.328   115194618.366       -2004.407          43.000  
  23246603.814   122161773.945       -2304.183          38.000  
  23598635.014   124011685.641       -2296.719          46.000  
  21517707.455   113076299.535        1275.591          34.000  
  25757922.305                       -3402.141          21.000  
  21644329.673   113741701.962       -1043.502          46.000  
  23468806.127                       -2140.420          22.000  
  23018964.031   120965460.838        -942.947          30.000  
  25664288.520   134866824.757        3241.172          29.000  
  23832150.547   125238636.721        2646.520          28.000  
 18  5  9 13 40  0.0040000  0 10G 4G14G31G16G32G26G22G 3G27G23
  21921189.104   115196622.757       -2004.883          43.000  
  23247042.268   122164078.773       -2305.406          38.000  
  23599072.107   124013982.274       -2296.815          46.000  
  21517464.583   113075023.642        1275.645          33.000  
  25758568.608                       -3396.866          21.000  
  21644528.047   113742745.517       -1044.033          46.000  
  23469210.675                       -2139.848          22.000  
  23019143.943   120966404.257        -943.790          30.000  
  25663673.016   134863584.004        3240.642          29.000  
  23831647.911   125235989.834        2646.778          27.000  
 18  5  9 13 40  1.0040000  0 10G 4G14G31G16G32G26G22G 3G27G23
  21921570.775   115198627.953       -2005.524          43.000  
  23247480.845   122166384.162       -2305.534          38.000  
  23599509.235   124016279.227       -2297.349          46.000  
  21517221.885   113073748.646        1274.406          34.000  
  25759216.971                       -3400.375          21.000  
  21644726.822   113743789.876       -1044.751          46.000  
  23469617.562                       -2137.600          22.000  
  23019322.563   120967348.539        -944.709          29.000  
  25663057.634   134860343.336        3240.581          29.000  
  23831146.374   125233343.416        2645.917          26.000  
 18  5  9 13 40  2.0040000  0 10G 4G14G31G16G32G26G22G 3G27G23
  21921952.236   115200633.907       -2006.073          43.000  
  23247919.700   122168690.133       -2305.396          38.000  
  23599946.328   124018576.444       -2297.009          46.000  
  21516979.920   113072474.499        1273.932          33.000  
  25759864.130                       -3398.014          21.000  
  21644925.702   113744835.024       -1045.229          46.000  
  23470019.580                       -2131.714          22.000  
  23019499.177   120968293.709        -945.832          29.000  
  25662439.372   134857102.839        3240.772          29.000  
  23830645.169   125230697.330        2646.516          26.000  
 18  5  9 13 40  3.0040000  0 10G 4G14G31G16G32G26G22G 3G27G23
  21922334.152   115202640.655       -2007.391          43.000  
  23248358.451   122170996.791       -2307.293          38.000  
  23600383.665   124020873.980       -2297.834          46.000  
  21516737.450   113071201.236        1273.161          33.000  
  25760511.934                       -3411.832          21.000  
  21645124.687   113745880.978       -1046.405          46.000  
  23470426.956                       -2129.597          23.000  
  23019681.253   120969239.645        -946.812          29.000  
  25661825.421   134853862.478        3239.731          28.000  
  23830141.870   125228051.706        2645.415          25.000  
 18  5  9 13 40  4.0040000  0 10G 4G14G31G16G32G26G22G 3G27G23
  21922716.486   115204648.951       -2009.070          43.000  
  23248797.184   122173304.767       -2308.497          38.000  
  23600820.811   124023172.587       -2299.217          46.000  
  21516495.642   113069929.623        1270.929          33.000  
  25761160.821                       -3404.110          21.000  
  21645323.916   113746928.502       -1048.454          46.000  
  23470829.689                       -2133.333          23.000  
  23019861.915   120970187.184        -948.357          29.000  
  25661206.898   134850622.962        3239.110          28.000  
  23829639.059   125225407.163        2643.799          25.000  
 18  5  9 13 40  5.0040000  0 10G 4G14G31G16G32G26G22G 3G27G23
  21923098.541   115206657.783       -2008.569          43.000  
  23249236.546   122175613.129       -2308.041          38.000  
  23601258.480   124025471.236       -2298.074          46.000  
  21516253.468   113068658.646        1271.198          33.000  
  25761806.584                       -3416.216          22.000  
  21645523.372   113747976.557       -1047.785          46.000  
  23471232.719                       -2136.223          23.000  
  23020037.761   120971135.388        -948.293          29.000  
  25660590.976   134847383.456        3239.697          28.000  
  23829134.225   125222762.787        2644.823          26.000  
 18  5  9 13 40  6.0040000  0 10G 4G14G31G16G32G26G22G 3G27G23
  21923480.422   115208665.924       -2008.380          43.000  
  23249675.733   122177920.638       -2307.644          38.000  
  23601695.311   124027768.725       -2297.394          46.000  
  21516011.451   113067387.084        1270.750          33.000  
  25762452.451                       -3404.518          22.000  
  21645722.497   113749023.952       -1047.579          46.000  
  23471638.524                       -2136.708          22.000  
  23020220.796   120972082.887        -947.484          29.000  
  25659971.842   134844142.540        3241.005          28.000  
  23828630.332   125220117.332        2645.560          26.000  
 18  5  9 13 40  7.0040000  0 10G 4G14G31G16G32G26G22G 3G27G23
  21923862.547   115210674.913       -2009.906          43.000  
  23250115.287   122180228.796       -2308.914          38.000  
  23602132.317   124030066.583       -2298.436          46.000  
  21515769.835   113066116.448        1269.340          33.000  
  25763099.557                       -3401.288          22.000  
  21645921.830   113750072.223       -1049.173          46.000  
  23472045.097                       -2137.912          22.000  
  23020406.152   120973031.431        -949.963          29.000  
  25659354.331   134840901.870        3240.474          27.000  
  23828125.846   125217472.318        2644.631          26.000  
 18  5  9 13 40  8.0040000  0 10G 4G14G31G16G32G26G22G 3G27G23
  21924244.898   115212685.016       -2009.881          43.000  
  23250554.962   122182537.900       -2308.883          39.000  
  23602569.899   124032365.067       -2298.241          45.000  
  21515528.656   113064847.025        1269.461          33.000  
  25763746.489                       -3407.524          22.000  
  21646121.566   113751121.601       -1049.207          46.000  
  23472451.669                       -2136.247          22.000  
  23020583.376   120973981.082        -951.197          29.000  
  25658737.937   134837661.675        3241.290          27.000  
  23827622.809   125214827.980        2645.257          26.000  
 18  5  9 13 40  9.0040000  0 10G 4G14G31G16G32G26G22G 3G27G23
  21924627.477   115214694.957       -2009.906          43.000  
  23250993.923   122184846.656       -2308.581          39.000  
  23603007.114   124034662.900       -2297.524          45.000  
  21515287.406   113063577.514        1269.388          34.000  
  25764393.613                       -3400.908          22.000  
  21646321.440   113752170.851       -1049.269          45.000  
  23472858.521                       -2145.306          22.000  
  23020760.409   120974930.543        -949.409          29.000  
  25658120.374   134834420.737        3241.403          27.000  
  23827120.365   125212183.262        2645.028          26.000  
 18  5  9 13 40 10.0040000  0 10G 4G14G31G16G32G26G22G 3G27G23
  21925010.090   115216705.156       -2010.693          43.000  
  23251433.354   122187155.536       -2309.519          39.000  
  23603444.154   124036960.526       -2297.967          45.000  
  21515046.192   113062308.388        1268.288          34.000  
  25765042.971                       -3409.999          22.000  
  21646520.739   113753220.361       -1050.037          46.000  
  23473260.976                       -2135.887          22.000  
  23020941.699   120975880.408        -950.337          28.000  
  25657502.828   134831179.385        3240.906          27.000  
  23826618.357   125209538.233        2644.420          26.000  
 18  5  9 13 40 11.0040000  0 10G 4G14G31G16G32G26G22G 3G27G23
  21925393.018   115218716.701       -2012.170          43.000  
  23251872.995   122189465.531       -2310.297          38.000  
  23603881.457   124039259.004       -2298.822          45.000  
  21514805.013   113061040.679        1266.866          34.000  
  25765689.623                       -3411.442          22.000  
  21646720.754   113754271.225       -1051.252          46.000  
  23473666.780                       -2142.114          21.000  
  23021121.245   120976831.740        -951.963          28.000  
  25656884.165   134827938.705        3240.963          27.000  
  23826115.494   125206894.222        2644.054          25.000  
 18  5  9 13 40 12.0040000  0 10G 4G14G31G16G32G26G22G 3G27G23
  21925775.858   115220728.366       -2011.798          43.000  
  23252312.147   122191775.546       -2310.422          38.000  
  23604318.585   124041557.122       -2298.015          45.000  
  21514563.659   113059773.188        1267.244          34.000  
  25766338.754                       -3401.240          23.000  
  21646920.786   113755322.254       -1051.093          46.000  
  23474072.428                       -2139.954          20.000  
  23021300.476   120977783.185        -951.627          28.000  
  25656267.021   134824697.679        3240.928          27.000  
  23825612.020                        2643.885          25.000  
 18  5  9 13 40 13.0040000  0 10G 4G14G31G16G32G26G22G 3G27G23
  21926158.542   115222740.132       -2011.981          44.000  
  23252751.404   122194085.433       -2309.472          38.000  
  23604755.660   124043854.872       -2297.615          45.000  
  21514322.270   113058505.927        1267.225          34.000  
  25766988.827                       -3412.088          23.000  
  21647120.783   113756373.392       -1051.044          46.000  
  23474478.896                       -2138.726          19.000  
  23021486.896   120978734.829        -951.576          28.000  
  25655649.667   134821455.972        3242.152          26.000  
  23825110.065   125201605.399        2644.135          25.000  
 18  5  9 13 40 14.0040000  0 10G 4G14G31G16G32G26G22G 3G27G23
  21926541.644   115224752.588       -2013.342          44.000  
  23253190.713   122196395.847       -2310.798          38.000  
  23605193.033   124046152.843       -2298.708          45.000  
  21514081.370   113057239.456        1264.831          33.000  
  25767640.052                       -3404.140          24.000  
  21647321.024   113757425.238       -1052.780          46.000  
  23474887.057                       -2150.013          20.000  
  23021663.859   120979687.198        -953.678          28.000  
  25655032.959   134818214.312        3241.354          26.000  
  23824606.801   125198961.100        2643.261          26.000  
 18  5  9 13 40 15.0040000  0 10G 4G14G31G16G32G26G22G 3G27G23
  21926924.990   115226767.192       -2015.289          44.000  
  23253630.424   122198708.287       -2313.224          38.000  
  23605630.719   124048452.464       -2300.011          45.000  
  21513840.940   113055975.155        1263.828          34.000  
  25768292.027                       -3406.018          25.000  
  21647521.405   113758479.245       -1054.719          46.000  
  23475294.711                       -2141.507          19.000  
  23021844.957   120980641.821        -955.585          28.000  
  25654417.577   134814974.251        3240.175          26.000  
  23824106.171   125196318.546        2641.987          25.000  
 18  5  9 13 40 16.0040000  0 10G 4G14G31G16G32G26G22G 3G27G23
  21927308.755   115228782.977       -2015.881          44.000  
  23254070.553   122201021.702       -2313.452          38.000  
  23606068.545   124050752.803       -2300.242          45.000  
  21513600.948   113054712.175        1263.234          34.000  
  25768940.948                       -3409.100          25.000  
  21647722.396   113759534.455       -1055.300          46.000  
  23475703.134                       -2147.331          19.000  
  23022028.883   120981597.651        -955.369          28.000  
  25653799.229   134811734.705        3240.487          26.000  
  23823602.192   125193676.813        2641.905          25.000  
 18  5  9 13 40 17.0040000  0 10G 4G14G31G16G32G26G22G 3G27G23
  21927692.363   115230798.299       -2015.271          44.000  
  23254510.508   122203334.472       -2312.656          38.000  
  23606506.005   124053052.178       -2299.127          45.000  
  21513360.728   113053448.871        1262.819          34.000  
  25769591.928                       -3407.731          26.000  
  21647923.231   113760589.212       -1054.859          46.000  
  23476108.712                       -2144.821          19.000  
  23022210.539   120982553.182        -956.203          28.000  
  25653182.817   134808494.160        3240.907          26.000  
  23823100.236   125191034.168        2643.386          25.000  
 18  5  9 13 40 18.0040000  0 10G 4G14G31G16G32G26G22G 3G27G23
  21928075.064   115232813.300       -2014.776          47.000  
  23254950.376   122205646.758       -2312.153          41.000  
  23606942.975   124055350.767       -2298.142          48.000  
  21513120.421   113052185.257        1264.092          37.000  
  25770246.381   135423558.1273      -3407.183          29.000  
  21648123.821   113761643.655       -1054.126          49.000  
  23476516.767                       -2154.344          19.000  
  23022390.713   120983508.290        -955.210          30.000  
  25652566.894   134805252.531        3242.154          27.000  
  23822596.553   125188390.900        2643.480          26.000  
 18  5  9 13 40 19.0040000  0 10G 4G14G31G16G32G26G22G 3G27G23
  21928458.376   115234827.728       -2014.435          47.000  
  23255390.243   122207958.297       -2311.426          41.000  
  23607379.824   124057648.292       -2297.202          48.000  
  21512880.271   113050921.246        1263.856          37.000  
  25770896.280   135426964.9472      -3406.378          31.000  
  21648324.394   113762697.559       -1053.884          49.000  
  23476926.272                       -2130.580          20.000  
  23022569.107   120984462.949        -954.667          30.000  
  25651947.638   134802009.774        3243.385          28.000  
  23822092.591   125185746.595        2644.449          27.000  
 18  5  9 13 40 20.0040000  0 10G 4G14G31G16G32G26G22G 3G27G23
  21928841.862   115236842.583       -2015.448          47.000  
  23255829.901   122210270.083       -2312.297          41.000  
  23607817.231   124059945.762       -2297.826          48.000  
  21512640.173   113049657.694        1262.982          37.000  
  25771549.092   135430371.8492      -3407.775          32.000  
  21648524.967   113763751.896       -1054.969          49.000  
  23477331.064                       -2141.686          19.000  
  23022755.231   120985418.134        -955.763          31.000  
  25651331.838   134798766.806        3242.413          29.000  
  23821587.389   125183102.331        2644.013          27.000  
 18  5  9 13 40 21.0040000  0 11G 4G14G31G16G32G26G22G29G 3G27G23
  21929225.557   115238858.353       -2016.138          47.000  
  23256269.787   122212582.627       -2312.996          41.000  
  23608254.586   124062243.685       -2298.245          48.000  
  21512399.901   113048395.193        1262.075          37.000  
  25772194.698   135433779.3032      -3408.003          32.000  
  21648726.028   113764807.176       -1055.732          49.000  
  23477742.279                       -2145.671          18.000  
  25629993.362                       -1261.629          30.000  
  23022940.465   120986374.303        -956.325          31.000  
  25650714.589   134795524.072        3242.675          29.000  
  23821083.776   125180458.597        2643.509          27.000  
 18  5  9 13 40 22.0040000  0 11G 4G14G31G16G32G26G22G29G 3G27G23
  21929609.427   115240875.646       -2017.950          47.000  
  23256709.637   122214896.504       -2314.522          41.000  
  23608692.098   124064542.631       -2299.529          48.000  
  21512160.118   113047134.304        1260.397          37.000  
  25772842.189   135437187.8302      -3408.354          32.000  
  21648927.107   113765863.979       -1057.514          49.000  
  23478152.621                       -2148.690          20.000  
  25630239.672                       -1265.656          30.000  
  23023124.146   120987332.062        -957.816          31.000  
  25650101.021   134792282.280        3241.017          29.000  
  23820582.047   125177816.062        2642.077          26.000  
 18  5  9 13 40 23.0040000  0 10G 4G14G31G16G32G26G22G29G 3G27
  21929993.716   115242894.999       -2020.050          47.000  
  23257150.290   122217212.273       -2316.292          41.000  
  23609130.151   124066843.150       -2300.968          48.000  
  21511921.015   113045875.573        1258.149          37.000  
  25773492.471   135440598.1752      -3410.697          32.000  
  21649128.692   113766922.858       -1059.522          49.000  
  23478558.914                       -2141.132          21.000  
  25630475.739   134689084.4293      -1267.476          31.000  
  23023307.443   120988291.922        -960.374          31.000  
  25649484.907   134789041.862        3240.373          30.000  
 18  5  9 13 40 24.0040000  0 10G 4G14G31G16G32G26G22G29G 3G27
  21930377.900   115244914.857       -2019.196          47.000  
  23257591.257   122219528.386       -2315.493          41.000  
  23609568.064   124069143.705       -2299.644          48.000  
  21511682.122   113044617.456        1258.871          37.000  
  25774143.399   135444008.6132      -3409.041          32.000  
  21649330.102   113767982.270       -1058.818          49.000  
  23478967.493                       -2142.991          22.000  
  25630717.983   134690351.7932      -1266.132          31.000  
  23023490.897   120989252.365        -960.038          32.000  
  25648867.500   134785801.460        3240.370          30.000  
 18  5  9 13 40 25.0040000  0 10G 4G14G31G16G32G26G22G29G 3G27
  21930761.944   115246933.697       -2018.542          47.000  
  23258031.805   122221843.308       -2314.667          41.000  
  23610005.663   124071442.756       -2298.332          48.000  
  21511442.460   113043358.404        1259.622          37.000  
  25774792.181   135447417.252       -3408.860          33.000  
  21649531.705   113769040.676       -1058.058          49.000  
  23479380.523                       -2137.892          23.000  
  25630963.350   134691618.2552      -1266.530          31.000  
  23023677.248   120990211.870        -959.474          32.000  
  25648250.461                        3243.613          29.000  
 18  5  9 13 40 26.0040000  0 10G 4G14G31G16G32G26G22G29G 3G27
  21931146.145   115248952.973       -2019.904          47.000  
  23258472.283   122224158.503       -2316.160          41.000  
  23610443.367   124073741.773       -2299.543          48.000  
  21511202.747   113042099.920        1257.614          37.000  
  25775441.782   135450826.388       -3409.684          33.000  
  21649733.063   113770099.538       -1059.584          49.000  
  23479792.767                       -2158.005          24.000  
  25631206.694   134692885.1502      -1268.099          31.000  
  23023857.683   120991171.836        -960.464          32.000  
  25647635.131   134779222.9433       3242.068          30.000  
 18  5  9 13 40 27.0040000  0 10G 4G14G31G16G32G26G22G29G 3G27
  21931530.539   115250974.343       -2021.375          47.000  
  23258913.564   122226475.592       -2316.945          41.000  
  23610881.647   124076042.395       -2300.472          49.000  
  21510963.574   113040843.587        1256.140          37.000  
  25776091.262   135454237.288       -3410.730          34.000  
  21649934.805   113771160.501       -1060.965          49.000  
  23480203.894                       -2151.840          25.000  
  25631446.337   134694154.1862      -1270.422          32.000  
  23024042.603   120992134.035        -962.772          33.000  
  25647016.538   134775982.0722       3241.156          29.000  
 18  5  9 13 40 28.0040000  0 10G 4G14G31G16G32G26G22G29G 3G27
  21931915.072   115252995.402       -2020.618          47.000  
  23259354.287   122228792.213       -2316.285          41.000  
  23611319.455   124078342.223       -2299.299          48.000  
  21510724.489   113039587.034        1257.027          36.000  
  25776740.637   135457647.560       -3409.806          34.000  
  21650136.826   113772221.175       -1060.353          49.000  
  23480618.441                       -2144.452          25.000  
  25631688.285   134695422.8452      -1268.535          33.000  
  23024226.424   120993095.898        -961.533          32.000  
  25646400.144   134772740.2702       3242.418          30.000  
 18  5  9 13 40 29.0040000  0 10G 4G14G31G16G32G26G22G29G 3G27
  21932299.169   115255016.265       -2021.051          47.000  
  23259795.184   122231108.469       -2316.613          41.000  
  23611757.072   124080641.368       -2299.121          48.000  
  21510485.211   113038330.413        1256.129          36.000  
  25777389.977   135461057.247       -3409.993          34.000  
  21650338.620   113773281.655       -1060.669          49.000  
  23481028.382                       -2152.591          24.000  
  25631926.847   134696691.3862      -1268.514          33.000  
  23024408.534   120994057.653        -962.471          32.000  
  25645780.697   134769497.5972       3243.669          30.000  
 18  5  9 13 40 30.0040000  0 10G 4G14G31G16G32G26G22G29G 3G27
  21932683.510   115257038.024       -2022.974          47.000  
  23260236.273   122233425.422       -2317.971          41.000  
  23612195.055   124082940.943       -2300.700          48.000  
  21510246.370   113037074.750        1254.325          36.000  
  25778039.335   135464467.494       -3411.455          34.000  
  21650540.502   113774343.063       -1062.607          49.000  
  23481440.381                       -2145.814          24.000  
  25632165.374   134697960.8722      -1270.491          34.000  
  23024591.290   120995020.391        -964.536          31.000  
  25645163.517   134766255.2402       3241.776          30.000  
 18  5  9 13 40 31.0040000  0 10G 4G14G31G16G32G26G22G29G 3G27
  21933068.374   115259062.308       -2025.305          47.000  
  23260677.764   122235744.751       -2320.165          40.000  
  23612632.985   124085242.543       -2302.365          48.000  
  21510008.052   113035821.725        1251.929          36.000  
  25778689.128   135467879.875       -3413.316          35.000  
  21650742.802   113775407.002       -1065.036          49.000  
  23481852.590                       -2151.801          25.000  
  25632407.775   134699232.9022      -1272.816          33.000  
  23024775.111   120995985.670        -965.759          32.000  
  25644545.012   134763014.7652       3240.630          30.000  
 18  5  9 13 40 32.0040000  0 10G 4G14G31G16G32G26G22G29G 3G27
  21933453.902   115261087.506       -2025.696          47.000  
  23261119.324   122238064.825       -2320.301          40.000  
  23613071.108   124087544.595       -2302.299          48.000  
  21509769.874   113034569.736        1251.237          36.000  
  25779338.870   135471292.884       -3413.768          35.000  
  21650945.312   113776471.888       -1065.302          49.000  
  23482267.155                       -2154.627          24.000  
  25632651.048   134700505.9092      -1273.521          33.000  
  23024959.490   120996951.995        -966.834          32.000  
  25643931.863   134759774.6472       3239.515          30.000  
 18  5  9 13 40 33.0040000  0 10G 4G14G31G16G32G26G22G29G 3G27
  21933839.255   115263113.787       -2026.965          47.000  
  23261560.710   122240385.836       -2321.894          40.000  
  23613509.353   124089847.242       -2303.068          48.000  
  21509532.080   113033318.904        1250.292          37.000  
  25779989.204   135474706.559       -3413.839          36.000  
  21651148.048   113777537.867       -1066.585          49.000  
  23482680.795                       -2158.581          23.000  
  25632893.292   134701780.0612      -1275.343          33.000  
  23025144.096   120997919.410        -967.848          32.000  
  25643318.349   134756534.8452       3240.126          30.000  
 18  5  9 13 40 34.0040000  0 10G 4G14G31G16G32G26G22G29G 3G27
  21934224.661   115265140.757       -2026.691          47.000  
  23262002.427   122242707.319       -2320.899          40.000  
  23613947.336   124092150.101       -2302.460          48.000  
  21509294.269   113032068.881        1250.261          36.000  
  25780639.731   135478120.601       -3413.943          36.000  
  21651350.872   113778604.561       -1066.542          49.000  
  23483093.894                       -2148.838          22.000  
  25633135.693   134703054.8572      -1274.119          34.000  
  23025328.963   120998887.614        -968.147          32.000  
  25642701.065   134753295.2852       3238.668          29.000  
 18  5  9 13 40 35.0040000  0 10G 4G14G31G16G32G26G22G29G 3G27
  21934609.944   115267166.903       -2026.062          47.000  
  23262444.162   122245027.823       -2320.255          41.000  
  23614385.563   124094451.653       -2301.251          48.000  
  21509056.248   113030818.124        1250.387          36.000  
  25781289.403   135481533.452       -3412.642          37.000  
  21651553.853   113779670.445       -1065.902          49.000  
  23483508.110                       -2154.922          22.000  
  25633378.042   134704328.8992      -1273.685          34.000  
  23025513.552   120999855.106        -967.280          32.000  
  25642083.118   134750054.1512       3241.276          29.000  
 18  5  9 13 40 36.0040000  0 11G 4G14G31G16G32G26G22G29G 3G27G 9
  21934995.576   115269193.356       -2026.666          47.000  
  23262885.897   122247348.466       -2320.750          40.000  
  23614823.756   124096753.028       -2301.248          48.000  
  21508818.436   113029567.756        1249.932          36.000  
  25781939.144   135484946.270       -3413.062          37.000  
  21651756.538   113780736.627       -1066.291          49.000  
  23483919.010                       -2148.818          21.000  
  25633620.443   134705603.2842      -1274.703          35.000  
  23025697.686   121000822.929        -968.172          32.000  
  25641468.748   134746812.6892       3241.732          29.000  
  26775073.091                        3189.005          17.000  
 18  5  9 13 40 37.0040000  0 11G 4G14G31G16G32G26G22G29G 3G27G 9
  21935381.366   115271220.588       -2027.881          46.000  
  23263327.475   122249669.709       -2321.603          40.000  
  23615261.930   124099054.702       -2301.908          48.000  
  21508580.468   113028318.274        1249.085          37.000  
  25782588.938   135488359.475       -3413.157          37.000  
  21651959.519   113781803.633       -1067.617          49.000  
  23484331.202                       -2163.869          21.000  
  25633863.419   134706877.977       -1275.143          34.000  
  23025882.659   121001791.559        -969.209          32.000  
  25640843.157   134743571.390        3241.320          29.000  
  26774470.430                        3189.005          16.000  
 18  5  9 13 40 38.0040000  0 11G 4G14G31G16G32G26G22G29G 3G27G 9
  21935767.050   115273248.676       -2028.064          46.000  
  23263769.593   122251991.661       -2322.003          40.000  
  23615700.088   124101356.776       -2301.990          48.000  
  21508343.022   113027069.748        1249.060          36.000  
  25783238.993   135491773.233       -3413.631          38.000  
  21652162.604   113782871.499       -1067.952          49.000  
  23484742.468                       -2155.937          20.000  
  25634106.257   134708154.111       -1276.636          34.000  
  23026067.491   121002761.196        -969.919          32.000  
  25640234.127   134740330.405        3241.092          30.000  
  26773868.066                        3189.005          16.000  
 18  5  9 13 40 39.0040000  0 11G 4G14G31G16G32G26G22G29G 3G27G 9
  21936152.840   115275277.152       -2028.735          46.000  
  23264211.573   122254313.794       -2322.254          40.000  
  23616138.455   124103658.734       -2302.074          48.000  
  21508105.542   113025821.735        1247.405          37.000  
  25783888.839   135495186.987       -3413.853          38.000  
  21652365.794   113783939.767       -1068.463          49.000  
  23485154.922                       -2158.780          18.000  
  25634349.076   134709430.607       -1276.559          35.000  
  23026252.551   121003731.208        -970.565          31.000  
  25639621.258   134737089.137        3241.129          30.000  
  26773268.092                        3189.005          14.000  
 18  5  9 13 40 40.0040000  0 11G 4G14G31G16G32G26G22G29G 3G27G 9
  21936538.926   115277306.484       -2029.883          46.000  
  23264653.587   122256636.631       -2323.232          40.000  
  23616576.717   124105961.076       -2302.611          48.000  
  21507868.185   113024574.656        1246.550          37.000  
  25784538.424   135498601.261       -3414.773          38.000  
  21652569.596   113785008.918       -1069.828          49.000  
  23485562.541                       -2158.780          13.000  
  25634592.228   134710708.031       -1278.225          35.000  
  23026438.814   121004702.141        -971.371          31.000  
  25639003.922   134733848.009        3241.309          30.000  
  26772667.508                        3189.005          14.000  
 18  5  9 13 40 41.0040000  0 11G 4G14G31G16G32G26G22G29G 3G27G 9
  21936924.890   115279336.414       -2030.066          46.000  
  23265095.374   122258959.877       -2323.013          40.000  
  23617015.084   124108263.534       -2302.213          48.000  
  21507630.687   113023328.280        1246.083          37.000  
  25785188.165   135502015.779       -3414.668          38.000  
  21652773.152   113786078.682       -1069.879          48.000  
  23485964.909                       -2158.780          11.000  
  25634835.274   134711986.071       -1278.383          35.000  
  23026630.941   121005673.780        -971.402          31.000  
  25638383.445   134730607.001        3240.466          31.000  
  26772057.065                        3189.005          13.000  
 18  5  9 13 40 42.0040000  0 11G 4G14G31G16G32G26G22G29G 3G27G 9
  21937311.238   115281367.047       -2030.847          46.000  
  23265537.458   122261283.696       -2324.049          40.000  
  23617453.085   124110566.222       -2302.576          48.000  
  21507393.539   113022082.697        1245.323          36.000  
  25785838.081   135505430.616       -3414.615          38.000  
  21652976.796   113787149.162       -1070.679          49.000  
  23486360.697                       -2155.018          15.000  
  25635078.687   134713264.856       -1279.156          36.000  
  23026814.064   121006646.223        -973.117          30.000  
  25637774.031   134727365.962        3241.187          31.000  
  26771448.750                        3189.005          13.000  
 18  5  9 13 40 43.0040000  0 12G 4G14G31G16G32G26G22G29G 3G27G23G 9
  21937697.742   115283398.281       -2031.226          46.000  
  23265979.576   122263607.916       -2324.268          40.000  
  23617891.068   124112869.045       -2302.512          47.000  
  21507156.757   113020837.808        1245.252          36.000  
  25786487.875   135508845.747       -3415.082          38.000  
  21653180.580   113788220.283       -1071.105          49.000  
  23486762.767                       -2154.713          18.000  
  25635321.874   134714544.247       -1279.152          36.000  
  23026997.344   121007619.262        -973.272          30.000  
  25637153.012   134724124.916        3241.876          31.000  
  23810018.872                        2636.815          28.000  
  26770843.193                        3189.005          12.000  
 18  5  9 13 40 44.0040000  0 11G 4G14G31G16G32G26G22G29G 3G27G23
  21938083.846   115285429.724       -2031.402          46.000  
  23266421.747   122265932.190       -2324.319          40.000  
  23618329.434   124115171.585       -2302.469          47.000  
  21506920.062   113019593.269        1244.230          37.000  
  25787138.053   135512260.703       -3414.797          38.000  
  21653384.678   113789291.618       -1071.480          49.000  
  23487161.313                       -2153.964          21.000  
  25635565.304   134715823.917       -1279.762          36.000  
  23027180.309   121008592.614        -973.322          29.000  
  25636538.904   134720883.494        3242.083          31.000  
  23809517.999   125119856.6623       2636.826          29.000  
 18  5  9 13 40 45.0040000  0 11G 4G14G31G16G32G26G22G29G 3G27G23
  21938470.717   115287461.665       -2032.318          46.000  
  23266863.796   122268256.777       -2324.774          39.000  
  23618767.435   124117474.153       -2303.048          47.000  
  21506683.228   113018349.293        1243.650          37.000  
  25787788.230   135515675.839       -3415.543          38.000  
  21653588.322   113790363.454       -1072.376          49.000  
  23487561.743                       -2149.948          23.000  
  25635808.525   134717104.127       -1281.211          36.000  
  23027378.596   121009566.558        -974.905          29.000  
  25635923.889   134717641.945        3241.599          31.000  
  23809014.647   125117219.7142       2636.625          28.000  
 18  5  9 13 40 46.0040000  0 11G 4G14G31G16G32G26G22G29G 3G27G23
  21938856.960   115289494.317       -2032.733          46.000  
  23267306.212   122270581.877       -2324.899          39.000  
  23619205.645   124119776.930       -2302.509          47.000  
  21506446.847   113017106.131        1243.115          36.000  
  25788438.129   135519091.285       -3415.324          38.000  
  21653792.524   113791436.014       -1072.596          49.000  
  23487965.419                       -2157.324          24.000  
  25636051.991   134718385.035       -1281.112          35.000  
  23027561.300   121010541.237        -975.202          29.000  
  25635306.186   134714400.507        3241.249          31.000  
  23808513.529   125114583.1952       2636.717          28.000  
 18  5  9 13 40 47.0040000  0 11G 4G14G31G16G32G26G22G29G 3G27G23
  21939243.361   115291526.591       -2032.159          46.000  
  23267748.191   122272906.470       -2324.317          39.000  
  23619643.837   124122078.869       -2301.582          47.000  
  21506210.414   113015862.682        1243.571          37.000  
  25789088.114   135522506.017       -3414.601          38.000  
  21653996.709   113792508.230       -1072.082          49.000  
  23488375.813                       -2155.229          25.000  
  25636295.247   134719665.598       -1280.217          35.000  
  23027750.792   121011515.602        -974.442          29.000  
  25634687.157   134711158.022        3242.920          31.000  
  23808005.030   125111945.8182       2637.625          28.000  
 18  5  9 13 40 48.0040000  0 11G 4G14G31G16G32G26G22G29G 3G27G23
  21939630.180   115293558.539       -2031.903          46.000  
  23268190.240   122275230.562       -2323.897          39.000  
  23620081.803   124124380.016       -2300.973          47.000  
  21505973.824   113014619.024        1243.422          37.000  
  25789737.995   135525920.088       -3414.010          38.000  
  21654200.109   113793580.144       -1072.019          49.000  
  23488784.864   123434397.5663      -2155.149          26.000  
  25636538.416   134720945.897       -1279.967          36.000  
  23027940.249   121012489.732        -973.789          29.000  
  25634071.129   134707914.597        3244.274          31.000  
  23807498.886   125109307.7982       2638.386          29.000  
 18  5  9 13 40 49.0040000  0 11G 4G14G31G16G32G26G22G29G 3G27G23
  21940016.894   115295590.441       -2032.526          46.000  
  23268632.184   122277554.428       -2324.202          39.000  
  23620519.890   124126680.623       -2300.900          47.000  
  21505737.216   113013375.398        1243.295          37.000  
  25790387.475   135529333.729       -3413.950          39.000  
  21654404.189   113794652.016       -1072.310          49.000  
  23489196.549   123436553.4422      -2156.342          27.000  
  25636781.619   134722226.228       -1280.974          35.000  
  23028131.259   121013463.853        -974.005          29.000  
  25633456.009   134704670.483        3244.222          32.000  
  23806996.756   125106669.3472       2638.183          29.000  
 18  5  9 13 40 50.0040000  0 11G 4G14G31G16G32G26G22G29G 3G27G23
  21940403.451   115297623.557       -2033.636          46.000  
  23269074.617   122279879.355       -2325.297          39.000  
  23620957.804   124128981.971       -2301.688          47.000  
  21505500.574   113012133.132        1241.487          36.000  
  25791037.164   135532748.256       -3414.925          39.000  
  21654608.444   113795725.134       -1073.806          49.000  
  23489607.188   123438710.3282      -2157.650          27.000  
  25637024.614   134723507.750       -1282.191          35.000  
  23028319.372   121014439.339        -976.488          30.000  
  25632838.498   134701426.993        3243.091          31.000  
  23806492.044   125104031.6702       2637.497          29.000  
 18  5  9 13 40 51.0040000  0 11G 4G14G31G16G32G26G22G29G 3G27G23
  21940790.567   115299657.718       -2034.857          46.000  
  23269516.875   122282205.142       -2326.569          39.000  
  23621395.944   124131283.896       -2302.424          47.000  
  21505264.089   113010891.988        1240.368          36.000  
  25791686.975   135536163.449       -3415.354          39.000  
  21654812.943   113796799.304       -1074.805          49.000  
  23490019.083   123440868.1172      -2158.448          28.000  
  25637267.870   134724790.364       -1283.129          34.000  
  23028503.664   121015415.837        -977.360          31.000  
  25632221.528   134698183.922        3242.576          32.000  
  23805989.233   125101394.7162       2636.500          29.000  
 18  5  9 13 40 52.0040000  0 11G 4G14G31G16G32G26G22G29G 3G27G23
  21941177.874   115301693.328       -2036.322          46.000  
  23269959.535   122284532.189       -2327.526          39.000  
  23621833.909   124133586.760       -2303.110          47.000  
  21505028.197   113009652.375        1238.761          36.000  
  25792336.891   135539579.753       -3416.646          38.000  
  21655017.425   113797874.932       -1076.117          49.000  
  23490429.250   123443027.2382      -2159.310          28.000  
  25637511.195   134726074.487       -1284.941          34.000  
  23028699.787   121016393.905        -979.108          31.000  
  25631604.593   134694941.658        3241.969          32.000  
  23805487.225   125098758.7732       2635.315          28.000  
 18  5  9 13 40 53.0040000  0 11G 4G14G31G16G32G26G22G29G 3G27G23
  21941565.479   115303729.699       -2036.212          46.000  
  23270402.491   122286859.865       -2327.482          39.000  
  23622271.980   124135889.947       -2302.737          47.000  
  21504792.165   113008413.625        1239.119          36.000  
  25792986.877   135542996.488       -3416.429          38.000  
  21655222.343   113798951.359       -1076.270          49.000  
  23490840.761   123445187.0322      -2159.552          28.000  
  25637754.888   134727359.395       -1285.071          34.000  
  23028882.072   121017372.779        -979.222          32.000  
  25630987.763   134691699.540        3242.911          33.000  
  23804983.315   125096123.2182       2635.817          28.000  
 18  5  9 13 40 54.0040000  0 11G 4G14G31G16G32G26G22G29G 3G27G23
  21941953.083   115305766.405       -2037.769          43.000  
  23270845.552   122289187.698       -2328.671          36.000  
  23622710.207   124138192.978       -2303.761          44.000  
  21504556.500   113007175.343        1237.531          32.000  
  25793636.880   135546413.194       -3418.028          35.000  
  21655427.365   113800028.122       -1077.706          46.000  
  23491253.040   123447346.9772      -2160.574          27.000  
  25637999.034   134728644.641       -1286.121          31.000  
  23029069.819   121018352.019        -980.236          29.000  
  25630370.880   134688457.122        3241.782          31.000  
  23804479.632   125093487.5352       2635.592          28.000  
 18  5  9 13 40 55.0040000  0 11G 4G14G31G16G32G26G22G29G 3G27G23
  21942340.635   115307804.618       -2039.032          43.000  
  23271288.735   122291516.884       -2330.314          36.000  
  23623148.801   124140497.054       -2304.803          44.000  
  21504321.218   113005938.653        1236.097          33.000  
  25794287.546   135549831.024       -3418.525          36.000  
  21655632.336   113801106.433       -1079.177          46.000  
  23491667.832   123449507.820       -2161.828          27.000  
  25638240.946   134729931.489       -1287.316          30.000  
  23029252.418   121019332.873        -981.409          29.000  
  25629758.744   134685215.655        3240.801          31.000  
  23803975.687   125090853.1392       2633.265          27.000  
 18  5  9 13 40 56.0040000  0 11G 4G14G31G16G32G26G22G29G 3G27G23
  21942728.640   115309843.903       -2039.478          43.000  
  23271731.866   122293846.963       -2330.535          36.000  
  23623586.976   124142801.701       -2304.873          44.000  
  21504086.181   113004703.138        1235.122          34.000  
  25794937.986   135553249.590       -3418.410          36.000  
  21655837.934   113802185.826       -1079.818          46.000  
  23492081.192   123451670.157       -2162.531          27.000  
  25638484.691   134731219.444       -1288.848          30.000  
  23029437.896   121020314.919        -982.369          29.000  
  25629137.604   134681974.551        3241.362          31.000  
  23803474.220   125088219.3472       2633.614          27.000  
 18  5  9 13 40 57.0040000  0 11G 4G14G31G16G32G26G22G29G 3G27G23
  21943116.646   115311883.472       -2039.667          43.000  
  23272174.875   122296177.099       -2329.854          35.000  
  23624025.360   124145106.151       -2304.219          44.000  
  21503851.040   113003468.019        1234.709          34.000  
  25795588.635   135556668.096       -3418.615          36.000  
  21656043.602   113803265.506       -1079.825          46.000  
  23492494.728   123453832.600       -2162.579          27.000  
  25638723.951   134732507.626       -1288.003          30.000  
  23029624.055   121021297.262        -982.261          28.000  
  25628518.418   134678733.205        3240.593          31.000  
  23802972.474   125085585.4282       2634.009          27.000  
 18  5  9 13 40 58.0040000  0 11G 4G14G31G16G32G26G22G29G 3G27G23
  21943504.599   115313922.807       -2039.319          43.000  
  23272617.866   122298506.913       -2330.140          35.000  
  23624463.936   124147409.905       -2303.584          44.000  
  21503615.444   113002232.714        1235.277          34.000  
  25796239.144   135560085.991       -3417.422          36.000  
  21656249.061   113804344.969       -1079.579          46.000  
  23492907.460   123455994.701       -2162.117          28.000  
  25638970.993   134733795.694       -1287.965          30.000  
  23029811.348   121022279.404        -982.237          28.000  
  25627902.373   134675490.889        3242.816          31.000  
  23802469.385   125082950.9762       2634.219          27.000  
 18  5  9 13 40 59.0040000  0 11G 4G14G31G16G32G26G22G29G 3G27G23
  21943893.076   115315962.536       -2040.448          43.000  
  23273060.683   122300836.887       -2330.582          35.000  
  23624902.600   124149713.565       -2304.030          44.000  
  21503380.407   113000997.979        1233.876          33.000  
  25796889.496   135563503.949       -3418.308          36.000  
  21656454.695   113805424.831       -1080.249          46.000  
  23493321.397   123458157.047       -2162.705          29.000  
  25639214.459   134735084.157       -1289.163          29.000  
  23029999.357   121023262.076        -983.154          27.000  
  25627281.878   134672248.420        3242.142          31.000  
  23801966.522   125080316.5572       2633.051          27.000  
 18  5  9 13 41  0.0040000  0 11G 4G14G31G16G32G26G22G29G 3G27G23
  21944281.518   115318003.218       -2041.425          43.000  
  23273503.848   122303167.689       -2331.447          35.000  
  23625341.106   124152017.707       -2304.479          44.000  
  21503145.405   112999764.259        1232.244          33.000  
  25797539.970   135566922.524       -3419.255          35.000  
  21656660.537   113806505.700       -1081.497          46.000  
  23493733.693   123460320.230       -2163.839          30.000  
  25639456.354   134736373.560       -1288.729          29.000  
  23030184.242   121024245.771        -984.353          27.000  
  25626665.327   134669006.227        3242.671          30.000  
  23801465.055   125077682.6172       2632.924          27.000  
 18  5  9 13 41  1.0040000  0 11G 4G14G31G16G32G26G22G29G 3G27G23
  21944670.326   115320044.568       -2041.510          43.000  
  23273947.154   122305498.997       -2331.647          35.000  
  23625779.316   124154322.059       -2304.384          44.000  
  21502910.508   112998531.282        1232.745          33.000  
  25798190.689   135570341.399       -3418.904          36.000  
  21656866.432   113807587.244       -1081.727          46.000  
  23494144.349   123462483.934       -2163.803          30.000  
  25639703.519   134737663.759       -1290.351          29.000  
  23030372.216   121025230.156        -984.531          25.000  
  25626049.770   134665764.178        3241.906          31.000  
  23800965.263   125075048.466        2633.638          27.000  
 18  5  9 13 41  2.0040000  0 11G 4G14G31G16G32G26G22G29G 3G27G23
  21945059.099   115322086.570       -2042.084          43.000  
  23274390.634   122307830.722       -2331.236          35.000  
  23626217.962   124156626.564       -2304.392          44.000  
  21502675.820   112997299.061        1232.632          33.000  
  25798841.163   135573760.557       -3419.101          35.000  
  21657072.363   113808669.452       -1082.281          46.000  
  23494553.749   123464648.164       -2164.074          30.000  
  25639948.118   134738954.629       -1291.128          29.000  
  23030562.790   121026215.307        -985.620          25.000  
  25625432.696   134662522.103        3242.728          31.000  
  23800462.435   125072415.040        2633.733          27.000  
 18  5  9 13 41  3.0040000  0 11G 4G14G31G16G32G26G22G29G 3G27G23
  21945447.960   115324128.202       -2041.724          43.000  
  23274833.730   122310161.980       -2331.413          35.000  
  23626656.155   124158930.236       -2303.565          44.000  
  21502441.167   112996066.648        1231.869          33.000  
  25799491.603   135577179.009       -3418.503          36.000  
  21657278.153   113809751.316       -1081.880          46.000  
  23494967.406   123466811.923       -2163.805          30.000  
  25640194.725   134740245.117       -1290.695          28.000  
  23030751.269   121027200.063        -984.479          25.000  
  25624814.906   134659279.058        3242.643          30.000  
  23799960.968   125069780.959        2634.503          27.000  
 18  5  9 13 41  4.0040000  0 11G 4G14G31G16G32G26G22G29G 3G27G23
  21945836.297   115326170.072       -2041.815          43.000  
  23275277.227   122312493.272       -2331.017          35.000  
  23627094.382   124161233.668       -2303.353          44.000  
  21502206.479   112994834.504        1231.740          33.000  
  25800141.972   135580597.334       -3418.249          36.000  
  21657484.223   113810833.439       -1082.220          46.000  
  23495378.725   123468975.792       -2163.922          30.000  
  25640437.108   134741535.890       -1290.679          28.000  
  23030936.451                        -984.839          25.000  
  25624198.721   134656035.562        3243.495          29.000  
  23799459.449   125067146.731        2633.860          27.000  
 18  5  9 13 41  5.0040000  0 11G 4G14G31G16G32G26G22G29G 3G27G23
  21946225.158   115328212.601       -2043.140          43.000  
  23275720.742   122314825.100       -2332.853          35.000  
  23627533.168   124163537.260       -2303.882          44.000  
  21501971.913   112993603.162        1229.436          33.000  
  25800792.447   135584015.951       -3418.925          35.000  
  21657690.205   113811916.222       -1083.419          46.000  
  23495794.302   123471140.175       -2165.442          29.000  
  25640696.628   134742827.392       -1292.792          28.000  
  23031123.936   121029171.032        -986.727          25.000  
  25623578.924   134652792.184        3243.018          30.000  
  23798960.931   125064512.737        2633.175          27.000  
 18  5  9 13 41  6.0040000  0 11G 4G14G31G16G32G26G22G29G 3G27G23
  21946614.175   115330256.048       -2043.805          43.000  
  23276164.344   122317157.620       -2332.463          35.000  
  23627971.570   124165841.327       -2304.064          44.000  
  21501737.574   112992372.752        1230.507          32.000  
  25801442.956   135587435.158       -3419.152          35.000  
  21657896.728   113812999.953       -1083.981          46.000  
  23496203.632   123473305.323       -2165.329          29.000  
  25640944.299   134744119.844       -1293.003          28.000  
  23031310.566   121030157.920        -987.512          25.000  
  25622964.450   134649549.017        3243.489          30.000  
  23798459.988   125061879.241        2633.709          28.000  
 18  5  9 13 41  7.0040000  0 11G 4G14G31G16G32G26G22G29G 3G27G23
  21947002.879   115332299.645       -2043.433          43.000  
  23276607.963   122319490.190       -2332.977          35.000  
  23628410.024   124168145.053       -2303.193          44.000  
  21501503.218   112991142.716        1230.186          32.000  
  25802093.116   135590854.159       -3418.366          35.000  
  21658103.060   113814083.863       -1083.853          46.000  
  23496614.253   123475470.561       -2164.970          29.000  
  25641192.109   134745412.480       -1292.727          29.000  
  23031496.586   121031144.996        -986.755          25.000  
  25622348.160   134646305.461        3244.197          30.000  
  23797960.528   125059245.565        2634.502          28.000  
 18  5  9 13 41  8.0040000  0 11G 4G14G31G16G32G26G22G29G 3G27G23
  21947392.281   115334343.389       -2043.994          43.000  
  23277051.827   122321822.643       -2332.459          35.000  
  23628848.391   124170448.436       -2303.304          44.000  
  21501268.617   112989912.898        1229.067          31.000  
  25802743.747   135594272.939       -3418.543          35.000  
  21658309.496   113815167.919       -1084.252          46.000  
  23497025.345   123477635.746       -2165.161          28.000  
  25641437.599   134746705.285       -1293.168          29.000  
  23031683.600                        -986.957          24.000  
  25621730.108   134643061.425        3243.872          30.000  
  23797460.910   125056611.699        2633.942          28.000  
 18  5  9 13 41  9.0040000  0 11G 4G14G31G16G32G26G22G29G 3G27G23
  21947781.403   115336387.502       -2044.507          43.000  
  23277495.586   122324155.373       -2333.323          34.000  
  23629286.409   124172751.726       -2303.594          44.000  
  21501034.173   112988683.474        1228.958          31.000  
  25803394.536   135597691.719       -3418.359          35.000  
  21658516.036   113816252.355       -1084.768          46.000  
  23497437.310   123479801.203       -2166.006          28.000  
  25641686.038   134747998.507       -1293.732          29.000  
  23031870.788                        -990.051          23.000  
  25621113.016   134639817.109        3243.882          30.000  
  23796959.042   125053977.731        2634.018          28.000  
 18  5  9 13 41 10.0040000  0 11G 4G14G31G16G32G26G22G29G 3G27G23
  21948170.717   115338432.339       -2045.422          43.000  
  23277939.502   122326488.607       -2333.580          34.000  
  23629725.160   124175055.266       -2304.048          44.000  
  21500799.939   112987454.978        1227.586          31.000  
  25804045.028   135601110.926       -3419.304          35.000  
  21658722.647   113817337.562       -1085.720          46.000  
  23497850.880   123481967.254       -2166.097          28.000  
  25641931.685   134749292.494       -1294.709          29.000  
  23032057.401                        -987.642          23.000  
  25620493.185   134636572.880        3244.313          30.000  
  23796458.273   125051344.146        2633.255          28.000  
 18  5  9 13 41 12.0040000  0 11G 4G14G31G16G32G26G22G29G 3G27G23
  21948949.748   115342524.236       -2046.710          43.000  
  23278827.700   122331156.868       -2334.565          34.000  
  23630602.085   124179663.133       -2304.198          44.000  
  21500331.750   112985000.439        1226.224          30.000  
  25805346.465   135607950.463       -3419.874          35.000  
  21659136.235   113819510.241       -1087.277          47.000  
  23498676.572   123486301.249       -2167.498          27.000  
  25642421.460   134751882.829       -1296.758          30.000  
  23032427.014                        -990.447          23.000  
  25619259.803   134630084.857        3244.757          30.000  
  23795457.678   125046078.039        2633.217          28.000  
 18  5  9 13 41 13.0040000  0 11G 4G14G31G16G32G26G22G29G 3G27G23
  21949339.236   115344571.027       -2046.942          43.000  
  23279271.704   122333491.602       -2334.697          34.000  
  23631040.574   124181967.200       -2304.089          44.000  
  21500094.462   112983774.139        1226.253          30.000  
  25805997.183   135611370.545       -3419.812          35.000  
  21659343.229   113820597.447       -1087.367          47.000  
  23499090.770   123488468.915       -2168.062          26.000  
  25642668.729   134753178.864       -1296.910          30.000  
  23032610.677                        -988.999          24.000  
  25618639.151   134626840.815        3244.025          30.000  
  23794955.722   125043445.311        2632.220          29.000  
 18  5  9 13 41 14.0040000  0 10G 4G14G31G16G32G26G22G29G27G23
  21949728.865   115346618.050       -2047.412          43.000  
  23279715.620   122335826.394       -2335.286          34.000  
  23631478.872   124184271.019       -2303.964          44.000  
  21499853.509   112982548.247        1225.183          30.000  
  25806648.199   135614790.516       -3419.977          35.000  
  21659550.311   113821684.903       -1087.900          47.000  
  23499506.836   123490636.681       -2168.317          26.000  
  25642913.730   134754475.167       -1296.741          30.000  
  25618023.909   134623596.306        3244.706          30.000  
  23794452.824   125040812.297        2633.011          28.000  
 18  5  9 13 41 15.0040000  0 11G 4G14G31G16G32G26G22G29G 3G27G23
  21950118.773   115348665.861       -2048.358          43.000  
  23280159.937   122338161.759       -2335.495          33.000  
  23631917.343   124186575.153       -2304.317          44.000  
  21499621.753   112981323.161        1224.329          30.000  
  25807298.935   135618210.926       -3420.581          35.000  
  21659757.218   113822773.174       -1089.012          47.000  
  23499920.109   123492805.027       -2168.162          26.000  
  25643160.267   134755772.305       -1296.954          31.000  
  23032981.442                        -990.773          22.000  
  25617405.281   134620352.006        3244.197          30.000  
  23793950.659   125038179.797        2632.634          28.000  
 18  5  9 13 41 16.0040000  0 10G 4G14G31G16G32G26G22G29G27G23
  21950508.663   115350714.091       -2048.187          43.000  
  23280604.202   122340497.421       -2335.642          34.000  
  23632355.640   124188879.226       -2303.846          44.000  
  21499386.593   112980098.651        1224.424          29.000  
  25807949.392   135621631.352       -3419.600          34.000  
  21659964.544   113823861.854       -1088.737          47.000  
  23500334.552   123494973.773       -2168.433          26.000  
  25643407.432   134757069.925       -1298.070          31.000  
  25616789.882   134617107.475        3245.231          29.000  
  23793449.105   125035547.304        2632.850          28.000  
 18  5  9 13 41 17.0040000  0 10G 4G14G31G16G32G26G22G29G27G23
  21950898.605   115352762.297       -2048.468          43.000  
  23281048.991   122342832.854       -2335.497          35.000  
  23632793.745   124191182.810       -2303.491          44.000  
  21499149.375   112978874.204        1224.267          29.000  
  25808599.918   135625051.490       -3420.542          34.000  
  21660171.783   113824950.557       -1089.090          47.000  
  23500747.634                       -2168.746          25.000  
  25643651.735   134758367.512       -1297.780          31.000  
  25616165.356   134613862.328        3245.619          29.000  
  23792944.811   125032914.440        2632.589          28.000  
 18  5  9 13 41 18.0040000  0 10G 4G14G31G16G32G26G22G29G27G23
  21951288.548   115354810.817       -2048.944          43.000  
  23281493.483   122345168.470       -2336.020          35.000  
  23633231.816   124193486.242       -2303.787          44.000  
  21498914.740   112977650.157        1224.007          29.000  
  25809250.707   135628471.521       -3420.375          34.000  
  21660379.057   113826039.582       -1089.468          47.000  
  23501159.424                       -2168.784          24.000  
  25643899.703   134759665.484       -1298.428          32.000  
  25615549.765   134610616.949        3244.255          30.000  
  23792441.774   125030281.468        2632.656          28.000  
 18  5  9 13 41 19.0040000  0 10G 4G14G31G16G32G26G22G29G27G23
  21951678.438   115356859.672       -2049.182          43.000  
  23281938.272   122347504.233       -2335.682          35.000  
  23633670.026   124195789.511       -2303.426          44.000  
  21498679.109   112976426.601        1223.219          29.000  
  25809901.495   135631891.549       -3419.689          34.000  
  21660586.418   113827128.964       -1089.749          47.000  
  23501571.947                       -2170.234          23.000  
  25644148.281   134760963.779       -1297.484          31.000  
  25614932.935   134607371.158        3245.507          29.000  
  23791936.904   125027648.395        2633.233          28.000  
 18  5  9 13 41 20.0040000  0 10G 4G14G31G16G32G26G22G29G27G23
  21952068.503   115358909.172       -2050.153          43.000  
  23282383.147   122349840.469       -2336.655          35.000  
  23634108.026   124198092.932       -2303.559          44.000  
  21498449.517   112975203.794        1221.508          29.000  
  25810552.249   135635311.883       -3420.855          34.000  
  21660793.691   113828218.993       -1090.393          47.000  
  23501986.372                       -2170.075          22.000  
  25644398.063   134762262.831       -1300.289          32.000  
  25614313.644   134604125.390        3245.950          29.000  
  23791435.211   125025015.661        2632.771          28.000  
 18  5  9 13 41 21.0040000  0 10G 4G14G31G16G32G26G22G29G27G23
  21952458.620   115360959.306       -2050.476          43.000  
  23282827.884   122352177.180       -2336.829          35.000  
  23634546.341   124200396.526       -2303.307          44.000  
  21498222.315   112973981.661        1222.021          29.000  
  25811203.212   135638732.478       -3420.636          33.000  
  21661001.296   113829309.687       -1090.870          47.000  
  23502397.971                       -2170.459          21.000  
  25644643.571   134763562.520       -1299.601          32.000  
  25613697.320   134600879.731        3245.751          28.000  
  23790935.349   125022383.193        2632.366          28.000  
 18  5  9 13 41 22.0040000  0 10G 4G14G31G16G32G26G22G29G27G23
  21952848.667   115363009.359       -2050.208          43.000  
  23283272.533   122354513.677       -2337.023          35.000  
  23634984.708   124202699.599       -2303.063          44.000  
  21497993.647   112972759.553        1221.949          30.000  
  25811853.511   135642152.677       -3420.431          33.000  
  21661208.675   113830400.339       -1090.876          47.000  
  23502809.970                       -2166.608          20.000  
  25644889.741   134764862.174       -1299.897          32.000  
  25613075.865   134597633.311        3246.869          28.000  
  23790435.837   125019750.229        2633.121          28.000  
 18  5  9 13 41 23.0040000  0 10G 4G14G31G16G32G26G22G29G27G23
  21953238.906   115365059.695       -2050.610          43.000  
  23283717.182   122356850.243       -2337.072          35.000  
  23635422.725   124205002.455       -2303.076          44.000  
  21497762.310   112971537.873        1221.709          30.000  
  25812503.986   135645572.777       -3420.079          33.000  
  21661416.542   113831491.280       -1091.447          47.000  
  23503224.797                       -2165.458          18.000  
  25645136.522   134766162.169       -1299.812          32.000  
  25612456.574   134594386.625        3246.729          28.000  
  23789936.097   125017117.144        2633.649          28.000  
 18  5  9 13 41 24.0040000  0 10G 4G14G31G16G32G26G22G29G27G23
  21953629.041   115367110.577       -2050.720          43.000  
  23284161.848   122359187.239       -2337.454          35.000  
  23635860.761   124207305.389       -2302.656          44.000  
  21497530.588   112970316.865        1221.192          30.000  
  25813154.826   135648993.063       -3419.975          33.000  
  21661624.130   113832582.773       -1091.228          47.000  
  23503636.221                       -2171.737          17.000  
  25645383.809   134767462.724       -1300.983          32.000  
  25611837.283   134591139.873        3246.954          28.000  
  23789435.189   125014484.307        2633.125          28.000  
 18  5  9 13 41 25.0040000  0 10G 4G14G31G16G32G26G22G29G27G23
  21954018.983   115369161.515       -2051.337          43.000  
  23284606.707   122361524.037       -2336.693          35.000  
  23636298.622   124209607.877       -2302.573          44.000  
  21497295.953   112969095.982        1220.419          30.000  
  25813805.353   135652413.103       -3421.216          33.000  
  21661831.875   113833674.350       -1091.729          47.000  
  23504047.697                       -2167.836          17.000  
  25645630.921   134768763.361       -1301.241          32.000  
  25611220.226   134587892.444        3247.884          28.000  
  23788936.322   125011851.095        2632.676          28.000  
 18  5  9 13 41 26.0040000  0 10G 4G14G31G16G32G26G22G29G27G23
  21954409.484   115371213.220       -2052.094          43.000  
  23285051.600   122363861.516       -2338.177          35.000  
  23636736.901   124211910.666       -2303.163          44.000  
  21497065.400   112967875.950        1219.384          30.000  
  25814456.107   135655833.480       -3420.675          33.000  
  21662039.724   113834766.713       -1092.877          47.000  
  23504459.557                       -2169.316          17.000  
  25645878.470   134770064.837       -1302.095          32.000  
  25610600.552   134584645.262        3247.496          28.000  
  23788433.913   125009218.250        2632.431          27.000  
 18  5  9 13 41 27.0040000  0 11G 4G14G31G16G32G26G22G29G 3G27G23
  21954800.090   115373265.534       -2052.527          43.000  
  23285496.458   122366199.421       -2338.491          35.000  
  23637174.989   124214213.591       -2302.904          44.000  
  21496834.011   112966656.652        1219.208          31.000  
  25815106.913   135659254.170       -3421.363          33.000  
  21662247.556   113835859.693       -1093.142          47.000  
  23504872.621                       -2169.460          19.000  
  25646126.001   134771366.924       -1302.837          32.000  
  23035215.559                        -992.031          18.000  
  25609983.809   134581398.065        3247.371          27.000  
  23787933.597   125006585.643        2632.650          27.000  
 18  5  9 13 41 28.0040000  0 11G 4G14G31G16G32G26G22G29G 3G27G23
  21955190.434   115375318.154       -2052.850          42.000  
  23285941.439   122368537.446       -2338.051          34.000  
  23637613.216   124216516.344       -2302.934          43.000  
  21496600.247   112965437.791        1218.393          30.000  
  25815757.631   135662674.786       -3421.521          32.000  
  21662455.737   113836953.001       -1093.630          46.000  
  23505285.092                       -2168.404          19.000  
  25646373.987   134772669.361       -1302.134          32.000  
  23035403.585                        -992.031          19.000  
  25609366.263   134578150.519        3248.205          26.000  
  23787431.956   125003952.984        2632.830          26.000  
 18  5  9 13 41 29.0040000  0 11G 4G14G31G16G32G26G22G29G 3G27G23
  21955580.987   115377371.425       -2053.522          41.000  
  23286386.733   122370875.952       -2338.316          34.000  
  23638051.112   124218819.273       -2302.917          42.000  
  21496366.711   112964219.594        1218.121          28.000  
  25816408.559   135666095.685       -3420.600          31.000  
  21662663.901   113838046.986       -1094.349          45.000  
  23505695.259                       -2166.219          18.000  
  25646620.331   134773972.497       -1303.821          31.000  
  23035596.375                        -992.031          18.000  
  25608745.838   134574903.038        3247.832          25.000  
  23786930.227   125001320.539        2632.648          25.000  
 18  5  9 13 41 30.0040000  0 11G 4G14G31G16G32G26G22G29G 3G27G23
  21955971.680   115379425.325       -2053.394          44.000  
  23286832.272   122373214.952       -2338.583          36.000  
  23638489.566   124221122.352       -2302.313          46.000  
  21496139.719   112963002.244        1217.813          31.000  
  25817059.348   135669516.920       -3421.142          33.000  
  21662872.326   113839141.600       -1094.114          48.000  
  23506105.706                       -2174.006          18.000  
  25646864.791   134775276.263       -1303.295          33.000  
  23035791.224                        -992.031          18.000  
  25608126.512   134571655.626        3247.773          26.000  
  23786429.912   124998688.451        2632.286          26.000  
 18  5  9 13 41 31.0040000  0 11G 4G14G31G16G32G26G22G29G 3G27G23
  21956362.722   115381478.394       -2052.783          44.000  
  23287277.497   122375552.951       -2338.123          36.000  
  23638927.549   124223424.138       -2301.345          46.000  
  21495909.062   112961784.130        1217.863          31.000  
  25817710.014   135672936.927       -3420.064          34.000  
  21663080.472   113840235.422       -1093.659          48.000  
  23506514.390                       -2164.108          19.000  
  25647117.244   134776579.278       -1302.809          34.000  
  23035979.093                        -992.031          17.000  
  25607506.715   134568406.715        3249.120          27.000  
  23785932.249   124996055.065        2633.595          27.000  
 18  5  9 13 41 32.0040000  0 11G 4G14G31G16G32G26G22G29G 3G27G23
  21956752.961   115383531.634       -2053.809          44.000  
  23287722.809   122377890.921       -2338.564          36.000  
  23639366.283   124225725.598       -2301.777          47.000  
  21495678.649   112960566.251        1217.909          32.000  
  25818360.610   135676356.732       -3420.208          34.000  
  21663288.584   113841329.419       -1094.447          48.000  
  23506922.184                       -2170.960          19.000  
  25647364.566   134777882.470       -1303.654          34.000  
  23036173.994                        -992.031          17.000  
  25606888.332   134565157.278        3249.215          28.000  
  23785432.737   124993421.460        2633.266          27.000  
 18  5  9 13 41 33.0040000  0 11G 4G14G31G16G32G26G22G29G 3G27G23
  21957143.899   115385586.264       -2055.353          44.000  
  23288167.982   122380230.155       -2340.057          36.000  
  23639804.737   124228027.998       -2302.947          46.000  
  21495447.748   112959349.914        1215.547          32.000  
  25819011.573   135679777.629       -3421.537          34.000  
  21663497.096   113842424.848       -1096.333          48.000  
  23507328.390                       -2177.540          19.000  
  25647611.678   134779187.107       -1304.684          34.000  
  23036363.800                        -992.031          15.000  
  25606272.479   134561908.691        3248.449          28.000  
  23784932.718   124990788.884        2631.930          28.000  
 18  5  9 13 41 34.0040000  0 10G 4G14G31G16G32G26G22G29G27G23
  21957534.906   115387641.952       -2055.750          44.000  
  23288613.276   122382570.248       -2339.947          36.000  
  23640243.156   124230330.972       -2302.848          47.000  
  21495216.096   112958134.734        1214.851          32.000  
  25819662.623   135683199.171       -3420.334          34.000  
  21663705.766   113843521.333       -1096.638          49.000  
  23507740.529                       -2177.749          19.000  
  25647860.134   134780492.854       -1305.621          34.000  
  25605655.090   134558660.578        3248.260          28.000  
  23784435.300   124988156.998        2632.073          28.000  
 18  5  9 13 41 35.0040000  0 11G 4G14G31G16G32G26G22G29G 3G27G23
  21957925.913   115389697.873       -2056.061          44.000  
  23289058.955   122384910.407       -2340.177          37.000  
  23640681.122   124232633.697       -2302.682          47.000  
  21494987.254   112956919.868        1214.436          32.000  
  25820313.551   135686620.652       -3420.573          33.000  
  21663914.244   113844618.067       -1096.917          49.000  
  23508152.895                       -2177.800          20.000  
  25648110.004   134781798.837       -1306.130          35.000  
  23036746.850                        -996.914          16.000  
  25605038.609   134555412.026        3248.482          28.000  
  23783938.457   124985524.989        2631.774          28.000  
 18  5  9 13 41 36.0040000  0 12G 4G14G31G16G32G26G22G29G 3G27G23G 9
  21958317.042   115391754.269       -2056.921          44.000  
  23289504.634   122387250.877       -2340.942          37.000  
  23641119.681   124234936.416       -2302.835          47.000  
  21494756.004   112955705.592        1213.888          32.000  
  25820964.183   135690042.235       -3421.495          33.000  
  21664122.826   113845715.287       -1097.548          49.000  
  23508565.296                       -2178.120          21.000  
  25648358.390   134783105.363       -1306.908          35.000  
  23036940.705                        -996.914          17.000  
  25604419.876   134552163.346        3248.866          28.000  
  23783439.311   124982892.994        2631.825          28.000  
  26738718.982                        3188.000          16.000  
 18  5  9 13 41 37.0040000  0 12G 4G14G31G16G32G26G22G29G 3G27G23G 9
  21958708.189   115393811.091       -2056.964          44.000  
  23289950.504   122389591.621       -2340.792          37.000  
  23641558.135   124237239.130       -2302.744          47.000  
  21494524.003   112954491.885        1213.235          32.000  
  25821615.216   135693463.967       -3422.011          33.000  
  21664331.705   113846812.994       -1097.920          48.000  
  23508978.029                       -2177.181          20.000  
  25648606.759   134784412.377       -1307.350          35.000  
  23037135.990                        -996.914          19.000  
  25603802.331   134548914.487        3249.579          27.000  
  23782941.090   124980261.163        2631.794          28.000  
  26738111.244                        3188.000          15.000  
 18  5  9 13 41 38.0040000  0 12G 4G14G31G16G32G26G22G29G 3G27G23G 9
  21959099.318   115395868.398       -2058.081          44.000  
  23290396.183   122391932.684       -2341.946          37.000  
  23641996.624   124239541.806       -2303.180          47.000  
  21494292.910   112953278.730        1212.251          32.000  
  25822266.004   135696885.741       -3422.793          33.000  
  21664540.567   113847911.172       -1098.930          48.000  
  23509392.925                       -2173.982          20.000  
  25648855.826   134785719.890       -1308.364          36.000  
  23037333.282                        -996.914          21.000  
  25603183.459   134545665.550        3248.636          27.000  
  23782440.967   124977629.368        2631.478          28.000  
  26737500.311                        3188.000          14.000  
 18  5  9 13 41 39.0040000  0 12G 4G14G31G16G32G26G22G29G 3G27G23G 9
  21959490.935   115397926.703       -2058.527          44.000  
  23290841.879   122394274.550       -2341.981          38.000  
  23642435.183   124241845.028       -2303.345          48.000  
  21494062.061   112952066.698        1211.302          32.000  
  25822917.037   135700308.225       -3423.469          33.000  
  21664749.656   113849010.377       -1099.519          49.000  
  23509809.863                       -2173.966          21.000  
  25649104.614   134787028.427       -1308.884          36.000  
  23037528.306                        -996.914          22.000  
  25602566.052   134542416.973        3248.341          28.000  
  23781942.100   124974998.197        2631.317          29.000  
  26736889.973                        3188.000          14.000  
 18  5  9 13 41 40.0040000  0 12G 4G14G31G16G32G26G22G29G 3G27G23G 9
  21959882.483   115399984.912       -2058.386          44.000  
  23291287.470   122396616.190       -2341.655          38.000  
  23642873.340   124244147.670       -2302.579          48.000  
  21493831.020   112950854.629        1212.175          32.000  
  25823567.773   135703730.137       -3421.789          33.000  
  21664958.674   113850109.511       -1099.219          49.000  
  23510227.587                       -2175.428          22.000  
  25649353.419   134788336.953       -1309.109          36.000  
  23037723.731                        -996.914          22.000  
  25601947.582   134539167.643        3249.909          28.000  
  23781442.448   124972366.543        2631.766          28.000  
  26736286.073                        3188.000          14.000  
 18  5  9 13 41 41.0040000  0 12G 4G14G31G16G32G26G22G29G 3G27G23G 9
  21960274.084   115402043.922       -2059.314          44.000  
  23291733.341   122398958.442       -2342.387          38.000  
  23643311.533   124246450.639       -2303.060          48.000  
  21493600.136   112949643.504        1211.182          33.000  
  25824218.631   135707152.590       -3422.425          33.000  
  21665167.955   113851209.457       -1100.330          49.000  
  23510646.758                       -2178.659          23.000  
  25649602.067   134789646.276       -1309.933          36.000  
  23037917.131                        -996.914          23.000  
  25601328.937   134535918.524        3249.021          28.000  
  23780941.836   124969735.291        2631.077          27.000  
  26735674.268                        3188.000          12.000  
 18  5  9 13 41 42.0040000  0 11G 4G14G31G16G32G26G29G 3G27G23G 9
  21960665.300   115404103.420       -2058.942          44.000  
  23292179.473   122401301.030       -2341.886          38.000  
  23643749.725   124248753.622       -2302.171          48.000  
  21493369.549   112948432.992        1211.123          33.000  
  25824869.367   135710575.182       -3422.044          33.000  
  21665377.357   113852309.915       -1099.991          49.000  
  25649850.908   134790956.096       -1308.943          35.000  
  23038110.689                        -996.914          24.000  
  25600715.788   134532669.272        3250.250          28.000  
  23780440.579   124967104.197        2632.022          26.000  
  26735068.711                        3188.000          13.000  
 18  5  9 13 41 43.0040000  0 10G 4G14G31G16G32G26G29G 3G27G23
  21961057.005   115406162.659       -2059.894          44.000  
  23292625.832   122403643.201       -2342.770          38.000  
  23644188.232   124251055.882       -2302.684          49.000  
  21493139.171   112947222.331        1209.530          32.000  
  25825519.981   135713997.165       -3422.760          33.000  
  21665586.324   113853410.146       -1101.040          49.000  
  25650099.887   134792265.781       -1310.579          35.000  
  23038305.870                        -996.914          25.000  
  25600098.731   134529419.203        3249.357          27.000  
  23779938.501   124964472.506        2631.411          25.000  
 18  5  9 13 41 44.0040000  0 11G 4G14G31G16G32G26G22G29G 3G27G23
  21961448.763   115408222.890       -2060.846          44.000  
  23293072.139   122405986.181       -2343.289          39.000  
  23644626.407   124253358.639       -2302.908          49.000  
  21492908.706   112946012.704        1209.761          33.000  
  25826170.752   135717419.752       -3422.332          33.000  
  21665795.918   113854511.355       -1101.583          49.000  
  23511907.118                       -2173.128          25.000  
  25650348.884   134793576.406       -1310.685          35.000  
  23038500.946                       -1005.088          26.000  
  25599480.505   134526169.475        3249.361          27.000  
  23779435.865                        2630.771          25.000  
 18  5  9 13 41 45.0040000  0 11G 4G14G31G16G32G26G22G29G 3G27G23
  21961840.729   115410283.991       -2061.639          44.000  
  23293518.480   122408329.886       -2344.550          39.000  
  23645064.931   124255661.814       -2303.574          49.000  
  21492678.765   112944804.113        1208.549          33.000  
  25826821.453   135720842.890       -3423.045          33.000  
  21666005.461   113855613.486       -1102.920          49.000  
  23512311.561                       -2173.128          26.000  
  25650598.388   134794888.026       -1312.489          35.000  
  23038692.968                       -1009.002          26.000  
  25598862.837   134522919.981        3248.888          27.000  
  23778935.777                        2629.006          23.000  
 18  5  9 13 41 46.0040000  0 11G 4G14G31G16G32G26G22G29G 3G27G23
  21962233.010   115412346.069       -2062.421          44.000  
  23293965.066   122410674.367       -2344.658          40.000  
  23645503.646   124257965.475       -2303.635          49.000  
  21492448.876   112943596.615        1206.841          33.000  
  25827472.451   135724266.610       -3423.475          32.000  
  21666215.352   113856716.592       -1103.389          49.000  
  23512726.964                       -2179.224          26.000  
  25650847.908   134796200.574       -1312.560          35.000  
  23038885.776                       -1008.721          27.000  
  25598245.012   134519670.865        3249.226          28.000  
  23778436.770                        2633.320          23.000  
 18  5  9 13 41 47.0040000  0 11G 4G14G31G16G32G26G22G29G 3G27G23
  21962625.204   115414408.826       -2063.184          44.000  
  23294411.670   122413019.382       -2345.337          40.000  
  23645941.996   124260269.361       -2304.108          49.000  
  21492219.231   112942389.897        1206.136          33.000  
  25828123.484   135727690.700       -3423.975          32.000  
  21666425.121   113857820.406       -1104.170          49.000  
  23513143.640                       -2180.185          26.000  
  25651097.935   134797513.862       -1313.081          35.000  
  23039078.042   121071171.3633      -1009.407          28.000  
  25597625.844   134516421.828        3248.980          27.000  
  23777939.456                        2633.640          23.000  
 18  5  9 13 41 48.0040000  0 11G 4G14G31G16G32G26G22G29G 3G27G23
  21963017.834   115416472.453       -2064.026          44.000  
  23294858.465   122415365.111       -2346.126          40.000  
  23646380.694   124262573.637       -2304.489          49.000  
  21491989.987   112941184.123        1205.625          33.000  
  25828774.150   135731115.317       -3424.693          31.000  
  21666635.588   113858925.109       -1105.128          49.000  
  23513555.273                       -2180.209          27.000  
  25651347.822   134798828.131       -1315.319          35.000  
  23039268.616   121072181.2642      -1010.485          28.000  
  25597007.512   134513173.043        3248.399          27.000  
  23777440.223                        2632.936          22.000  
 18  5  9 13 41 49.0040000  0 11G 4G14G31G16G32G26G22G29G 3G27G23
  21963410.743   115418537.032       -2064.874          44.000  
  23295305.278   122417711.624       -2346.821          39.000  
  23646819.707   124264878.381       -2304.777          49.000  
  21491760.604   112939979.442        1204.246          34.000  
  25829425.060   135734540.508       -3425.205          31.000  
  21666845.950   113860030.790       -1105.999          49.000  
  23513964.446                       -2180.925          27.000  
  25651597.884   134800143.301       -1315.154          35.000  
  23039461.493   121073192.1792      -1011.228          28.000  
  25596389.007   134509924.561        3248.765          27.000  
  23776939.140                        2620.862          21.000  
 18  5  9 13 41 50.0040000  0 11G 4G14G31G16G32G26G22G29G 3G27G23
  21963803.530   115420602.573       -2065.808          44.000  
  23295752.004   122420058.928       -2347.616          39.000  
  23647258.597   124267183.615       -2305.230          49.000  
  21491531.622   112938775.814        1203.395          33.000  
  25830076.058   135737966.326       -3425.750          32.000  
  21667056.173   113861137.444       -1106.877          49.000  
  23514374.945                       -2181.719          27.000  
  25651848.137   134801459.534       -1316.611          35.000  
  23039656.063   121074204.1882      -1012.775          29.000  
  25595772.316   134506676.493        3248.508          27.000  
  23776439.122                        2628.187          20.000  
 18  5  9 13 41 51.0040000  0 11G 4G14G31G16G32G26G22G29G 3G27G23
  21964196.666   115422668.561       -2066.553          41.000  
  23296198.816   122422406.493       -2347.771          36.000  
  23647697.610   124269488.813       -2305.435          47.000  
  21491302.728   112937572.700        1203.099          31.000  
  25830725.992   135741392.218       -3425.696          28.000  
  21667266.675   113862244.558       -1107.497          46.000  
  23514793.122                       -2180.948          26.000  
  25652098.600   134802776.227       -1317.518          33.000  
  23039846.148   121075216.6492      -1013.070          25.000  
  25595156.655   134503428.307        3247.605          26.000  
  23775938.702                        2628.187          19.000  
 18  5  9 13 41 52.0040000  0 11G 4G14G31G16G32G26G22G29G 3G27G23
  21964590.290   115424735.580       -2067.615          41.000  
  23296646.222   122424754.949       -2349.058          36.000  
  23648136.657   124271794.577       -2306.104          47.000  
  21491074.112   112936370.858        1200.545          31.000  
  25831374.355   135744818.824       -3426.747          29.000  
  21667477.788   113863352.720       -1108.614          46.000  
  23515206.727                       -2180.105          24.000  
  25652349.325   134804093.979       -1317.969          33.000  
  23040039.671   121076230.2302      -1014.827          26.000  
  25594539.092   134500180.533        3246.358          25.000  
  23775439.538                        2628.187          15.000  
 18  5  9 13 41 53.0040000  0 11G 4G14G31G16G32G26G22G29G 3G27G23
  21964983.339   115426803.653       -2068.793          41.000  
  23297093.367   122427104.269       -2350.022          37.000  
  23648575.618   124274100.912       -2306.834          47.000  
  21490845.846   112935170.061        1199.536          31.000  
  25832025.544   135748246.120       -3427.938          29.000  
  21667689.092   113864461.962       -1109.959          46.000  
  23515619.983                       -2174.307          23.000  
  25652600.469   134805412.893       -1321.099          33.000  
  23040227.540   121077244.9052      -1015.774          27.000  
  25593923.518   134496974.9913       3247.673          24.000  
  23774937.879                        2628.187          13.000  
 18  5  9 13 41 54.0040000  0 10G 4G14G31G16G32G26G22G29G 3G27
  21965377.051   115428872.490       -2068.732          41.000  
  23297540.703   122429454.201       -2349.963          36.000  
  23649014.595   124276407.550       -2306.557          47.000  
  21490617.894   112933970.134        1200.203          32.000  
  25832676.385   135751673.803       -3427.302          29.000  
  21667900.292   113865571.994       -1110.084          46.000  
  23516032.925                       -2185.642          22.000  
  25652851.333   134806732.489       -1319.401          33.000  
  23040421.517   121078260.4212      -1015.736          28.000  
  25593308.101   134493727.7592       3247.666          24.000  
 18  5  9 13 41 55.0040000  0  9G 4G14G31G16G32G26G29G 3G27
  21965770.623   115430941.414       -2068.909          42.000  
  23297987.970   122431804.064       -2349.967          36.000  
  23649453.643   124278713.810       -2306.290          47.000  
  21490389.767   112932770.457        1199.422          32.000  
  25833328.063   135755101.268       -3427.481          29.000  
  21668111.213   113866682.136       -1110.395          46.000  
  25653102.250   134808052.292       -1319.668          33.000  
  23040614.324   121079276.1002      -1016.065          28.000  
  25592691.393                        3247.589          25.000  
 18  5  9 13 41 56.0040000  0  9G 4G14G31G16G32G26G29G 3G27
  21966164.719   115433011.037       -2070.062          42.000  
  23298435.481   122434154.457       -2350.738          36.000  
  23649892.411   124281020.268       -2306.603          47.000  
  21490161.972   112931571.546        1197.968          32.000  
  25833977.369   135758529.069       -3427.852          28.000  
  21668322.413   113867792.975       -1111.134          46.000  
  25653353.637   134809372.842       -1321.305          33.000  
  23040811.547   121080292.5272      -1016.639          29.000  
  25592074.528                        3246.958          24.000  
 18  5  9 13 41 57.0040000  0  9G 4G14G31G16G32G26G29G 3G27
  21966558.815   115435081.219       -2070.514          42.000  
  23298883.148   122436505.201       -2350.512          37.000  
  23650331.389   124283326.809       -2306.445          47.000  
  21489933.968   112930373.290        1198.172          33.000  
  25834630.024   135761957.025       -3427.995          29.000  
  21668533.770   113868904.393       -1111.593          46.000  
  25653604.920   134810693.970       -1321.362          33.000  
  23041004.913   121081309.6042      -1017.263          30.000  
  25591456.895                        3247.921          23.000  
 18  5  9 13 41 58.0040000  0  9G 4G14G31G16G32G26G29G 3G27
  21966952.753   115437151.298       -2069.873          42.000  
  23299330.642   122438855.725       -2350.356          37.000  
  23650770.035   124285632.804       -2305.735          47.000  
  21489706.242   112929175.104        1198.121          33.000  
  25835283.779   135765384.594       -3427.050          29.000  
  21668744.970   113870015.754       -1111.188          46.000  
  25653856.413   134812015.028       -1321.149          33.000  
  23041193.462   121082326.6512      -1017.549          30.000  
  25590837.482                        3249.016          23.000  
 18  5  9 13 41 59.0040000  0  9G 4G14G31G16G32G26G29G 3G27
  21967346.762   115439221.154       -2070.050          42.000  
  23299777.908   122441205.861       -2350.354          37.000  
  23651208.716   124287938.083       -2305.088          47.000  
  21489478.534   112927976.730        1197.890          33.000  
  25835937.272   135768811.575       -3426.838          29.000  
  21668956.118   113871126.892       -1111.066          46.000  
  25654107.696   134813335.921       -1320.924          33.000  
  23041387.858   121083343.5062      -1016.651          31.000  
  25590219.779                        3248.366          22.000  
 18  5  9 13 42  0.0040000  0  9G 4G14G31G16G32G26G29G 3G27
  21967740.840   115441291.205       -2069.910          42.000  
  23300225.245   122443556.009       -2349.809          37.000  
  23651647.571   124290243.097       -2304.727          47.000  
  21489250.809   112926778.698        1198.198          33.000  
  25836590.923   135772238.422       -3426.635          29.000  
  21669167.510   113872238.266       -1111.384          46.000  
  25654359.014   134814656.988       -1320.483          33.000  
  23041581.119   121084360.6872      -1017.441          30.000  
  25589599.965                        3249.011          21.000  
 18  5  9 13 42  1.0040000  0  9G 4G14G31G16G32G26G29G 3G27
  21968134.936   115443361.702       -2071.106          42.000  
  23300672.389   122445906.456       -2351.290          36.000  
  23652086.130   124292548.081       -2305.271          47.000  
  21489023.276   112925581.245        1196.647          33.000  
  25837244.084   135775665.306       -3427.424          29.000  
  21669379.006   113873350.097       -1112.503          46.000  
  25654610.472   134815978.656       -1322.620          33.000  
  23041775.375   121085378.3782      -1018.437          31.000  
  25588980.988                        3257.753          21.000  
 18  5  9 13 42  2.0040000  0  9G 4G14G31G16G32G26G29G 3G27
  21968529.136   115445432.806       -2071.484          42.000  
  23301119.865   122448257.338       -2351.573          37.000  
  23652524.480   124294853.204       -2305.528          47.000  
  21488796.004   112924384.447        1197.074          33.000  
  25837892.779   135779092.504       -3427.345          29.000  
  21669590.608   113874462.550       -1112.906          46.000  
  25654862.191   134817300.898       -1322.787          34.000  
  23041968.409   121086396.7302      -1019.074          31.000  
  25588363.128                        3247.026          21.000  
 18  5  9 13 42  3.0040000  0  9G 4G14G31G16G32G26G29G 3G27
  21968923.616   115447504.792       -2072.479          42.000  
  23301567.550   122450608.913       -2351.803          37.000  
  23652962.934   124297158.728       -2305.833          47.000  
  21488568.785   112923188.697        1195.344          33.000  
  25838544.440   135782520.231       -3427.941          29.000  
  21669802.628   113875575.910       -1113.901          45.000  
  25655113.841   134818624.042       -1323.527          33.000  
  23042162.438   121087416.0392      -1019.756          30.000  
  25587744.448                        3252.503          21.000  
 18  5  9 13 42  4.0040000  0  9G 4G14G31G16G32G26G29G 3G27
  21969318.183   115449577.297       -2072.827          43.000  
  23302015.358   122452960.889       -2352.140          36.000  
  23653401.720   124299464.298       -2305.417          47.000  
  21488341.531   112921993.551        1194.950          34.000  
  25839199.591   135785948.109       -3428.363          30.000  
  21670014.386   113876689.793       -1114.003          45.000  
  25655365.560   134819947.773       -1323.430          33.000  
  23042355.856   121088435.8882      -1020.059          30.000  
  25587129.049                        3246.289          22.000  
 18  5  9 13 42  5.0040000  0 10G 4G14G31G16G32G26G22G29G 3G27
  21969712.854   115451649.792       -2072.864          43.000  
  23302463.183   122455312.651       -2351.925          36.000  
  23653839.982   124301769.386       -2305.095          47.000  
  21488114.067   112920798.492        1194.916          33.000  
  25839855.056   135789375.587       -3427.649          30.000  
  21670226.337   113877803.701       -1114.210          45.000  
  23520588.130                       -2171.137          19.000  
  25655617.349   134821271.557       -1323.955          33.000  
  23042549.606   121089455.8512      -1020.525          30.000  
  25586513.876                        3250.669          22.000  
 18  5  9 13 42  6.0040000  0 10G 4G14G31G16G32G26G22G29G 3G27
  21970107.613   115453722.628       -2073.462          43.000  
  23302911.060   122457664.619       -2352.822          36.000  
  23654278.523   124304074.366       -2305.502          46.000  
  21487886.848   112919603.896        1194.160          33.000  
  25840505.862   135792803.107       -3427.865          30.000  
  21670438.392   113878917.984       -1115.234          45.000  
  23520999.362                       -2171.137          16.000  
  25655869.575   134822595.704       -1324.757          33.000  
  23042743.548   121090476.2462      -1021.091          30.000  
  25585895.545                        3259.376          22.000  
 18  5  9 13 42  7.0040000  0 10G 4G14G31G16G32G26G22G29G 3G27
  21970502.320   115455795.998       -2073.389          43.000  
  23303358.693   122460016.929       -2352.468          36.000  
  23654716.943   124306379.396       -2305.019          46.000  
  21487659.768   112918409.939        1194.175          34.000  
  25841157.871   135796230.837       -3428.661          31.000  
  21670650.499   113880032.806       -1115.095          45.000  
  23521410.437                       -2171.137          15.000  
  25656121.731   134823920.434       -1324.993          33.000  
  23042937.472   121091496.731       -1021.344          30.000  
  25585277.616                        3254.674          22.000  
 18  5  9 13 42  9.0040000  0 10G 4G14G31G16G32G26G22G29G 3G27
  21971291.855   115459943.235       -2073.773          43.000  
  23304254.343   122464721.592       -2352.164          36.000  
  23655593.886   124310988.533       -2304.172          46.000  
  21487205.556   112916022.916        1193.010          33.000  
  25842466.393   135803085.629       -3426.917          31.000  
  21671074.627   113882263.015       -1115.204          45.000  
  23522236.373                       -2171.137          10.000  
  25656625.920   134826570.577       -1325.798          33.000  
  23043322.424   121093539.358       -1021.685          29.000  
  25584037.656                        3250.234          20.000  
 18  5  9 13 42 10.0040000  0 10G 4G14G31G16G32G26G22G29G 3G27
  21971686.701   115462017.065       -2074.237          43.000  
  23304702.220   122467073.877       -2352.136          36.000  
  23656032.340   124313292.606       -2304.103          46.000  
  21486978.581   112914829.737        1192.667          33.000  
  25843118.194   135806512.742       -3427.295          31.000  
  21671286.821   113883378.348       -1115.534          45.000  
  23522650.257                       -2171.137          11.000  
  25656878.128   134827895.823       -1324.955          34.000  
  23043510.659   121094560.970       -1022.049          29.000  
  25583419.272                        3255.745          20.000  
 18  5  9 13 42 11.0040000  0  9G 4G14G31G16G32G26G29G 3G27
  21972081.686   115464091.294       -2074.384          44.000  
  23305149.958   122469426.426       -2352.950          35.000  
  23656470.550   124315596.614       -2304.070          46.000  
  21486751.763   112913637.101        1192.285          33.000  
  25843768.930   135809939.937       -3427.795          32.000  
  21671498.981   113884494.121       -1116.257          45.000  
  25657130.458   134829221.592       -1325.895          34.000  
  23043702.350   121095583.094       -1022.347          28.000  
  25582799.790                        3255.534          20.000  
 18  5  9 13 42 12.0040000  0  9G 4G14G31G16G32G26G29G 3G27
  21972476.567   115466166.424       -2075.421          44.000  
  23305597.992   122471779.712       -2353.746          35.000  
  23656909.004   124317901.041       -2304.609          46.000  
  21486525.294   112912445.442        1191.365          33.000  
  25844425.529   135813367.571       -3426.960          32.000  
  21671711.472   113885610.807       -1117.190          45.000  
  25657382.962   134830548.302       -1326.735          34.000  
  23043893.116   121096606.156       -1023.649          28.000  
  25582178.614                        3250.602          20.000  
 18  5  9 13 42 13.0040000  0  9G 4G14G31G16G32G26G29G 3G27
  21972871.919   115468242.429       -2076.526          44.000  
  23306045.712   122474133.682       -2354.521          35.000  
  23657347.231   124320205.870       -2305.105          46.000  
  21486298.668   112911254.805        1189.715          33.000  
  25845077.976   135816795.850       -3428.903          32.000  
  21671924.225   113886728.381       -1118.057          45.000  
  25657635.746   134831875.879       -1327.865          34.000  
  23044083.672   121097630.196       -1025.054          28.000  
  25581559.376                        3257.434          20.000  
 18  5  9 13 42 14.0040000  0  9G 4G14G31G16G32G26G29G 3G27
  21973267.254   115470318.974       -2076.819          44.000  
  23306493.625   122476488.013       -2353.513          35.000  
  23657785.912   124322510.776       -2304.961          46.000  
  21486072.322   112910064.789        1189.777          33.000  
  25845730.055   135820224.248       -3428.176          32.000  
  21672137.223   113887846.509       -1118.331          45.000  
  25657888.740   134833204.082       -1328.259          34.000  
  23044276.357   121098654.861       -1025.181          27.000  
  25580941.673                        3245.603          21.000  
 18  5  9 13 42 15.0040000  0  9G 4G14G31G16G32G26G29G 3G27
  21973662.728   115472396.059       -2077.582          44.000  
  23306942.008   122478842.787       -2355.598          34.000  
  23658224.018   124324815.749       -2305.304          46.000  
  21485846.114   112908875.442        1188.887          33.000  
  25846379.518   135823652.880       -3429.135          32.000  
  21672350.115   113888965.213       -1119.382          45.000  
  25658141.838   134834532.883       -1329.697          34.000  
  23044470.526   121099680.057       -1025.870          27.000  
  25580322.975                        3256.447          20.000  
 18  5  9 13 42 16.0040000  0  9G 4G14G31G16G32G26G29G 3G27
  21974058.290   115474473.458       -2076.910          44.000  
  23307390.060   122481197.649       -2354.291          34.000  
  23658662.419   124327120.541       -2303.844          46.000  
  21485620.047   112907686.488        1189.584          33.000  
  25847032.766   135827081.436       -3428.058          32.000  
  21672563.043   113890084.223       -1118.426          45.000  
  25658395.110   134835861.996       -1328.997          34.000  
  23044664.869   121100705.643       -1024.605          27.000  
  25579704.784                        3251.103          20.000  
 18  5  9 13 42 17.0040000  0  9G 4G14G31G16G32G26G29G 3G27
  21974453.660   115476550.534       -2077.875          44.000  
  23307838.216   122483552.056       -2355.009          33.000  
  23659100.821   124329424.569       -2304.630          46.000  
  21485393.979   112906497.375        1188.206          33.000  
  25847686.783   135830509.329       -3428.428          32.000  
  21672776.145   113891202.962       -1119.712          45.000  
  25658648.086   134837190.820       -1330.270          34.000  
  23044857.746   121101731.001       -1025.745          26.000  
  25579084.516                        3257.951          20.000  
 18  5  9 13 42 18.0040000  0  9G 4G14G31G16G32G26G29G 3G27
  21974849.291   115478628.623       -2078.040          47.000  
  23308286.669   122485907.291       -2355.426          37.000  
  23659539.345   124331729.114       -2304.238          49.000  
  21485167.859   112905309.348        1187.961          36.000  
  25848340.276   135833937.887       -3428.048          35.000  
  21672989.142   113892322.718       -1119.726          48.000  
  25658901.306   134838520.713       -1330.060          36.000  
  23045054.585   121102757.517       -1026.665          27.000  
  25578462.294                        3257.084          19.000  
 18  5  9 13 42 19.0040000  0  9G 4G14G31G16G32G26G29G 3G27
  21975244.852   115480706.100       -2077.240          47.000  
  23308735.489   122488261.750       -2354.495          36.000  
  23659977.764   124334032.596       -2303.018          49.000  
  21484941.949   112904120.851        1188.663          36.000  
  25848992.059   135837365.518       -3427.238          35.000  
  21673202.367   113893441.881       -1118.829          48.000  
  25659154.456   134839850.038       -1329.154          36.000  
  23045248.457   121103783.445       -1026.042          28.000  
  25577841.485                        3253.974          20.000  
 18  5  9 13 42 20.0040000  0  9G 4G14G31G16G32G26G29G 3G27
  21975640.082   115482783.493       -2077.258          47.000  
  23309183.855   122490615.943       -2353.639          36.000  
  23660415.992   124336335.507       -2302.612          49.000  
  21484715.899   112902932.349        1188.672          36.000  
  25849644.698   135840792.679       -3426.861          35.000  
  21673415.538   113894560.985       -1118.995          48.000  
  25659407.589   134841179.307       -1329.050          35.000  
  23045441.840   121104809.330       -1025.527          28.000  
  25577222.107                        3255.039          20.000  
 18  5  9 13 42 21.0040000  0  9G 4G14G31G16G32G26G29G 3G27
  21976035.836   115484862.015       -2079.749          47.000  
  23309632.692   122492971.159       -2356.554          36.000  
  23660854.132   124338639.086       -2304.495          49.000  
  21484490.337   112901745.111        1186.032          36.000  
  25850297.144   135844220.655       -3429.484          35.000  
  21673628.675   113895681.242       -1121.439          48.000  
  25659660.827   134842509.774       -1331.720          35.000  
  23045637.387   121105836.482       -1028.303          28.000  
  25576599.884                        3262.359          20.000  
 18  5  9 13 42 22.0040000  0  9G 4G14G31G16G32G26G29G 3G27
  21976431.781   115486942.354       -2080.859          47.000  
  23310081.616   122495327.997       -2357.445          36.000  
  23661292.377   124340944.003       -2305.227          48.000  
  21484264.985   112900559.786        1184.788          36.000  
  25850950.201   135847650.042       -3429.548          35.000  
  21673842.231   113896803.331       -1122.754          48.000  
  25659914.239   134843842.092       -1333.253          35.000  
  23045832.219   121106865.503       -1029.763          28.000  
  25575978.831                        3248.521          20.000  
 18  5  9 13 42 23.0040000  0  9G 4G14G31G16G32G26G29G 3G27
  21976828.041   115489023.513       -2081.226          47.000  
  23310531.064   122497685.475       -2357.126          36.000  
  23661731.215   124343249.271       -2305.013          49.000  
  21484039.825   112899375.381        1184.448          36.000  
  25851602.944   135851079.917       -3429.481          36.000  
  21674055.839   113897926.255       -1122.993          48.000  
  25660168.314   134845175.246       -1333.158          35.000  
  23046028.394   121107895.341       -1029.559          28.000  
  25575358.580                        3257.102          20.000  
 18  5  9 13 42 25.0040000  0  9G 4G14G31G16G32G26G29G 3G27
  21977620.298   115493186.511       -2081.909          47.000  
  23311429.890   122502400.661       -2357.475          36.000  
  23662608.367   124347859.086       -2304.882          49.000  
  21483589.732   112897007.632        1183.162          36.000  
  25852908.796   135857939.320       -3429.295          36.000  
  21674483.614   113900172.860       -1123.762          48.000  
  25660676.150   134847842.441       -1334.447          34.000  
  23046428.388   121109956.052       -1031.077          28.000  
  25574117.626                        3258.954          20.000  
 18  5  9 13 42 26.0040000  0  9G 4G14G31G16G32G26G29G 3G27
  21978016.610   115495268.890       -2083.264          47.000  
  23311879.495   122504758.894       -2359.103          37.000  
  23663047.013   124350164.162       -2305.819          49.000  
  21483365.130   112895824.776        1181.782          36.000  
  25853561.783   135861369.440       -3431.259          36.000  
  21674697.344   113901297.082       -1125.182          48.000  
  25660930.208   134849176.926       -1335.125          34.000  
  23046626.169   121110987.321       -1031.833          28.000  
  25573497.270                        3255.044          19.000  
 18  5  9 13 42 27.0040000  0 10G 4G14G31G16G32G26G22G29G 3G27
  21978413.219   115497352.714       -2084.320          47.000  
  23312329.344   122507118.415       -2360.197          37.000  
  23663485.852   124352470.206       -2306.193          49.000  
  21483140.720   112894643.514        1180.462          36.000  
  25854215.084   135864800.556       -3431.262          36.000  
  21674911.738   113902422.753       -1126.216          48.000  
  23529791.078                       -2194.606          25.000  
  25661184.754   134850512.939       -1336.337          34.000  
  23046827.370   121112020.170       -1032.962          28.000  
  25572877.666                        3254.234          19.000  
 18  5  9 13 42 28.0040000  0 10G 4G14G31G16G32G26G22G29G 3G27
  21978809.932   115499436.949       -2084.558          47.000  
  23312778.931   122509478.149       -2359.807          36.000  
  23663924.463   124354776.198       -2306.115          49.000  
  21482916.345   112893462.731        1180.594          36.000  
  25854868.211   135868231.773       -3431.632          36.000  
  21675126.096   113903548.867       -1126.478          48.000  
  23530211.210                       -2195.850          25.000  
  25661439.370   134851849.414       -1337.207          34.000  
  23047026.669   121113053.522       -1034.255          28.000  
  25572259.317                        3250.000          19.000  
 18  5  9 13 42 29.0040000  0 10G 4G14G31G16G32G26G22G29G 3G27
  21979206.471   115501521.376       -2084.869          47.000  
  23313228.780   122511837.966       -2360.079          36.000  
  23664363.440   124357081.906       -2305.785          49.000  
  21482691.586   112892282.283        1179.914          36.000  
  25855521.425   135871662.844       -3431.293          36.000  
  21675340.489   113904675.184       -1126.766          48.000  
  23530627.135                       -2196.219          25.000  
  25661693.812   134853186.089       -1336.823          34.000  
  23047225.863   121114087.077       -1034.067          29.000  
  25571643.377                        3256.429          19.000  
 18  5  9 13 42 30.0040000  0 10G 4G14G31G16G32G26G22G29G 3G27
  21979603.324   115503606.742       -2084.998          47.000  
  23313678.455   122514198.535       -2359.923          37.000  
  23664802.296   124359388.082       -2305.589          49.000  
  21482467.281   112891102.880        1179.532          36.000  
  25856174.447   135875094.471       -3430.873          36.000  
  21675554.761   113905802.454       -1126.843          48.000  
  23531042.852                       -2196.078          25.000  
  25661948.655   134854523.770       -1337.333          33.000  
  23047425.336   121115121.633       -1033.937          28.000  
  25571025.813                        3245.966          20.000  
 18  5  9 13 42 31.0040000  0 10G 4G14G31G16G32G26G22G29G 3G27
  21980000.054   115505691.923       -2085.852          47.000  
  23314128.130   122516558.765       -2361.047          36.000  
  23665241.431   124361693.595       -2305.927          49.000  
  21482242.959   112889923.383        1178.660          35.000  
  25856827.452   135878525.593       -3431.708          36.000  
  21675769.486   113906929.572       -1127.797          48.000  
  23531459.563                       -2196.042          26.000  
  25662203.603   134855861.315       -1338.350          33.000  
  23047626.293   121116156.103       -1034.796          28.000  
  25570407.238                        3250.751          19.000  
 18  5  9 13 42 32.0040000  0 11G 4G14G31G16G32G26G22G29G 3G27G 9
  21980397.343   115507778.458       -2087.225          47.000  
  23314578.136   122518920.179       -2362.275          37.000  
  23665680.356   124364000.004       -2306.845          49.000  
  21482018.427   112888745.409        1176.728          35.000  
  25857480.596   135881957.746       -3433.009          36.000  
  21675984.036   113908058.079       -1129.281          48.000  
  23531876.327                       -2197.794          26.000  
  25662458.882   134857200.237       -1339.423          32.000  
  23047820.147   121117191.997       -1035.149          29.000  
  25569788.471                        3251.574          18.000  
  26704734.544                        3190.000          16.000  
 18  5  9 13 42 33.0040000  0 11G 4G14G31G16G32G26G22G29G 3G27G 9
  21980794.563   115509866.120       -2088.013          47.000  
  23315028.369   122521282.552       -2362.867          37.000  
  23666119.124   124366307.058       -2307.176          49.000  
  21481794.156   112887568.626        1176.248          35.000  
  25858134.019   135885390.627       -3432.990          36.000  
  21676199.127   113909187.701       -1129.834          48.000  
  23532293.509                       -2198.269          25.000  
  25662714.039   134858540.305       -1340.044          32.000  
  23048021.645   121118229.190       -1038.519          29.000  
  25569171.187                        3261.550          18.000  
  26704129.230                        3190.000          16.000  
 18  5  9 13 42 34.0040000  0 11G 4G14G31G16G32G26G22G29G 3G27G 9
  21981192.114   115511954.932       -2089.435          47.000  
  23315478.602   122523645.903       -2363.835          37.000  
  23666558.468   124368614.796       -2308.124          49.000  
  21481570.253   112886393.117        1174.763          35.000  
  25858787.774   135888824.347       -3434.481          36.000  
  21676414.515   113910318.507       -1131.310          48.000  
  23532713.030                       -2199.596          26.000  
  25662971.273   134859881.638       -1342.130          31.000  
  23048216.948   121119267.425       -1039.165          30.000  
  25568549.401                        3249.514          18.000  
  26703520.951                        3190.000          15.000  
 18  5  9 13 42 35.0040000  0 10G 4G14G31G16G32G26G22G 3G27G 9
  21981589.472   115514043.802       -2088.306          48.000  
  23315929.045   122526009.164       -2362.539          36.000  
  23666997.638   124370922.125       -2306.583          49.000  
  21481346.052   112885217.792        1175.815          35.000  
  25859441.424   135892257.763       -3433.477          37.000  
  21676629.397   113911449.396       -1130.321          48.000  
  23533129.619                       -2198.986          25.000  
  23048415.811   121120305.886       -1037.762          29.000  
  25567931.576                        3249.514          16.000  
  26702912.619                        3190.000          15.000  
 18  5  9 13 42 36.0040000  0 10G 4G14G31G16G32G26G22G 3G27G 9
  21981986.849   115516132.637       -2089.532          48.000  
  23316379.278   122528372.248       -2363.824          37.000  
  23667436.790   124373228.939       -2307.326          49.000  
  21481121.660   112884042.537        1174.370          35.000  
  25860094.865   135895690.760       -3433.684          37.000  
  21676844.611   113912580.268       -1131.520          48.000  
  23533545.545                       -2198.514          25.000  
  23048616.680   121121344.382       -1038.834          30.000  
  25567314.431                        3249.514          16.000  
  26702307.236                        3190.000          15.000  
 18  5  9 13 42 37.0040000  0  9G 4G14G31G16G32G26G22G 3G27
  21982384.574   115518221.872       -2089.172          48.000  
  23316829.406   122530735.554       -2363.211          37.000  
  23667875.716   124375535.696       -2306.435          49.000  
  21480897.669   112882867.803        1174.684          34.000  
  25860748.446   135899123.840       -3433.013          37.000  
  21677059.633   113913711.576       -1131.282          48.000  
  23533962.465                       -2199.284          25.000  
  23048821.912   121122383.402       -1039.701          30.000  
  25566696.170                        3251.781          15.000  
 18  5  9 13 42 38.0040000  0  9G 4G14G31G16G32G26G22G 3G27
  21982782.055   115520311.297       -2089.966          48.000  
  23317279.622   122533098.881       -2363.634          36.000  
  23668314.746   124377842.154       -2306.908          49.000  
  21480674.027   112881693.385        1173.604          34.000  
  25861402.009   135902556.757       -3433.686          37.000  
  21677274.776   113914843.074       -1132.149          47.000  
  23534382.527                       -2200.086          25.000  
  23049020.478   121123422.602       -1040.551          30.000  
  25566079.130                        3255.574          15.000  
 18  5  9 13 42 39.0040000  0  9G 4G14G31G16G32G26G22G 3G27
  21983179.763   115522402.195       -2091.632          48.000  
  23317729.750   122535463.525       -2365.107          36.000  
  23668754.090   124380149.626       -2308.014          49.000  
  21480450.211   112880520.536        1171.952          34.000  
  25862055.781   135905990.800       -3434.656          37.000  
  21677490.321   113915976.062       -1133.753          48.000  
  23534800.006                       -2199.180          24.000  
  23049220.353   121124463.369       -1042.111          30.000  
  25565463.923                        3250.373          17.000  
 18  5  9 13 42 40.0040000  0  9G 4G14G31G16G32G26G22G 3G27
  21983577.872   115524494.200       -2092.017          47.000  
  23318180.158   122537829.109       -2365.188          36.000  
  23669193.643   124382457.719       -2307.738          49.000  
  21480226.743   112879348.883        1172.077          34.000  
  25862709.658   135909425.576       -3434.514          37.000  
  21677705.954   113917110.184       -1133.989          48.000  
  23535217.380                       -2199.362          23.000  
  23049412.410   121125505.207       -1041.161          30.000  
  25564845.644                        3250.373          17.000  
 18  5  9 13 42 41.0040000  0  9G 4G14G31G16G32G26G22G 3G27
  21983976.121   115526586.523       -2092.737          47.000  
  23318630.286   122540194.869       -2366.192          35.000  
  23669632.883   124384765.668       -2308.056          49.000  
  21480003.467   112878177.707        1170.651          34.000  
  25863363.570   135912860.342       -3434.685          37.000  
  21677922.040   113918244.646       -1134.786          48.000  
  23535636.029                       -2204.356          23.000  
  23049609.807   121126547.574       -1042.404          29.000  
  25564227.610                        3251.309          17.000  
 18  5  9 13 42 42.0040000  0  9G 4G14G31G16G32G26G22G 3G27
  21984374.143   115528679.304       -2093.250          47.000  
  23319080.868   122542560.908       -2366.463          35.000  
  23670072.105   124387073.619       -2308.208          50.000  
  21479780.349   112877007.100        1170.025          34.000  
  25864017.535   135916295.219       -3434.974          38.000  
  21678137.777   113919379.590       -1135.514          48.000  
  23536057.172                       -2199.951          22.000  
  23049809.036   121127590.406       -1042.941          29.000  
  25563612.926                        3253.539          17.000  
 18  5  9 13 42 43.0040000  0  9G 4G14G31G16G32G26G22G 3G27
  21984772.357   115530772.029       -2092.572          47.000  
  23319531.119   122544926.714       -2364.916          35.000  
  23670511.152   124389381.028       -2306.767          50.000  
  21479557.213   112875836.539        1170.546          34.000  
  25864671.987   135919729.688       -3433.844          38.000  
  21678353.758   113920514.495       -1134.651          48.000  
  23536473.953                       -2199.163          21.000  
  23050006.032   121128633.309       -1042.491          29.000  
  25562993.984                        3254.104          17.000  
 18  5  9 13 42 44.0040000  0 10G 4G14G31G16G32G26G22G 3G27G23
  21985170.589   115532864.384       -2092.548          47.000  
  23319981.177   122547292.061       -2365.621          34.000  
  23670950.496   124391687.618       -2306.549          50.000  
  21479333.676   112874665.720        1170.467          34.000  
  25865325.987   135923163.456       -3433.872          38.000  
  21678569.443   113921649.063       -1134.768          47.000  
  23536896.109                       -2203.697          21.000  
  23050212.101   121129675.842       -1042.271          29.000  
  25562378.445                        3250.871          17.000  
  23749482.409                        2625.342          28.000  
 18  5  9 13 42 45.0040000  0 10G 4G14G31G16G32G26G22G 3G27G23
  21985568.646   115534957.366       -2093.719          47.000  
  23320431.340   122549657.800       -2366.313          33.000  
  23671389.526   124393994.361       -2307.271          50.000  
  21479110.854   112873495.651        1169.459          34.000  
  25865980.003   135926597.502       -3434.759          38.000  
  21678785.529   113922784.272       -1135.983          47.000  
  23537315.891                       -2209.668          21.000  
  23050406.619   121130719.132       -1044.108          29.000  
  25561761.057                        3250.871          16.000  
  23748975.445                        2620.848          28.000  
 18  5  9 13 42 46.0040000  0 10G 4G14G31G16G32G26G22G 3G27G23
  21985966.755   115537050.493       -2093.140          47.000  
  23320881.661   122552023.553       -2365.731          33.000  
  23671828.836   124396300.768       -2306.082          50.000  
  21478888.416   112872325.841        1169.476          34.000  
  25866634.003   135930031.304       -3433.332          38.000  
  21679001.336   113923919.641       -1135.353          47.000  
  23537736.023                       -2196.713          20.000  
  23050605.918   121131762.607       -1043.447          29.000  
  25561144.488                        3251.134          15.000  
  23748477.154   124799089.5513       2621.763          28.000  
 18  5  9 13 42 47.0040000  0 10G 4G14G31G16G32G26G22G 3G27G23
  21986365.126   115539144.422       -2094.928          47.000  
  23321331.929   122554389.947       -2367.263          32.000  
  23672267.743   124398607.516       -2307.386          50.000  
  21478665.838   112871156.929        1167.727          34.000  
  25867288.019   135933465.611       -3435.065          38.000  
  21679217.439   113925055.838       -1137.076          47.000  
  23538157.777                       -2203.282          19.000  
  23050802.686   121132806.936       -1044.924          29.000  
  25560529.176                        3251.134          15.000  
  23747985.791   124796468.7472       2620.076          27.000  
 18  5  9 13 42 48.0040000  0 10G 4G14G31G16G32G26G22G 3G27G23
  21986763.584   115541239.591       -2095.862          47.000  
  23321782.790   122556757.391       -2367.444          32.000  
  23672707.000   124400915.037       -2308.023          50.000  
  21478443.331   112869989.382        1166.957          34.000  
  25867942.088   135936900.796       -3435.866          38.000  
  21679433.857   113926193.317       -1138.205          47.000  
  23538582.411                       -2206.384          19.000  
  23051001.811   121133852.650       -1046.604          29.000  
  25559914.091                        3251.703          15.000  
  23747492.299   124793848.7832       2619.811          27.000  
 18  5  9 13 42 50.0040000  0  9G 4G14G31G16G32G26G 3G27G23
  21987561.164   115545431.813       -2096.576          47.000  
  23322684.355   122561493.880       -2370.243          30.000  
  23673585.287   124405530.562       -2307.696          50.000  
  21477999.676   112867656.583        1165.650          35.000  
  25869250.663   135943771.990       -3435.492          39.000  
  21679866.884   113928470.191       -1138.938          48.000  
  23051400.356   121135946.117       -1047.157          29.000  
  25558679.348                        3256.165          16.000  
  23746495.700   124788609.7002       2619.896          28.000  
 18  5  9 13 42 51.0040000  0  9G 4G14G31G16G32G26G 3G27G23
  21987959.814   115547528.202       -2095.856          47.000  
  23323138.515   122563861.971       -2367.602          29.000  
  23674024.614   124407837.895       -2306.569          50.000  
  21477778.006   112866490.567        1166.857          35.000  
  25869904.453   135947207.371       -3434.756          39.000  
  21680083.842   113929608.954       -1138.273          48.000  
  23051598.538   121136993.239       -1046.305          29.000  
  25558061.593                        3254.276          16.000  
  23745997.025   124785989.9102       2620.708          27.000  
 18  5  9 13 42 52.0040000  0  9G 4G14G31G16G32G26G 3G27G23
  21988358.761   115549624.320       -2096.606          47.000  
  23323591.610   122566229.776       -2368.903          28.000  
  23674463.766   124410144.491       -2306.786          50.000  
  21477556.057   112865324.455        1165.540          35.000  
  25870557.963   135950642.124       -3435.147          39.000  
  21680300.592   113930747.451       -1138.916          48.000  
  23051799.216   121138040.220       -1047.983          29.000  
  25557446.839                        3254.276          16.000  
  23745497.809   124783369.5002       2620.004          27.000  
 18  5  9 13 42 53.0040000  0  9G 4G31G16G32G26G22G 3G27G23
  21988757.725   115551721.441       -2097.815          47.000  
  23674902.988   124412451.615       -2307.562          50.000  
  21477334.509   112864159.452        1163.770          36.000  
  25871211.910   135954077.518       -3436.039          39.000  
  21680517.550   113931886.958       -1140.044          48.000  
  23540730.759                       -2200.023          22.000  
  23051996.979   121139088.138       -1048.653          29.000  
  25556829.852                        3255.289          16.000  
  23745001.019   124780749.6502       2619.205          27.000  
 18  5  9 13 42 54.0040000  0  9G 4G31G16G32G26G22G 3G27G23
  21989156.881   115553820.053       -2099.146          47.000  
  23675342.227   124414759.768       -2308.353          50.000  
  21477113.275   112862996.034        1162.699          36.000  
  25871865.700   135957514.044       -3436.770          39.000  
  21680734.771   113933027.996       -1141.522          48.000  
  23541155.498                       -2200.023          22.000  
  23052195.528   121140137.709       -1050.192          29.000  
  25556211.870                        3255.131          17.000  
  23744502.728   124778130.9902       2618.460          27.000  
 18  5  9 13 42 55.0040000  0  8G 4G31G16G32G26G 3G27G23
  21989556.526   115555919.323       -2099.280          47.000  
  23675781.676   124417068.125       -2308.338          50.000  
  21476892.041   112861833.393        1162.561          36.000  
  25872519.752   135960950.903       -3437.087          39.000  
  21680952.357   113934169.723       -1141.907          48.000  
  23052394.757   121141188.021       -1050.674          29.000  
  25555595.598                        3250.783          18.000  
  23744004.821   124775512.6442       2618.066          27.000  
 18  5  9 13 42 56.0040000  0  8G 4G31G16G32G26G 3G27G23
  21989956.101   115558018.657       -2099.292          47.000  
  23676220.898   124419376.039       -2307.674          50.000  
  21476671.087   112860670.924        1162.329          36.000  
  25873174.065   135964387.471       -3436.385          39.000  
  21681169.682   113935311.505       -1141.811          48.000  
  23052593.916   121142238.354       -1049.832          29.000  
  25554980.722                        3254.343          19.000  
  23743504.802   124772893.8862       2619.052          27.000  
 18  5  9 13 42 57.0040000  0  8G 4G31G16G32G26G 3G27G23
  21990355.450   115560118.307       -2099.689          47.000  
  23676660.295   124421683.816       -2307.582          50.000  
  21476450.254   112859508.893        1162.201          36.000  
  25873828.082   135967823.996       -3436.442          39.000  
  21681386.833   113936453.639       -1142.046          48.000  
  23052793.721   121143289.216       -1050.838          29.000  
  25554362.444                        3258.406          19.000  
  23743006.110   124770275.0922       2619.271          27.000  
 18  5  9 13 42 58.0040000  0  8G 4G31G16G32G26G 3G27G23
  21990754.728   115562218.128       -2100.604          47.000  
  23677099.325   124423991.297       -2308.080          50.000  
  21476229.404   112858347.167        1160.672          36.000  
  25874481.750   135971260.347       -3437.069          38.000  
  21681604.036   113937595.971       -1143.205          48.000  
  23052992.950   121144340.286       -1052.253          29.000  
  25553743.868                        3253.611          19.000  
  23742505.062   124767656.2052       2618.226          26.000  
 18  5  9 13 42 59.0040000  0  8G 4G31G16G32G26G 3G27G23
  21991154.582   115564318.957       -2100.684          47.000  
  23677538.494   124426299.316       -2307.604          50.000  
  21476008.572   112857186.563        1160.341          36.000  
  25875135.522   135974697.348       -3436.484          38.000  
  21681821.745   113938739.332       -1143.256          48.000  
  23053193.645   121145392.404       -1051.967          29.000  
  25553125.188                        3255.063          19.000  
  23742004.310   124765037.9862       2617.953          26.000  
 18  5  9 13 43  0.0040000  0  8G 4G31G16G32G26G 3G27G23
  21991554.559   115566420.320       -2101.550          47.000  
  23677977.804   124428607.401       -2307.931          50.000  
  21475788.228   112856026.560        1159.860          36.000  
  25875789.574   135978134.550       -3437.178          38.000  
  21682039.663   113939883.242       -1144.030          48.000  
  23053394.602   121146445.146       -1053.269          29.000  
  25552507.939                        3252.839          19.000  
  23741505.182                        2617.323          25.000  
 18  5  9 13 43  1.0040000  0  8G 4G31G16G32G26G 3G27G23
  21991954.256   115568521.339       -2100.879          47.000  
  23678416.799   124430914.702       -2307.156          50.000  
  21475567.866   112854866.396        1159.954          37.000  
  25876443.241   135981571.068       -3436.405          38.000  
  21682257.319   113941026.845       -1143.691          48.000  
  23053595.437   121147497.619       -1052.379          29.000  
  25551886.868                        3255.429          19.000  
  23741006.716                        2617.385          24.000  
 18  5  9 13 43  2.0040000  0  8G 4G31G16G32G26G 3G27G23
  21992354.163   115570622.687       -2102.118          47.000  
  23678855.794   124433221.825       -2307.697          50.000  
  21475347.278   112853706.622        1159.429          37.000  
  25877096.874   135985007.520       -3436.863          38.000  
  21682475.028   113942170.779       -1144.742          48.000  
  23053798.348   121148550.497       -1053.499          28.000  
  25551267.211                        3256.538          20.000  
  23740506.942                        2620.501          24.000  
 18  5  9 13 43  3.0040000  0  8G 4G31G16G32G26G 3G27G23
  21992754.383   115572725.721       -2103.790          47.000  
  23679295.103   124435530.190       -2308.891          50.000  
  21475126.812   112852548.697        1157.255          37.000  
  25877750.804   135988445.398       -3438.461          37.000  
  21682693.051   113943316.426       -1146.357          48.000  
  23054001.852   121149605.157       -1055.785          29.000  
  25550648.932                        3248.312          20.000  
  23740007.709                        2624.774          23.000  
 18  5  9 13 43  4.0040000  0  9G 4G14G31G16G32G26G 3G27G23
  21993154.971   115574830.274       -2105.261          47.000  
  23328999.851                       -2372.314          32.000  
  23679734.674   124437839.607       -2309.989          50.000  
  21474906.939   112851392.401        1155.635          37.000  
  25878404.820   135991884.386       -3439.722          37.000  
  21682911.266   113944463.629       -1147.988          48.000  
  23054201.779   121150661.376       -1057.204          29.000  
  25550028.874                        3258.733          19.000  
  23739506.713                        2616.366          22.000  
 18  5  9 13 43  5.0040000  0 10G 4G14G31G16G32G26G22G 3G27G23
  21993555.628   115576935.853       -2105.975          47.000  
  23329452.405                       -2377.816          33.000  
  23680174.507   124440149.577       -2310.252          50.000  
  21474687.189   112850237.236        1154.770          37.000  
  25879059.011   135995324.045       -3439.838          37.000  
  21683129.830   113945611.870       -1148.696          48.000  
  23545794.184                       -2212.512          25.000  
  23054406.069   121151718.680       -1057.468          29.000  
  25549408.658                        3252.502          19.000  
  23739009.609                        2613.828          22.000  
 18  5  9 13 43  6.0040000  0 10G 4G14G31G16G32G26G22G 3G27G23
  21993956.651   115579042.012       -2106.818          47.000  
  23329908.536   122599475.2723      -2376.086          33.000  
  23680613.991   124442459.659       -2310.438          51.000  
  21474467.665   112849082.768        1153.836          37.000  
  25879713.290   135998763.959       -3440.568          37.000  
  21683348.307   113946760.705       -1149.380          48.000  
  23546211.349                       -2212.512          25.000  
  23054614.878   121152776.697       -1058.944          29.000  
  25548788.827                        3258.391          19.000  
  23738512.626                        2620.346          22.000  
 18  5  9 13 43  7.0040000  0 10G 4G14G31G16G32G26G22G 3G27G23
  21994357.709   115581149.058       -2107.153          47.000  
  23330360.410   122601851.6062      -2376.800          34.000  
  23681054.068   124444770.167       -2310.400          51.000  
  21474248.438   112847929.320        1152.875          37.000  
  25880367.254   136002204.413       -3440.047          37.000  
  21683567.063   113947910.462       -1150.033          48.000  
  23546630.294                       -2214.286          25.000  
  23054814.352   121153835.632       -1059.337          29.000  
  25548165.767                        3258.391          17.000  
  23738015.766                        2613.762          22.000  
 18  5  9 13 43  8.0040000  0 10G 4G14G31G16G32G26G22G 3G27G23
  21994758.995   115583256.569       -2108.154          47.000  
  23330809.264   122604228.2022      -2376.938          34.000  
  23681493.935   124447080.660       -2310.847          51.000  
  21474029.176   112846776.439        1152.242          37.000  
  25881021.358   136005644.963       -3440.788          36.000  
  21683786.465   113949060.687       -1150.809          48.000  
  23547052.380                       -2214.134          26.000  
  23055020.038   121154895.057       -1059.666          29.000  
  25547543.300                        3258.391          16.000  
  23737520.861                        2615.104          21.000  
 18  5  9 13 43  9.0040000  0 10G 4G14G31G16G32G26G22G 3G27G23
  21995160.193   115585364.905       -2108.423          48.000  
  23331262.097   122606605.5152      -2377.689          34.000  
  23681933.855   124449391.524       -2310.798          51.000  
  21473809.914   112845624.497        1151.576          37.000  
  25881676.178   136009086.012       -3440.749          36.000  
  21684005.465   113950211.786       -1151.365          48.000  
  23547467.800                       -2214.746          26.000  
  23055223.141   121155955.470       -1060.776          28.000  
  25546920.746                        3256.927          14.000  
  23737026.601                        2612.770          21.000  
 18  5  9 13 43 10.0040000  0 11G 4G14G31G16G32G26G22G29G 3G27G23
  21995561.617   115587473.517       -2108.795          48.000  
  23331712.959   122608982.8882      -2377.551          35.000  
  23682373.897   124451702.179       -2310.420          51.000  
  21473590.792   112844472.938        1151.692          37.000  
  25882330.543   136012526.978       -3440.849          36.000  
  21684224.692   113951363.156       -1151.499          48.000  
  23547881.021   123744949.3933      -2214.092          27.000  
  25672247.093                       -1364.453          32.000  
  23055425.546   121157016.169       -1060.661          28.000  
  25546299.134                        3254.073          15.000  
  23736530.474                        2618.340          21.000  
 18  5  9 13 43 11.0040000  0 11G 4G14G31G16G32G26G22G29G 3G27G23
  21995963.077   115589582.397       -2109.045          48.000  
  23332166.263   122611360.4052      -2378.046          35.000  
  23682813.695   124454012.640       -2310.455          51.000  
  21473371.809   112843321.785        1150.864          37.000  
  25882985.380   136015967.875       -3440.962          36.000  
  21684443.919   113952514.822       -1151.862          48.000  
  23548297.243   123747164.0792      -2214.916          27.000  
  25672498.062   134909886.9113      -1363.798          32.000  
  23055627.340   121158077.208       -1060.974          28.000  
  25545679.477                        3254.073          14.000  
  23736036.388                        2617.515          20.000  
 18  5  9 13 43 12.0040000  0 11G 4G14G31G16G32G26G22G29G 3G27G23
  21996364.921   115591691.846       -2110.052          48.000  
  23332618.939   122613738.3092      -2378.431          35.000  
  23683253.441   124456323.205       -2310.824          51.000  
  21473152.826   112842171.303        1150.015          37.000  
  25883639.973   136019409.000       -3441.565          35.000  
  21684663.443   113953667.072       -1152.639          48.000  
  23548715.595   123749379.1212      -2215.200          27.000  
  25672763.916   134911250.4942      -1365.240          33.000  
  23055829.623   121159138.969       -1062.437          27.000  
  25545060.326                        3254.073          15.000  
  23735542.634                        2617.515          18.000  
 18  5  9 13 43 13.0040000  0 11G 4G14G31G16G32G26G22G29G 3G27G23
  21996766.346   115593801.812       -2110.229          48.000  
  23333071.580   122616116.5912      -2378.621          35.000  
  23683693.535   124458633.831       -2310.698          51.000  
  21472934.000   112841021.478        1149.425          37.000  
  25884294.339   136022850.291       -3441.342          35.000  
  21684882.984   113954819.894       -1153.238          48.000  
  23549129.008   123751594.6162      -2215.533          27.000  
  25673011.552   134912614.6102      -1364.498          33.000  
  23056030.754   121160201.281       -1063.630          26.000  
  25544442.379                        3251.088          15.000  
  23735045.617                        2614.432          16.000  
 18  5  9 13 43 14.0040000  0 12G 4G14G31G16G32G26G22G29G 3G27G23G 9
  21997168.242   115595912.332       -2110.675          48.000  
  23333524.326   122618495.2222      -2377.895          35.000  
  23684133.159   124460944.529       -2310.514          51.000  
  21472715.454   112839872.297        1149.351          37.000  
  25884949.123   136026291.785       -3441.385          35.000  
  21685102.874   113955973.265       -1153.320          48.000  
  23549543.521   123753810.5592      -2215.988          27.000  
  25673269.309   134913979.3212      -1365.112          34.000  
  23056233.578   121161264.153       -1063.375          26.000  
  25543824.536                        3251.088          15.000  
  23734548.443                        2616.513          16.000  
  26679235.012                        3195.395          15.000  
 18  5  9 13 43 15.0040000  0 12G 4G14G31G16G32G26G22G29G 3G27G23G 9
  21997570.050   115598023.184       -2111.218          48.000  
  23333977.281   122620874.1022      -2379.539          35.000  
  23684573.079   124463255.102       -2310.611          51.000  
  21472496.785   112838723.583        1148.470          37.000  
  25885603.419   136029733.253       -3441.586          35.000  
  21685322.520   113957127.001       -1154.152          48.000  
  23549958.103   123756026.6892      -2216.691          28.000  
  25673528.532   134915344.4192      -1365.278          34.000  
  23056434.552   121162327.469       -1063.937          25.000  
  25543206.223                        3253.541          16.000  
  23734054.846                        2611.497          17.000  
  26678629.716                        3195.395          15.000  
 18  5  9 13 43 16.0040000  0 12G 4G14G31G16G32G26G22G29G 3G27G23G 9
  21997971.911   115600134.631       -2111.719          48.000  
  23334430.149   122623253.3762      -2379.594          35.000  
  23685012.894   124465565.806       -2310.641          51.000  
  21472278.221   112837575.586        1147.764          37.000  
  25886257.872   136033174.982       -3441.873          34.000  
  21685542.183   113958281.348       -1154.591          48.000  
  23550374.709   123758243.2492      -2216.469          29.000  
  25673788.697   134916710.1842      -1366.135          34.000  
  23056633.205   121163425.0003      -1064.446          25.000  
  25542585.937                        3263.206          18.000  
  23733559.626                        2615.655          18.000  
  26678015.329                        3195.395          16.000  
 18  5  9 13 43 17.0040000  0 11G 4G14G31G16G32G26G22G29G27G23G 9
  21998373.720   115602246.141       -2111.627          48.000  
  23334882.913   122625632.5772      -2379.677          35.000  
  23685452.447   124467876.109       -2310.192          51.000  
  21472059.814   112836427.782        1147.423          37.000  
  25886912.238   136036616.431       -3441.531          34.000  
  21685762.004   113959435.794       -1154.610          48.000  
  23550792.904   123760459.7562      -2216.501          29.000  
  25674048.985   134918076.0182      -1365.510          35.000  
  25541964.500                        3250.408          18.000  
  23733065.401                        2615.045          19.000  
  26677410.801                        3195.395          16.000  
 18  5  9 13 43 18.0040000  0 11G 4G14G31G16G32G26G22G29G27G23G 9
  21998775.442   115604358.031       -2112.292          48.000  
  23335336.025   122628011.9562      -2379.553          35.000  
  23685892.315   124470186.314       -2310.350          51.000  
  21471841.669   112835280.444        1147.077          37.000  
  25887567.005   136040057.898       -3441.810          34.000  
  21685981.615   113960590.614       -1155.030          48.000  
  23551211.587   123762676.5232      -2216.872          29.000  
  25674308.714   134919442.3152      -1366.609          35.000  
  25541345.227                        3255.313          18.000  
  23732571.490                        2612.507          20.000  
  26676800.916                        3195.395          16.000  
 18  5  9 13 43 19.0040000  0 11G 4G14G31G16G32G26G22G29G27G23G 9
  21999177.390   115606470.230       -2112.225          48.000  
  23335789.207   122630391.5002      -2379.339          34.000  
  23686332.095   124472496.365       -2309.725          51.000  
  21471623.716   112834133.579        1146.267          37.000  
  25888221.353   136043499.313       -3440.612          34.000  
  21686201.627   113961745.800       -1155.221          48.000  
  23551629.415   123764893.006       -2217.069          30.000  
  25674568.932   134920808.9642      -1366.602          35.000  
  25540722.690                        3246.186          19.000  
  23732076.183                        2619.184          20.000  
  26676193.945                        3195.395          17.000  
 18  5  9 13 43 20.0040000  0 10G 4G14G31G16G32G26G22G29G27G23
  21999579.495   115608582.717       -2112.701          48.000  
  23336242.110   122632771.1492      -2379.366          35.000  
  23686771.579   124474806.242       -2309.766          51.000  
  21471405.693   112832987.064        1146.249          38.000  
  25888876.085   136046940.733       -3441.863          34.000  
  21686421.517   113962901.288       -1155.702          48.000  
  23552046.475   123767110.062       -2216.589          31.000  
  25674828.835   134922175.9412      -1367.191          36.000  
  25540100.503                        3253.816          19.000  
  23731580.999                        2615.843          19.000  
 18  5  9 13 43 21.0040000  0 10G 4G14G31G16G32G26G22G29G27G23
  21999981.758   115610695.792       -2113.348          48.000  
  23336695.659   122635151.3052      -2380.151          33.000  
  23687211.569   124477116.229       -2309.858          51.000  
  21471187.740   112831841.303        1145.285          38.000  
  25889530.713   136050382.301       -3441.166          33.000  
  21686641.948   113964057.371       -1156.299          48.000  
  23552468.003   123769327.670       -2217.197          31.000  
  25675088.948   134923543.5542      -1367.769          36.000  
  25539478.123                        3249.209          20.000  
  23731084.313                        2615.843          18.000  
 18  5  9 13 43 22.0040000  0  9G 4G14G31G16G32G26G22G29G27
  22000384.020   115612809.984       -2114.661          48.000  
  23337149.085   122637532.3362      -2381.181          33.000  
  23687651.471   124479426.900       -2311.098          51.000  
  21470969.943   112830696.759        1143.692          38.000  
  25890185.235   136053824.693       -3442.696          33.000  
  21686862.048   113965214.603       -1157.838          48.000  
  23552889.076   123771546.207       -2218.697          31.000  
  25675349.567   134924912.3112      -1368.922          37.000  
  25538855.761                        3258.779          20.000  
 18  5  9 13 43 23.0040000  0  9G 4G14G31G16G32G26G22G29G27
  22000786.405   115614925.094       -2115.564          48.000  
  23337602.756   122639914.2072      -2382.608          33.000  
  23688091.252   124481737.987       -2311.088          51.000  
  21470752.653   112829553.240        1143.213          38.000  
  25890839.933   136057267.671       -3443.373          33.000  
  21687082.532   113966372.766       -1158.419          48.000  
  23553312.087   123773765.576       -2220.119          31.000  
  25675610.099   134926282.0422      -1369.456          37.000  
  25538232.631                        3250.793          20.000  
 18  5  9 13 43 24.0040000  0  9G 4G14G31G16G32G26G22G29G27
  22001188.684   115617040.092       -2115.167          48.000  
  23338056.584   122642295.7852      -2382.528          33.000  
  23688530.997   124484048.514       -2310.312          51.000  
  21470534.944   112828409.735        1143.193          38.000  
  25891494.595   136060710.165       -3442.743          33.000  
  21687302.561   113967530.846       -1158.206          48.000  
  23553733.004   123775984.691       -2219.344          31.000  
  25675870.334   134927651.7212      -1369.785          37.000  
  25537611.456                        3256.560          19.000  
 18  5  9 13 43 25.0040000  0  9G 4G14G31G16G32G26G22G29G27
  22001591.296   115619155.596       -2116.388          48.000  
  23338510.167   122644677.630       -2382.183          32.000  
  23688970.603   124486359.079       -2311.080          51.000  
  21470317.724   112827266.848        1142.105          38.000  
  25892148.908   136064152.790       -3443.005          33.000  
  21687523.062   113968689.457       -1159.470          48.000  
  23554154.130   123778204.176       -2220.456          32.000  
  25676130.517   134929021.9542      -1371.357          37.000  
  25536989.356                        3253.089          19.000  
 18  5  9 13 43 26.0040000  0  9G 4G14G31G16G32G26G22G29G27
  22001994.274   115621272.034       -2116.162          48.000  
  23338964.065   122647060.346       -2382.767          31.000  
  23689410.855   124488670.100       -2310.464          51.000  
  21470100.364   112826125.031        1142.009          38.000  
  25892803.553   136067596.007       -3442.494          33.000  
  21687743.668   113969849.010       -1159.332          48.000  
  23554576.041   123780424.455       -2219.814          31.000  
  25676391.223   134930393.1222      -1370.939          37.000  
  25536365.737                        3257.278          19.000  
 18  5  9 13 43 27.0040000  0  9G 4G14G31G16G32G26G22G29G27
  22002396.798   115623388.249       -2116.455          48.000  
  23339418.940   122649442.682       -2383.381          30.000  
  23689850.949   124490980.447       -2310.290          51.000  
  21469883.528   112824983.094        1141.392          38.000  
  25893458.041   136071038.680       -3442.468          33.000  
  21687964.186   113971008.381       -1159.589          48.000  
  23554998.424   123782644.375       -2220.016          31.000  
  25676651.772   134931764.1712      -1371.403          37.000  
  25535742.747                        3255.508          19.000  
 18  5  9 13 43 28.0040000  0  9G 4G14G31G16G32G26G22G29G27
  22002799.462   115625505.067       -2117.200          48.000  
  23339874.041   122651825.355       -2382.718          29.000  
  23690290.817   124493290.921       -2310.509          51.000  
  21469666.412   112823841.862        1140.955          38.000  
  25894112.581   136074481.597       -3442.663          33.000  
  21688184.722   113972168.367       -1160.420          48.000  
  23555420.893   123784864.804       -2220.883          32.000  
  25676912.827   134933135.8112      -1371.719          37.000  
  25535121.013                        3257.516          20.000  
 18  5  9 13 43 29.0040000  0  9G 4G14G31G16G32G26G22G29G27
  22003202.335   115627622.433       -2117.969          48.000  
  23340329.161   122654208.531       -2383.704          28.000  
  23690730.597   124495601.483       -2310.870          51.000  
  21469449.855   112822701.336        1139.758          38.000  
  25894767.732   136077924.757       -3443.681          33.000  
  21688405.607   113973328.918       -1161.105          48.000  
  23555843.538   123787085.642       -2221.015          32.000  
  25677173.551   134934508.0692      -1372.601          37.000  
  25534497.709                        3258.812          20.000  
 18  5  9 13 43 31.0040000  0  9G 4G14G31G16G32G26G22G29G27
  22004008.465   115631858.768       -2118.256          48.000  
  23341235.158                       -2383.847          25.000  
  23691610.175   124500222.814       -2310.411          50.000  
  21469016.671   112820422.197        1139.491          38.000  
  25896077.633   136084811.584       -3443.619          33.000  
  21688847.377   113975651.713       -1161.654          48.000  
  23556688.425   123791528.533       -2221.475          32.000  
  25677695.819   134937254.364       -1373.455          36.000  
  25533252.392                        3258.717          22.000  
 18  5  9 13 43 32.0040000  0  9G 4G14G31G16G32G26G22G29G27
  22004411.932   115633977.449       -2119.165          48.000  
  23341690.609                       -2391.884          23.000  
  23692049.799   124502533.276       -2310.731          50.000  
  21468800.183   112819283.329        1138.552          38.000  
  25896732.644   136088254.996       -3444.193          34.000  
  21689068.227   113976813.655       -1162.483          48.000  
  23557111.244   123793750.302       -2222.399          32.000  
  25677957.066   134938628.082       -1374.348          36.000  
  25532631.862                        3253.798          23.000  
 18  5  9 13 43 33.0040000  0  9G 4G14G31G16G32G26G22G29G27
  22004815.101   115636096.775       -2119.794          48.000  
  23342143.303                       -2385.736          22.000  
  23692489.300   124504843.924       -2310.761          50.000  
  21468584.045   112818145.244        1137.665          38.000  
  25897387.603   136091698.678       -3443.797          34.000  
  21689289.286   113977976.265       -1162.966          48.000  
  23557533.818   123795972.565       -2222.001          32.000  
  25678218.383   134940002.478       -1374.630          36.000  
  25532008.121                        3255.086          23.000  
 18  5  9 13 43 34.0040000  0  9G 4G14G31G16G32G26G22G29G27
  22005218.655   115638216.569       -2120.105          48.000  
  23342595.525                       -2388.578          21.000  
  23692928.801   124507154.587       -2310.758          50.000  
  21468367.959   112817007.747        1137.081          38.000  
  25898042.929   136095142.524       -3444.051          34.000  
  21689510.590   113979139.366       -1163.313          48.000  
  23557956.707   123798195.217       -2223.304          31.000  
  25678480.066   134941377.429       -1375.603          36.000  
  25531386.021                        3256.143          23.000  
 18  5  9 13 43 35.0040000  0  9G 4G14G31G16G32G26G22G29G27
  22005622.698   115640336.927       -2120.935          48.000  
  23343046.840                       -2381.459          21.000  
  23693368.686   124509465.329       -2311.017          50.000  
  21468152.117   112815870.925        1136.368          38.000  
  25898698.586   136098586.548       -3444.377          34.000  
  21689732.173   113980303.059       -1164.242          48.000  
  23558379.595   123800418.286       -2224.003          31.000  
  25678741.331   134942752.918       -1375.785          35.000  
  25530764.654                        3262.854          24.000  
 18  5  9 13 43 36.0040000  0  9G 4G14G31G16G32G26G22G29G27
  22006026.513   115642457.963       -2121.307          48.000  
  23343493.723                       -2388.919          22.000  
  23693808.397   124511776.300       -2311.050          50.000  
  21467936.066   112814734.888        1135.618          38.000  
  25899354.103   136102030.939       -3444.356          35.000  
  21689953.790   113981467.455       -1164.674          47.000  
  23558802.746   123802641.887       -2224.488          31.000  
  25679002.822   134944129.192       -1376.089          35.000  
  25530145.049                        3256.803          24.000  
 18  5  9 13 43 37.0040000  0 10G 4G14G31G16G32G26G22G29G27G23
  22006430.520   115644579.892       -2122.089          48.000  
  23343942.158                       -2388.567          23.000  
  23694247.793   124514087.688       -2311.230          50.000  
  21467719.980   112813599.869        1134.841          38.000  
  25900010.231   136105475.863       -3444.513          35.000  
  21690175.391   113982632.755       -1165.355          47.000  
  23559225.669   123804866.266       -2224.984          31.000  
  25679264.663   134945506.391       -1377.212          35.000  
  25529524.153                        3247.056          25.000  
  23723092.201                        2614.494          20.000  
 18  5  9 13 43 38.0040000  0 10G 4G14G31G16G32G26G22G29G27G23
  22006834.441   115646702.074       -2122.449          48.000  
  23344391.205                       -2387.219          24.000  
  23694687.504   124516398.853       -2311.154          50.000  
  21467504.226   112812465.213        1134.484          38.000  
  25900666.325   136108920.706       -3444.699          35.000  
  21690397.253   113983798.332       -1165.760          47.000  
  23559649.099   123807090.738       -2224.458          31.000  
  25679526.364   134946883.891       -1378.230          35.000  
  25528907.095                        3261.888          25.000  
  23722595.009                        2615.136          21.000  
 18  5  9 13 43 39.0040000  0 10G 4G14G31G16G32G26G22G29G27G23
  22007238.431   115648824.788       -2122.589          48.000  
  23344840.391                       -2387.158          25.000  
  23695127.180   124518710.107       -2310.953          50.000  
  21467288.244   112811331.216        1134.059          38.000  
  25901322.331   136112365.737       -3444.665          35.000  
  21690618.888   113984964.465       -1165.924          47.000  
  23560072.336   123809315.682       -2225.575          31.000  
  25679788.065   134948261.940       -1377.400          35.000  
  25528287.194                        3256.647          26.000  
  23722095.688                        2613.836          22.000  
 18  5  9 13 43 40.0040000  0 11G 4G14G31G16G32G26G22G29G 3G27G23
  22007642.159   115650947.310       -2123.047          48.000  
  23345294.097                       -2386.767          26.000  
  23695566.454   124521020.692       -2310.887          50.000  
  21467072.176   112810197.162        1133.381          38.000  
  25901978.284   136115810.219       -3445.150          36.000  
  21690840.576   113986130.437       -1166.499          47.000  
  23560495.609   123811540.206       -2224.561          30.000  
  25680050.289   134949639.869       -1378.235          34.000  
  23061508.395                       -1065.869          28.000  
  25527666.280                        3256.459          25.000  
  23721596.804                        2615.975          21.000  
 18  5  9 13 43 41.0040000  0 11G 4G14G31G16G32G26G22G29G 3G27G23
  22008046.463   115653070.892       -2124.072          48.000  
  23345745.254   122682735.6223      -2388.005          27.000  
  23696006.391   124523331.874       -2311.533          49.000  
  21466856.543   112809064.291        1132.262          38.000  
  25902634.552   136119255.416       -3445.665          36.000  
  21691062.612   113987297.485       -1167.530          47.000  
  23560919.317   123813765.750       -2226.307          30.000  
  25680312.985   134951018.942       -1379.756          34.000  
  23061719.386                       -1077.612          28.000  
  25527047.496                        3256.173          26.000  
  23721100.433                        2608.114          22.000  
 18  5  9 13 43 42.0040000  0 11G 4G14G31G16G32G26G22G29G 3G27G23
  22008450.976   115655194.971       -2123.804          48.000  
  23346197.267   122685123.3922      -2387.504          28.000  
  23696446.032   124525643.085       -2310.714          49.000  
  21466640.754   112807932.016        1132.340          38.000  
  25903290.750   136122700.760       -3444.744          36.000  
  21691284.945   113988465.055       -1167.247          47.000  
  23561345.050   123815991.567       -2225.261          30.000  
  25680575.384   134952398.503       -1379.034          34.000  
  23061928.596   121191231.8002      -1077.456          30.000  
  25526429.461                        3259.393          25.000  
  23720603.171                        2616.913          22.000  
 18  5  9 13 43 43.0040000  0 11G 4G14G31G16G32G26G22G29G 3G27G23
  22008855.036   115657318.392       -2123.370          48.000  
  23346650.485   122687510.3632      -2386.452          28.000  
  23696885.551   124527953.174       -2309.755          49.000  
  21466425.156   112806799.190        1133.125          38.000  
  25903946.739   136126145.112       -3443.827          36.000  
  21691506.650   113989631.988       -1166.914          47.000  
  23561768.480   123818216.712       -2225.573          30.000  
  25680837.643   134953777.450       -1378.679          34.000  
  23062131.577   121192309.7842      -1077.690          30.000  
  25525809.821                        3258.125          26.000  
  23720100.500                        2612.054          22.000  
 18  5  9 13 43 44.0040000  0 11G 4G14G31G16G32G26G22G29G 3G27G23
  22009259.497   115659442.580       -2125.232          48.000  
  23347107.436   122689897.9732      -2388.033          30.000  
  23697325.384   124530263.573       -2311.433          49.000  
  21466209.751   112805667.306        1130.833          38.000  
  25904602.658   136129589.871       -3445.668          36.000  
  21691728.774   113990799.705       -1168.993          47.000  
  23562196.080   123820442.411       -2227.074          30.000  
  25681100.339   134955157.275       -1381.266          33.000  
  23062338.589   121193388.5892      -1079.910          30.000  
  25525189.972                        3257.023          26.000  
  23719603.570                        2606.651          23.000  
 18  5  9 13 43 45.0040000  0 11G 4G14G31G16G32G26G22G29G 3G27G23
  22009663.836   115661568.494       -2126.355          48.000  
  23347559.170   122692287.1382      -2390.113          31.000  
  23697765.338   124532575.217       -2311.842          49.000  
  21465994.869   112804537.244        1129.849          38.000  
  25905258.629   136133036.041       -3446.706          36.000  
  21691951.299   113991969.182       -1169.855          47.000  
  23562618.201   123822669.742       -2227.828          30.000  
  25681363.069   134956538.783       -1381.595          33.000  
  23062544.537   121194469.1892      -1081.517          31.000  
  25524572.863                        3256.073          26.000  
  23719104.494                        2619.797          23.000  
 18  5  9 13 43 46.0040000  0 11G 4G14G31G16G32G26G22G29G 3G27G23
  22010068.524   115663695.392       -2127.020          48.000  
  23348016.784   122694677.1022      -2389.447          30.000  
  23698205.241   124534887.399       -2312.264          49.000  
  21465780.022   112803408.287        1128.589          38.000  
  25905914.914   136136482.824       -3447.197          37.000  
  21692173.772   113993139.666       -1170.845          47.000  
  23563044.213   123824897.959       -2229.324          30.000  
  25681626.166   134957921.405       -1383.052          32.000  
  23062750.414   121195550.8272      -1081.506          31.000  
  25523952.699                        3254.477          26.000  
  23718604.388                        2608.195          24.000  
 18  5  9 13 43 48.0040000  0 11G 4G14G31G16G32G26G22G29G 3G27G23
  22010878.145   115667948.439       -2127.045          48.000  
  23348926.953   122699455.8762      -2389.839          31.000  
  23699084.802   124539509.596       -2311.170          49.000  
  21465350.223   112801149.974        1128.269          38.000  
  25907226.909   136143374.577       -3445.944          37.000  
  21692618.718   113995479.947       -1170.695          47.000  
  23563886.867   123829353.099       -2227.573          29.000  
  25682151.627   134960685.961       -1383.086          31.000  
  23063160.582   121197713.6062      -1082.041          32.000  
  25522711.378                        3257.501          25.000  
  23717608.382                        2610.410          25.000  
 18  5  9 13 43 49.0040000  0 11G 4G14G31G16G32G26G22G29G 3G27G23
  22011282.658   115670075.810       -2127.350          48.000  
  23349386.242   122701845.366       -2390.075          31.000  
  23699524.669   124541820.843       -2310.838          49.000  
  21465135.952   112800021.846        1128.304          38.000  
  25907883.124   136146820.816       -3446.103          37.000  
  21692841.470   113996650.978       -1171.095          46.000  
  23564311.884   123831581.396       -2227.945          29.000  
  25682414.881   134962069.177       -1383.581          31.000  
  23063366.948   121198795.9812      -1082.438          32.000  
  25522089.400                        3256.508          25.000  
  23717111.959                        2609.927          25.000  
 18  5  9 13 43 50.0040000  0 11G 4G14G31G16G32G26G22G29G 3G27G23
  22011687.468   115672203.217       -2127.765          48.000  
  23349840.419   122704235.204       -2389.366          32.000  
  23699964.415   124544131.664       -2310.938          49.000  
  21464921.244   112798893.893        1127.511          38.000  
  25908539.060   136150266.732       -3445.869          37.000  
  21693064.152   113997822.051       -1171.427          46.000  
  23564742.067   123833809.550       -2228.012          29.000  
  25682678.083   134963452.381       -1382.694          31.000  
  23063572.791   121199878.4342      -1082.900          32.000  
  25521467.492                        3258.784          24.000  
  23716615.936                        2609.561          25.000  
 18  5  9 13 43 51.0040000  0 11G 4G14G31G16G32G26G22G29G 3G27G23
  22012092.470   115674331.116       -2128.204          48.000  
  23350296.673   122706625.401       -2389.676          32.000  
  23700404.230   124546442.523       -2310.942          49.000  
  21464706.694   112797766.537        1127.319          38.000  
  25909194.962   136153712.807       -3446.187          38.000  
  21693286.956   113998993.642       -1171.863          46.000  
  23565166.997   123836038.170       -2229.137          28.000  
  25682942.610   134964836.261       -1384.497          30.000  
  23063777.168   121200961.4742      -1083.423          32.000  
  25520846.369                        3258.007          25.000  
  23716116.022                        2608.271          26.000  
 18  5  9 13 43 52.0040000  0 11G 4G14G31G16G32G26G22G29G 3G27G23
  22012497.455   115676459.852       -2129.126          48.000  
  23350751.600   122709016.363       -2391.531          33.000  
  23700843.871   124548753.742       -2311.425          49.000  
  21464492.370   112796640.162        1125.739          38.000  
  25909851.020   136157159.355       -3446.526          38.000  
  21693509.761   114000166.114       -1173.006          46.000  
  23565592.503   123838267.372       -2229.572          28.000  
  25683205.132   134966220.992       -1385.110          29.000  
  23063983.551   121202045.4102      -1084.191          32.000  
  25520225.228                        3258.060          25.000  
  23715619.546                        2609.457          25.000  
 18  5  9 13 43 53.0040000  0 11G 4G14G31G16G32G26G22G29G 3G27G23
  22012902.632   115678589.514       -2130.322          48.000  
  23351206.632   122711408.012       -2392.914          33.000  
  23701283.791   124551065.421       -2312.168          49.000  
  21464278.204   112795514.805        1124.448          38.000  
  25910507.550   136160606.504       -3447.722          38.000  
  21693732.652   114001339.511       -1174.308          46.000  
  23566015.165   123840497.434       -2230.610          28.000  
  25683467.967   134967606.650       -1386.613          28.000  
  23064189.673   121203130.3502      -1085.418          32.000  
  25519603.093                        3257.003          25.000  
  23715124.222                        2608.665          25.000  
 18  5  9 13 43 54.0040000  0 11G 4G14G31G16G32G26G22G29G 3G27G23
  22013308.000   115680720.704       -2131.561          48.000  
  23351662.135   122713801.029       -2393.396          33.000  
  23701723.519   124553378.173       -2312.904          49.000  
  21464064.002   112794391.119        1123.104          38.000  
  25911164.184   136164054.802       -3448.316          38.000  
  21693956.172   114002514.480       -1175.602          46.000  
  23566441.299   123842728.959       -2232.458          27.000  
  25683734.327   134968993.895       -1387.349          27.000  
  23064396.197   121204216.9012      -1087.092          32.000  
  25518983.698                        3256.655          24.000  
  23714631.288                        2607.650          26.000  
 18  5  9 13 43 55.0040000  0 11G 4G14G31G16G32G26G22G29G 3G27G23
  22013713.683   115682852.242       -2131.348          48.000  
  23352117.708   122716194.269       -2393.104          33.000  
  23702163.526   124555690.818       -2312.338          49.000  
  21463850.220   112793267.901        1123.196          38.000  
  25911820.661   136167503.145       -3448.120          39.000  
  21694179.675   114003689.807       -1175.332          46.000  
  23566867.591   123844960.603       -2231.638          27.000  
  25683998.488   134970381.569       -1387.751          26.000  
  23064602.685   121205303.8942      -1086.999          32.000  
  25518363.988                        3256.569          23.000  
  23714136.749                        2607.865          26.000  
 18  5  9 13 43 56.0040000  0 11G 4G14G31G16G32G26G22G29G 3G27G23
  22014119.505   115684984.393       -2133.191          48.000  
  23352573.594   122718587.961       -2395.136          33.000  
  23702603.516   124558003.587       -2313.617          48.000  
  21463636.507   112792145.409        1121.115          37.000  
  25912477.138   136170951.721       -3449.499          39.000  
  21694403.439   114004865.766       -1177.047          46.000  
  23567295.575   123847192.687       -2232.859          27.000  
  25684263.662   134971769.850       -1389.473          26.000  
  23064809.208   121206391.5282      -1088.605          32.000  
  25517743.162                        3255.934          23.000  
  23713641.896                        2606.861          27.000  
 18  5  9 13 43 57.0040000  0 11G 4G14G31G16G32G26G22G29G 3G27G23
  22014525.380   115687118.176       -2133.197          47.000  
  23353029.272   122720983.141       -2394.916          34.000  
  23703043.785   124560317.548       -2313.264          48.000  
  21463423.143   112791024.683        1120.960          37.000  
  25913133.877   136174401.579       -3448.882          39.000  
  21694627.465   114006043.395       -1177.077          46.000  
  23567723.402   123849426.395       -2232.766          27.000  
  25684529.760   134973159.831       -1389.331          26.000  
  23065015.976   121207480.9342      -1089.067          31.000  
  25517120.887                        3255.642          23.000  
  23713147.164   124613422.7403       2606.875          27.000  
 18  5  9 13 43 58.0040000  0 11G 4G14G31G16G32G26G22G29G 3G27G23
  22014931.464   115689251.139       -2132.825          47.000  
  23353485.072   122723377.295       -2394.023          34.000  
  23703483.897   124562630.207       -2312.186          48.000  
  21463209.709   112789903.248        1121.468          37.000  
  25913791.052   136177850.303       -3448.274          39.000  
  21694851.177   114007220.206       -1176.477          46.000  
  23568148.192   123851659.143       -2232.708          26.000  
  25684793.991   134974549.118       -1389.462          25.000  
  23065222.360   121208569.5562      -1088.708          32.000  
  25516500.060                        3262.106          22.000  
  23712649.833   124610815.3842       2608.104          28.000  
 18  5  9 13 43 59.0040000  0 11G 4G14G31G16G32G26G22G29G 3G27G23
  22015337.234   115691384.040       -2133.075          47.000  
  23353940.575   122725771.281       -2394.245          34.000  
  23703923.573   124564942.352       -2312.131          48.000  
  21462996.066   112788781.867        1121.230          37.000  
  25914447.669   136181298.607       -3448.295          40.000  
  21695075.237   114008396.987       -1176.807          46.000  
  23568574.222   123853891.647       -2232.657          26.000  
  25685065.168                       -1389.407          25.000  
  23065429.127   121209658.1732      -1088.578          31.000  
  25515877.890                        3254.734          22.000  
  23712154.195   124608207.6532       2607.915          29.000  
 18  5  9 13 44  0.0040000  0 11G 4G14G31G16G32G26G22G29G 3G27G23
  22015743.108   115693517.322       -2133.228          47.000  
  23354396.305   122728165.468       -2394.565          34.000  
  23704363.510   124567254.411       -2311.862          48.000  
  21462782.528   112787661.014        1120.491          37.000  
  25915104.181   136184746.953       -3448.404          40.000  
  21695299.228   114009574.174       -1177.221          46.000  
  23568997.931   123856124.492       -2233.040          25.000  
  25685333.447                       -1387.563          23.000  
  23065635.511   121210747.2512      -1088.736          31.000  
  25515259.263                        3266.391          22.000  
  23711662.308   124605599.9412       2608.429          30.000  
 18  5  9 13 44  1.0040000  0 11G 4G14G31G16G32G26G22G29G 3G27G23
  22016149.018   115695650.822       -2133.411          47.000  
  23354851.895   122730559.696       -2394.001          34.000  
  23704803.797   124569566.220       -2311.439          48.000  
  21462569.304   112786540.457        1120.768          37.000  
  25915760.763   136188195.156       -3447.996          40.000  
  21695523.394   114010751.603       -1177.318          46.000  
  23569422.337   123858357.399       -2233.164          26.000  
  25685600.872                       -1393.699          22.000  
  23065838.091   121211836.140       -1088.855          31.000  
  25514640.321                        3262.488          22.000  
  23711168.432   124602992.0752       2607.883          30.000  
 18  5  9 13 44  2.0040000  0 11G 4G14G31G16G32G26G22G29G 3G27G23
  22016555.311   115697784.784       -2134.259          47.000  
  23355307.782   122732954.269       -2394.522          34.000  
  23705243.141   124571878.049       -2311.981          48.000  
  21462355.975   112785420.543        1119.728          37.000  
  25916417.432   136191643.501       -3448.262          40.000  
  21695747.577   114011929.533       -1178.156          46.000  
  23569848.716   123860590.573       -2233.489          26.000  
  25685865.941                       -1387.859          22.000  
  23066046.027   121212926.118       -1090.609          31.000  
  25514021.536                        3259.186          22.000  
  23710675.603   124600384.3602       2607.350          31.000  
 18  5  9 13 44  3.0040000  0 10G 4G14G31G16G32G26G22G 3G27G23
  22016961.465   115699919.434       -2135.083          47.000  
  23355763.494   122735349.358       -2395.113          34.000  
  23705683.078   124574190.091       -2312.223          48.000  
  21462142.943   112784301.435        1118.408          37.000  
  25917073.962   136195092.177       -3448.979          40.000  
  21695971.341   114013108.166       -1179.073          46.000  
  23570270.610                       -2232.939          25.000  
  23066253.476   121214016.782       -1090.482          31.000  
  25513402.333                        3261.202          22.000  
  23710179.528   124597776.9782       2607.684          32.000  
 18  5  9 13 44  4.0040000  0 10G 4G14G31G16G32G26G22G 3G27G23
  22017367.776   115702054.869       -2135.815          47.000  
  23356219.067   122737745.112       -2395.798          34.000  
  23706123.085   124576502.449       -2312.377          48.000  
  21461930.417   112783183.203        1117.964          37.000  
  25917730.631   136198541.298       -3449.216          40.000  
  21696195.855   114014287.590       -1179.619          46.000  
  23570695.505                       -2234.196          25.000  
  23066460.156   121215108.308       -1091.226          31.000  
  25512783.967                        3265.485          22.000  
  23709681.865   124595169.9632       2606.772          32.000  
 18  5  9 13 44  5.0040000  0 11G 4G14G31G16G32G26G22G29G 3G27G23
  22017774.244   115704190.872       -2136.182          47.000  
  23356675.094   122740141.267       -2396.347          35.000  
  23706562.866   124578814.914       -2312.352          48.000  
  21461717.786   112782065.673        1117.543          37.000  
  25918387.405   136201990.627       -3449.313          40.000  
  21696420.283   114015467.618       -1180.270          46.000  
  23571120.977                       -2233.350          25.000  
  25686664.690                       -1392.521          26.000  
  23066665.388   121216200.488       -1091.909          31.000  
  25512166.072                        3257.533          21.000  
  23709190.275   124592563.2682       2606.560          32.000  
 18  5  9 13 44  6.0040000  0 11G 4G14G31G16G32G26G22G29G 3G27G23
  22018180.747   115706327.417       -2136.926          47.000  
  23357131.173   122742537.802       -2396.843          35.000  
  23707002.838   124581127.471       -2312.839          48.000  
  21461505.574   112780948.829        1116.326          37.000  
  25919044.283   136205440.168       -3449.767          41.000  
  21696645.007   114016648.220       -1180.943          46.000  
  23571544.633                       -2234.935          25.000  
  25686932.830   134985742.7193      -1393.630          27.000  
  23066876.222   121217293.339       -1093.222          31.000  
  25511546.537                        3264.552          19.000  
  23708691.705   124589956.6612       2606.104          32.000  
 18  5  9 13 44  7.0040000  0 11G 4G14G31G16G32G26G22G29G 3G27G23
  22018587.616   115708464.998       -2137.872          47.000  
  23357587.531   122744935.215       -2397.931          35.000  
  23707442.828   124583440.599       -2313.280          48.000  
  21461293.274   112779833.134        1115.416          37.000  
  25919700.952   136208890.418       -3450.450          41.000  
  21696869.870   114017829.872       -1182.009          46.000  
  23571968.377                       -2237.681          26.000  
  25687202.837   134987136.9862      -1394.724          28.000  
  23067086.252   121218387.241       -1094.316          31.000  
  25510928.590                        3256.649          18.000  
  23708195.892   124587350.258        2606.365          32.000  
 18  5  9 13 44  8.0040000  0 11G 4G14G31G16G32G26G22G29G 3G27G23
  22018994.834   115710603.349       -2138.788          47.000  
  23358043.941   122747333.235       -2398.388          35.000  
  23707882.957   124585754.023       -2313.590          48.000  
  21461080.992   112778718.343        1114.328          37.000  
  25920357.866   136212341.073       -3450.788          41.000  
  21697094.821   114019012.331       -1183.005          46.000  
  23572388.421                       -2236.882          26.000  
  25687468.865   134988532.0492      -1395.564          28.000  
  23067295.044   121219482.018       -1095.299          32.000  
  25510311.847                        3256.649          16.000  
  23707698.962   124584744.804        2605.176          32.000  
 18  5  9 13 44  9.0040000  0 11G 4G14G31G16G32G26G22G29G 3G27G23
  22019401.965   115712742.752       -2139.752          47.000  
  23358500.578   122749732.142       -2399.184          35.000  
  23708323.471   124588068.030       -2314.104          48.000  
  21460868.780   112777604.716        1112.917          37.000  
  25921014.605   136215792.437       -3451.666          41.000  
  21697320.260   114020195.841       -1183.740          46.000  
  23572813.927                       -2238.192          26.000  
  25687735.435   134989928.2252      -1396.804          29.000  
  23067503.749   121220577.868       -1096.225          32.000  
  25509693.394                        3260.640          16.000  
  23707204.981   124582140.038        2604.552          33.000  
 18  5  9 13 44 10.0040000  0 11G 4G14G31G16G32G26G22G29G 3G27G23
  22019809.201   115714882.751       -2139.948          47.000  
  23358956.954   122752131.536       -2399.446          35.000  
  23708763.862   124590382.184       -2314.071          48.000  
  21460657.196   112776491.806        1112.800          37.000  
  25921671.396   136219244.047       -3451.430          41.000  
  21697545.769   114021379.991       -1184.303          45.000  
  23573235.716                       -2239.963          26.000  
  25688000.486   134991325.0312      -1396.713          30.000  
  23067712.157   121221674.442       -1096.487          32.000  
  25509075.953                        3260.640          13.000  
  23706707.685   124579535.509        2604.578          33.000  
 18  5  9 13 44 11.0040000  0 11G 4G14G31G16G32G26G22G29G 3G27G23
  22020216.437   115717023.068       -2140.491          47.000  
  23359413.120   122754531.067       -2399.822          35.000  
  23709204.270   124592696.185       -2313.974          48.000  
  21460445.473   112775379.359        1112.101          37.000  
  25922328.153   136222695.633       -3451.360          41.000  
  21697770.964   114022564.475       -1184.724          45.000  
  23573659.180                       -2238.401          26.000  
  25688262.309   134992722.2352      -1397.849          31.000  
  23067920.408   121222771.390       -1096.915          31.000  
  25508458.948                        3260.212          16.000  
  23706211.034   124576930.957        2603.616          32.000  
 18  5  9 13 44 12.0040000  0 11G 4G14G31G16G32G26G22G29G 3G27G23
  22020623.864   115719163.976       -2141.217          47.000  
  23359869.443   122756931.005       -2399.838          35.000  
  23709644.347   124595010.316       -2314.166          48.000  
  21460233.837   112774267.593        1111.594          37.000  
  25922984.787   136226147.480       -3451.996          41.000  
  21697996.561   114023749.567       -1185.384          45.000  
  23574081.720                       -2239.204          26.000  
  25688525.249   134994120.0412      -1397.957          31.000  
  23068129.549   121223868.993       -1097.830          31.000  
  25507840.338                        3260.212          16.000  
  23705716.391   124574326.621        2604.340          33.000  
 18  5  9 13 44 13.0040000  0 11G 4G14G31G16G32G26G22G29G 3G27G23
  22021031.257   115721305.347       -2141.284          47.000  
  23360325.452   122759331.285       -2400.008          34.000  
  23710085.105   124597324.448       -2313.771          48.000  
  21460022.218   112773156.449        1110.914          37.000  
  25923641.456   136229599.437       -3451.859          41.000  
  21698222.000   114024935.156       -1185.547          46.000  
  23574507.470                       -2238.584          26.000  
  25688789.184   134995517.887       -1398.234          31.000  
  23068338.672   121224967.113       -1097.332          31.000  
  25507218.359                        3260.212          14.000  
  23705222.008   124571722.440        2604.644          33.000  
 18  5  9 13 44 14.0040000  0 11G 4G14G31G16G32G26G22G29G 3G27G23
  22021438.982   115723447.127       -2142.163          47.000  
  23360781.880   122761731.790       -2400.265          35.000  
  23710525.618   124599638.519       -2314.138          48.000  
  21459811.175   112772045.824        1110.051          37.000  
  25924297.671   136233051.415       -3451.725          41.000  
  21698447.666   114026121.175       -1186.244          45.000  
  23574933.744   123887112.5253      -2239.762          27.000  
  25689054.287   134996916.712       -1399.423          32.000  
  23068547.726   121226065.795       -1099.335          31.000  
  25506599.575                        3260.212          13.000  
  23704726.544   124569118.263        2604.367          33.000  
 18  5  9 13 44 15.0040000  0 11G 4G14G31G16G32G26G22G29G 3G27G23
  22021846.688   115725589.391       -2142.456          47.000  
  23361238.203   122764132.659       -2401.023          35.000  
  23710965.887   124601952.620       -2314.100          48.000  
  21459600.272   112770935.797        1109.594          37.000  
  25924954.201   136236503.599       -3452.289          41.000  
  21698673.490   114027307.707       -1186.806          46.000  
  23575360.053   123889352.4092      -2240.363          28.000  
  25689320.822   134998316.036       -1399.554          33.000  
  23068756.762   121227164.984       -1099.814          30.000  
  25505977.370                        3261.263          14.000  
  23704231.045   124566514.263        2604.783          33.000  
 18  5  9 13 44 16.0040000  0 11G 4G14G31G16G32G26G22G29G 3G27G23
  22022254.657   115727732.084       -2142.981          47.000  
  23361694.282   122766533.822       -2401.740          35.000  
  23711406.243   124604266.690       -2314.338          48.000  
  21459389.246   112769826.340        1109.102          37.000  
  25925610.556   136239955.832       -3452.615          40.000  
  21698899.418   114028494.696       -1187.453          46.000  
  23575786.327   123891592.5832      -2241.197          28.000  
  25689586.781   134999715.871       -1399.833          33.000  
  23068965.100   121228264.616       -1098.807          31.000  
  25505357.608                        3252.396          15.000  
  23703735.669   124563910.338        2603.651          33.000  
 18  5  9 13 44 17.0040000  0 11G 4G14G31G16G32G26G22G29G 3G27G23
  22022662.504   115729875.531       -2143.860          47.000  
  23362150.885   122768935.506       -2401.657          35.000  
  23711846.617   124606581.036       -2314.479          48.000  
  21459178.622   112768717.753        1108.158          37.000  
  25926267.138   136243408.476       -3453.081          40.000  
  21699125.555   114029682.437       -1188.241          46.000  
  23576213.334   123893833.3322      -2241.217          29.000  
  25689851.710   135001116.526       -1401.166          33.000  
  23069171.798   121229365.176       -1100.157          30.000  
  25504736.066                        3255.317          16.000  
  23703240.397   124561306.806        2602.992          33.000  
 18  5  9 13 44 18.0040000  0 11G 4G14G31G16G32G26G22G29G 3G27G23
  22023070.751   115732019.687       -2144.189          47.000  
  23362607.557   122771337.825       -2402.696          35.000  
  23712286.938   124608895.645       -2314.388          48.000  
  21458968.068   112767610.021        1107.227          37.000  
  25926923.894   136246861.507       -3453.369          40.000  
  21699351.623   114030870.943       -1188.680          46.000  
  23576641.353   123896074.7502      -2242.056          28.000  
  25690118.454   135002517.953       -1401.947          33.000  
  23069381.863   121230466.506       -1101.047          30.000  
  25504111.732                        3260.077          19.000  
  23702745.212   124558703.637        2603.303          33.000  
 18  5  9 13 44 19.0040000  0 11G 4G14G31G16G32G26G22G29G 3G27G23
  22023478.668   115734163.922       -2144.324          47.000  
  23363064.055   122773740.035       -2402.508          35.000  
  23712727.714   124611209.862       -2314.040          48.000  
  21458757.496   112766502.448        1107.545          37.000  
  25927580.912   136250314.230       -3452.497          40.000  
  21699578.161   114032059.535       -1188.653          46.000  
  23577068.290   123898316.0312      -2241.463          28.000  
  25690384.901   135003919.481       -1402.074          33.000  
  23069592.924   121231567.997       -1102.081          30.000  
  25503488.881                        3261.276          19.000  
  23702249.783   124556100.164        2603.739          33.000  
 18  5  9 13 44 20.0040000  0 11G 4G14G31G16G32G26G22G29G 3G27G23
  22023886.828   115736308.756       -2145.209          47.000  
  23363520.343   122776142.657       -2402.710          35.000  
  23713168.489   124613524.213       -2314.494          48.000  
  21458546.889   112765395.615        1106.436          37.000  
  25928237.372   136253767.242       -3453.225          40.000  
  21699804.648   114033248.748       -1189.607          46.000  
  23577495.297   123900557.8482      -2242.028          28.000  
  25690651.401   135005321.628       -1402.414          33.000  
  23069807.143   121232670.078       -1102.145          30.000  
  25502864.565                        3262.235          19.000  
  23701754.598   124553496.981        2602.789          33.000  
 18  5  9 13 44 21.0040000  0 11G 4G14G31G16G32G26G22G29G 3G27G23
  22024295.460   115738454.550       -2146.143          47.000  
  23363977.050   122778546.121       -2403.658          35.000  
  23713609.002   124615839.073       -2315.046          48.000  
  21458336.562   112764289.881        1105.474          37.000  
  25928894.129   136257220.871       -3454.245          40.000  
  21700031.029   114034438.944       -1190.454          46.000  
  23577921.379   123902800.5082      -2242.947          28.000  
  25690918.058   135006724.865       -1404.182          33.000  
  23070017.557   121233773.241       -1102.848          30.000  
  25502238.800                        3259.286          21.000  
  23701259.169   124550894.390        2602.092          32.000  
 18  5  9 13 44 22.0040000  0 11G 4G14G31G16G32G26G22G29G 3G27G23
  22024704.039   115740600.973       -2146.753          47.000  
  23364434.071   122780950.076       -2404.325          35.000  
  23714049.428   124618154.092       -2315.128          48.000  
  21458126.479   112763184.884        1105.126          38.000  
  25929551.042   136260674.775       -3454.208          39.000  
  21700257.673   114035629.790       -1191.135          46.000  
  23578347.618   123905043.6422      -2242.950          28.000  
  25691185.168   135008128.701       -1404.677          32.000  
  23070226.349   121234877.115       -1103.666          30.000  
  25501617.415                        3254.678          22.000  
  23700763.844   124548292.083        2602.470          32.000  
 18  5  9 13 44 23.0040000  0 11G 4G14G31G16G32G26G22G29G 3G27G23
  22025112.933   115742747.600       -2146.692          47.000  
  23364890.900   122783354.059       -2403.936          35.000  
  23714490.081   124620468.851       -2314.567          48.000  
  21457916.483   112762080.231        1104.731          37.000  
  25930207.781   136264128.518       -3453.640          39.000  
  21700484.561   114036820.868       -1191.008          46.000  
  23578773.368   123907286.8262      -2242.331          28.000  
  25691452.209   135009532.797       -1404.399          33.000  
  23070443.308   121235981.337       -1104.894          31.000  
  25500995.123                        3261.516          22.000  
  23700268.293   124545689.617        2603.137          32.000  
 18  5  9 13 44 24.0040000  0 11G 4G14G31G16G32G26G22G29G 3G27G23
  22025521.792   115744894.487       -2147.455          47.000  
  23365348.393   122785758.127       -2404.308          36.000  
  23714930.455   124622783.417       -2314.761          48.000  
  21457706.836   112760975.966        1104.014          38.000  
  25930864.642   136267582.204       -3454.328          39.000  
  21700711.256   114038012.224       -1191.805          46.000  
  23579203.307   123909530.2002      -2243.781          27.000  
  25691719.285   135010937.230       -1405.011          33.000  
  23070656.881   121237085.788       -1104.939          30.000  
  25500375.955                        3263.064          22.000  
  23699773.440   124543087.087        2602.175          32.000  
 18  5  9 13 44 25.0040000  0 11G 4G14G31G16G32G26G22G29G 3G27G23
  22025930.860   115747042.125       -2147.650          47.000  
  23365805.501   122788162.845       -2404.786          36.000  
  23715370.811   124625098.263       -2314.521          48.000  
  21457497.014   112759872.581        1103.297          37.000  
  25931521.451   136271036.291       -3454.037          39.000  
  21700938.127   114039204.380       -1192.151          46.000  
  23579629.720   123911773.650       -2243.478          27.000  
  25691986.482   135012342.421       -1405.623          33.000  
  23070865.725   121238191.109       -1104.765          31.000  
  25499757.571                        3258.639          23.000  
  23699278.639   124540484.963        2602.245          32.000  
 18  5  9 13 44 26.0040000  0 11G 4G14G31G16G32G26G22G29G 3G27G23
  22026339.666   115749190.143       -2148.352          47.000  
  23366263.046   122790567.750       -2405.161          36.000  
  23715811.289   124627413.036       -2314.872          48.000  
  21457287.402   112758769.717        1102.288          37.000  
  25932178.469   136274490.417       -3454.514          39.000  
  21701164.979   114040396.927       -1192.854          46.000  
  23580057.495   123914017.926       -2244.977          27.000  
  25692253.698   135013748.085       -1406.300          33.000  
  23071077.030   121239296.965       -1106.877          30.000  
  25499138.246                        3257.150          24.000  
  23698783.314   124537882.871        2601.705          32.000  
 18  5  9 13 44 27.0040000  0 11G 4G14G31G16G32G26G22G29G 3G27G23
  22026748.699   115751338.779       -2149.316          47.000  
  23366720.451   122792973.102       -2405.579          36.000  
  23716251.471   124629727.950       -2315.203          47.000  
  21457077.738   112757667.556        1101.184          37.000  
  25932835.487   136277944.786       -3454.549          39.000  
  21701391.885   114041590.102       -1193.881          45.000  
  23580482.163   123916262.554       -2244.537          27.000  
  25692521.175   135015154.351       -1406.664          33.000  
  23071289.416   121240443.8813      -1107.364          30.000  
  25498519.565                        3259.087          24.000  
  23698288.426   124535280.966        2601.644          32.000  
 18  5  9 13 44 28.0040000  0 11G 4G14G31G16G32G26G22G29G 3G27G23
  22027158.186   115753488.880       -2150.928          47.000  
  23367178.118   122795379.805       -2407.341          36.000  
  23716692.002   124632043.880       -2316.358          47.000  
  21456868.614   112756567.017        1099.503          37.000  
  25933493.046   136281400.331       -3456.281          38.000  
  21701618.825   114042784.781       -1195.350          45.000  
  23580906.116   123918508.615       -2246.636          27.000  
  25692788.843   135016562.156       -1407.449          32.000  
  23071502.257   121241551.8952      -1108.589          30.000  
  25497902.002                        3267.705          25.000  
  23697793.695   124532680.293        2600.191          31.000  
 18  5  9 13 44 29.0040000  0 11G 4G14G31G16G32G26G22G29G 3G27G23
  22027567.655   115755639.871       -2151.257          48.000  
  23367636.029   122797787.250       -2407.729          36.000  
  23717132.637   124634360.255       -2316.512          47.000  
  21456659.317   112755467.478        1099.160          37.000  
  25934150.518   136284856.368       -3455.721          38.000  
  21701846.201   114043980.371       -1195.845          45.000  
  23581331.500   123920755.412       -2246.874          27.000  
  25693056.355   135017970.959       -1409.308          32.000  
  23071718.430   121242660.8632      -1109.576          29.000  
  25497284.404                        3264.087          25.000  
  23697298.807   124530080.106        2600.220          31.000  
 18  5  9 13 44 31.0040000  0 11G 4G14G31G16G32G26G22G29G 3G27G23
  22028387.100   115759942.497       -2150.964          48.000  
  23368552.253   122802602.291       -2406.835          37.000  
  23718013.995   124638992.232       -2315.167          47.000  
  21456241.297   112753269.457        1099.281          37.000  
  25935465.322   136291768.123       -3454.999          38.000  
  21702300.989   114046372.270       -1195.519          45.000  
  23582184.013   123925249.317       -2246.684          27.000  
  25693591.972   135020789.247       -1408.871          32.000  
  23072149.834   121244879.6872      -1109.110          29.000  
  25496051.267                        3258.272          26.000  
  23696311.508   124524879.364        2600.862          30.000  
 18  5  9 13 44 32.0040000  0 11G 4G14G31G16G32G26G22G29G 3G27G23
  22028796.622   115762094.551       -2153.101          48.000  
  23369010.618   122805010.335       -2408.717          38.000  
  23718454.788   124641308.279       -2316.859          47.000  
  21456032.592   112752171.381        1097.240          37.000  
  25936123.108   136295224.254       -3457.170          38.000  
  21702528.662   114047569.000       -1197.510          45.000  
  23582612.207   123927496.780       -2248.047          27.000  
  25693859.781   135022199.189       -1410.708          32.000  
  23072360.232   121245989.9852      -1111.226          29.000  
  25495433.180                        3257.620          26.000  
  23695816.620   124522279.229        2599.056          29.000  
 18  5  9 13 44 33.0040000  0 11G 4G14G31G16G32G26G22G29G 3G27G23
  22029206.475   115764247.803       -2154.004          48.000  
  23369468.930   122807419.424       -2409.572          38.000  
  23718895.842   124643625.063       -2317.228          47.000  
  21455823.765   112751074.648        1095.720          37.000  
  25936780.859   136298681.203       -3457.603          38.000  
  21702756.492   114048766.958       -1198.686          45.000  
  23583041.412   123929745.340       -2248.827          28.000  
  25694127.903   135023610.459       -1412.446          33.000  
  23072572.618   121247101.5132      -1112.025          29.000  
  25494816.280                        3257.922          26.000  
  23695322.727   124519679.935        2598.469          29.000  
 18  5  9 13 44 34.0040000  0 11G 4G14G31G16G32G26G22G29G 3G27G23
  22029616.433   115766401.989       -2154.309          48.000  
  23369927.627   122809829.296       -2409.625          38.000  
  23719336.722   124645942.321       -2317.177          47.000  
  21455615.183   112749978.933        1095.805          37.000  
  25937438.924   136302138.746       -3457.404          37.000  
  21702984.793   114049965.872       -1199.084          45.000  
  23583470.635   123931994.692       -2249.332          28.000  
  25694396.009   135025022.655       -1412.815          33.000  
  23072782.038   121248214.0392      -1112.080          28.000  
  25494198.560                        3258.328          26.000  
  23694827.106   124517081.181        2598.913          29.000  
 18  5  9 13 44 35.0040000  0 11G 4G14G31G16G32G26G22G29G 3G27G23
  22030026.740   115768556.630       -2154.663          48.000  
  23370386.428   122812239.465       -2409.978          38.000  
  23719777.846   124648259.557       -2317.032          47.000  
  21455406.600   112748883.849        1094.663          36.000  
  25938097.024   136305596.384       -3457.033          37.000  
  21703213.111   114051165.262       -1199.496          45.000  
  23583901.254   123934244.348       -2249.579          28.000  
  25694664.009   135026435.346       -1413.157          33.000  
  23072993.326   121249327.2092      -1113.216          28.000  
  25493581.695                        3257.745          26.000  
  23694329.984   124514482.606        2598.654          29.000  
 18  5  9 13 44 36.0040000  0 11G 4G14G31G16G32G26G22G29G 3G27G23
  22030436.994   115770711.803       -2155.304          48.000  
  23370844.915   122814650.012       -2410.525          38.000  
  23720218.324   124650576.875       -2317.301          46.000  
  21455198.000   112747789.353        1094.841          36.000  
  25938755.229   136309054.249       -3457.851          37.000  
  21703441.238   114052365.208       -1200.084          45.000  
  23584328.279   123936494.498       -2250.083          28.000  
  25694932.498   135027848.617       -1413.500          34.000  
  23073205.206   121250440.8932      -1113.977          28.000  
  25492962.805                        3255.977          25.000  
  23693834.171   124511884.125        2598.524          28.000  
 18  5  9 13 44 37.0040000  0 11G 4G14G31G16G32G26G22G29G 3G27G23
  22030847.336   115772867.631       -2156.079          48.000  
  23371304.362   122817061.043       -2410.953          38.000  
  23720659.169   124652894.385       -2317.519          47.000  
  21454989.767   112746695.699        1093.849          36.000  
  25939413.242   136312512.409       -3458.049          37.000  
  21703669.941   114053565.837       -1200.955          46.000  
  23584759.648   123938745.121       -2250.640          28.000  
  25695201.057   135029262.598       -1414.136          33.000  
  23073418.709   121251554.795       -1114.251          28.000  
  25492343.986                        3256.995          25.000  
  23693338.602   124509286.114        2597.804          27.000  
 18  5  9 13 44 38.0040000  0 11G 4G14G31G16G32G26G22G29G 3G27G23
  22031257.661   115775023.862       -2156.305          48.000  
  23371763.599   122819472.358       -2411.093          39.000  
  23721099.944   124655211.850       -2317.227          47.000  
  21454781.376   112745602.590        1092.886          36.000  
  25940071.604   136315970.642       -3458.155          36.000  
  21703898.626   114054766.898       -1201.179          46.000  
  23585189.202   123940996.021       -2250.860          29.000  
  25695469.441   135030677.007       -1414.269          33.000  
  23073630.485   121252669.698       -1114.836          28.000  
  25491724.224                        3257.679          25.000  
  23692843.714   124506687.964        2598.433          27.000  
 18  5  9 13 44 39.0040000  0 11G 4G14G31G16G32G26G22G29G 3G27G23
  22031668.037   115777180.365       -2156.458          48.000  
  23372222.906   122821883.786       -2411.071          39.000  
  23721540.475   124657529.127       -2316.881          46.000  
  21454573.387   112744509.845        1092.542          36.000  
  25940729.582   136319428.758       -3457.892          36.000  
  21704127.241   114055968.252       -1201.330          46.000  
  23585620.886   123943247.052       -2250.361          29.000  
  25695738.297   135032091.799       -1414.698          34.000  
  23073842.314   121253784.966       -1115.198          29.000  
  25491105.491                        3258.815          24.000  
  23692350.361   124504089.868        2598.419          26.000  
 18  5  9 13 44 40.0040000  0 11G 4G14G31G16G32G26G22G29G 3G27G23
  22032078.606   115779337.473       -2157.654          48.000  
  23372682.475   122824295.659       -2412.300          39.000  
  23721981.041   124659846.544       -2317.590          46.000  
  21454365.416   112743417.831        1091.594          35.000  
  25941387.280   136322887.158       -3458.459          35.000  
  21704356.136   114057170.224       -1202.424          46.000  
  23586050.196   123945498.555       -2251.667          30.000  
  25696007.327   135033507.219       -1416.018          33.000  
  23074053.915   121254900.935       -1116.596          29.000  
  25490485.171                        3257.058          22.000  
  23691855.456   124501491.976        2597.385          25.000  
 18  5  9 13 44 41.0040000  0 11G 4G14G31G16G32G26G22G29G 3G27G23
  22032489.105   115781495.197       -2157.800          48.000  
  23373141.887   122826707.990       -2412.374          40.000  
  23722421.990   124662164.110       -2317.440          46.000  
  21454157.461   112742326.577        1090.910          35.000  
  25942045.311   136326345.866       -3458.550          35.000  
  21704584.995   114058372.842       -1202.803          46.000  
  23586486.085   123947750.526       -2250.832          30.000  
  25696276.758   135034923.302       -1416.234          33.000  
  23074266.999   121256017.571       -1117.134          29.000  
  25489869.370                        3260.387          21.000  
  23691362.993   124498894.361        2598.188          25.000  
 18  5  9 13 44 42.0040000  0 11G 4G14G31G16G32G26G22G29G 3G27G23
  22032899.953   115783653.539       -2158.478          48.000  
  23373601.578   122829120.806       -2413.038          40.000  
  23722862.940   124664481.867       -2317.865          46.000  
  21453949.019   112741236.079        1090.105          35.000  
  25942703.952   136329804.815       -3458.328          35.000  
  21704814.186   114059576.117       -1203.579          46.000  
  23586913.773   123950003.062       -2252.420          30.000  
  25696545.980   135036340.063       -1416.909          34.000  
  23074482.946   121257134.859       -1117.387          29.000  
  25489251.668                        3256.383          19.000  
  23690868.960                        2596.153          24.000  
 18  5  9 13 44 43.0040000  0 11G 4G14G31G16G32G26G22G29G 3G27G23
  22033310.766   115785812.039       -2158.392          48.000  
  23374061.374   122831533.621       -2412.777          40.000  
  23723303.627   124666799.287       -2317.004          46.000  
  21453741.047   112740145.813        1090.657          35.000  
  25943362.331   136333263.607       -3458.601          34.000  
  21705043.220   114060779.569       -1203.333          46.000  
  23587345.543   123952255.591       -2252.217          30.000  
  25696815.377   135037757.033       -1416.450          34.000  
  23074697.688   121258252.458       -1118.040          30.000  
  25488632.464                        3260.459          19.000  
  23690379.673                        2594.926          23.000  
 18  5  9 13 44 44.0040000  0 10G 4G14G31G16G32G26G22G29G 3G27
  22033721.230   115787969.656       -2157.123          48.000  
  23374520.681   122833945.393       -2411.202          40.000  
  23723744.263   124669115.364       -2315.383          46.000  
  21453532.726   112739054.860        1091.273          35.000  
  25944020.065   136336721.141       -3457.215          34.000  
  21705271.958   114061982.162       -1202.114          46.000  
  23587775.133   123954507.061       -2250.342          30.000  
  25697084.145   135039173.176       -1415.858          34.000  
  23074914.507   121259369.225       -1116.721          30.000  
  25488017.326                        3254.918          18.000  
 18  5  9 13 44 45.0040000  0 10G 4G14G31G16G32G26G22G29G 3G27
  22034131.607   115790127.255       -2158.270          48.000  
  23374979.814   122836357.020       -2412.590          40.000  
  23724184.776   124671430.982       -2316.302          45.000  
  21453324.702   112737963.952        1090.206          35.000  
  25944677.938   136340178.304       -3457.545          33.000  
  21705501.009   114063184.766       -1203.545          46.000  
  23588201.354   123956758.462       -2251.979          31.000  
  25697353.419   135040589.304       -1415.947          34.000  
  23075124.713   121260486.015       -1117.887          30.000  
  25487400.897                        3261.387          18.000  
 18  5  9 13 44 46.0040000  0 10G 4G14G31G16G32G26G22G29G 3G27
  22034542.420   115792286.412       -2160.138          48.000  
  23375439.034   122838770.037       -2413.870          40.000  
  23724625.255   124673747.683       -2317.382          45.000  
  21453117.097   112736874.788        1087.878          35.000  
  25945336.230   136343636.702       -3458.806          33.000  
  21705730.253   114064388.942       -1205.222          46.000  
  23588630.525   123959011.233       -2253.290          30.000  
  25697623.007   135042007.108       -1418.444          34.000  
  23075347.883   121261604.462       -1119.561          30.000  
  25486787.819                        3260.156          18.000  
 18  5  9 13 44 47.0040000  0 10G 4G14G31G16G32G26G22G29G 3G27
  22034953.495   115794446.889       -2160.956          48.000  
  23375898.847   122841184.219       -2414.406          40.000  
  23725065.681   124676065.246       -2317.712          45.000  
  21452909.561   112735787.040        1087.307          35.000  
  25945994.138   136347096.097       -3459.917          33.000  
  21705960.003   114065594.460       -1206.034          46.000  
  23589060.446   123961265.210       -2253.935          30.000  
  25697893.015   135043426.254       -1419.349          34.000  
  23075559.415   121262724.331       -1121.235          30.000  
  25486172.681                        3253.119          17.000  
 18  5  9 13 44 48.0040000  0 10G 4G14G31G16G32G26G22G29G 3G27
  22035365.023   115796608.020       -2161.151          48.000  
  23376358.433   122843598.915       -2414.560          40.000  
  23725506.665   124678383.006       -2317.648          45.000  
  21452702.218   112734700.072        1087.191          35.000  
  25946652.465   136350555.738       -3459.490          32.000  
  21706189.857   114066800.656       -1206.269          47.000  
  23589490.210   123963519.734       -2254.280          30.000  
  25698163.039   135044846.120       -1419.637          34.000  
  23075776.059   121263844.875       -1120.930          30.000  
  25485555.991                        3261.722          16.000  
 18  5  9 13 44 49.0040000  0 10G 4G14G31G16G32G26G22G29G 3G27
  22035776.063   115798768.960       -2161.084          48.000  
  23376817.897   122846013.270       -2414.449          40.000  
  23725947.335   124680700.122       -2316.951          45.000  
  21452494.735   112733613.087        1086.196          34.000  
  25947310.582   136354014.931       -3460.026          32.000  
  21706419.449   114068006.706       -1206.135          47.000  
  23589919.712   123965773.937       -2254.174          30.000  
  25698432.942   135046265.820       -1419.542          34.000  
  23075992.477   121264965.356       -1121.034          29.000  
  25484939.509                        3259.393          18.000  
 18  5  9 13 44 50.0040000  0 10G 4G14G31G16G32G26G22G29G 3G27
  22036187.312   115800930.580       -2162.109          49.000  
  23377277.711   122848428.156       -2415.388          40.000  
  23726388.302   124683017.456       -2317.688          45.000  
  21452287.479   112732526.868        1086.286          34.000  
  25947968.595   136357474.437       -3460.537          31.000  
  21706649.339   114069213.448       -1207.221          47.000  
  23590349.790   123968028.729       -2255.440          30.000  
  25698703.124   135047686.298       -1420.835          34.000  
  23076202.124   121266086.624       -1122.174          29.000  
  25484321.266                        3253.435          18.000  
 18  5  9 13 44 51.0040000  0 10G 4G14G31G16G32G26G22G29G 3G27
  22036599.050   115803093.023       -2162.787          49.000  
  23377737.559   122850843.713       -2416.058          40.000  
  23726829.008   124685335.148       -2317.794          45.000  
  21452080.763   112731441.639        1084.522          35.000  
  25948626.922   136360934.353       -3459.899          31.000  
  21706879.263   114070421.042       -1207.880          47.000  
  23590783.952   123970284.178       -2255.422          29.000  
  25698973.323   135049107.579       -1421.158          35.000  
  23076412.975   121267208.722       -1122.950          29.000  
  25483703.214                        3254.547          18.000  
 18  5  9 13 44 52.0040000  0 10G 4G14G31G16G32G26G22G29G 3G27
  22037010.457   115805255.912       -2163.086          49.000  
  23378197.407   122853259.554       -2416.106          40.000  
  23727269.835   124687652.831       -2317.622          44.000  
  21451874.048   112730356.953        1084.051          35.000  
  25949285.144   136364394.420       -3460.298          31.000  
  21707109.588   114071629.098       -1208.215          47.000  
  23591215.949   123972539.941       -2256.096          28.000  
  25699244.063   135050529.442       -1422.125          35.000  
  23076638.310   121268331.377       -1123.001          27.000  
  25483080.939                        3255.771          17.000  
 18  5  9 13 44 54.0040000  0 10G 4G14G31G16G32G26G22G29G 3G27
  22037833.671   115809583.930       -2165.216          48.000  
  23379117.400   122858093.026       -2417.675          40.000  
  23728151.664   124692289.038       -2318.740          44.000  
  21451461.403   112728190.195        1082.474          35.000  
  25950602.147   136371315.740       -3460.983          31.000  
  21707570.099   114074047.532       -1210.249          47.000  
  23592080.695   123977053.346       -2257.510          27.000  
  25699786.259   135053375.479       -1424.453          36.000  
  23077063.205   121270579.067       -1123.992          25.000  
  25481832.184                        3259.518          19.000  
 18  5  9 13 44 55.0040000  0 10G 4G14G31G16G32G26G22G29G 3G27
  22038245.391   115811749.027       -2165.167          48.000  
  23379577.806   122860510.639       -2417.714          40.000  
  23728592.387   124694607.581       -2318.496          44.000  
  21451255.385   112727108.112        1082.205          35.000  
  25951260.579   136374776.978       -3461.193          31.000  
  21707800.634   114075257.891       -1210.560          47.000  
  23592514.490   123979310.894       -2257.728          27.000  
  25700057.679   135054799.655       -1424.365          36.000  
  23077279.343                       -1124.626          24.000  
  25481207.484                        3255.688          19.000  
 18  5  9 13 44 56.0040000  0 10G 4G14G31G16G32G26G22G29G 3G27
  22038657.373   115813913.971       -2164.160          48.000  
  23380038.265   122862927.926       -2416.552          40.000  
  23729033.197   124696925.471       -2317.010          44.000  
  21451048.984   112726026.010        1082.838          34.000  
  25951920.843   136378237.806       -3460.695          30.000  
  21708030.855   114076468.101       -1209.650          47.000  
  23592948.145   123981568.254       -2257.365          26.000  
  25700328.768   135056223.741       -1423.442          36.000  
  23077491.835                       -1124.575          22.000  
  25480579.363                        3258.390          20.000  
 18  5  9 13 44 57.0040000  0 10G 4G14G31G16G32G26G22G29G 3G27
  22039069.146   115816078.263       -2164.142          48.000  
  23380498.393   122865344.424       -2416.177          40.000  
  23729474.181   124699242.272       -2316.300          44.000  
  21450842.793   112724943.404        1082.580          34.000  
  25952578.594   136381697.535       -3459.870          31.000  
  21708261.076   114077677.681       -1209.219          47.000  
  23593383.301   123983824.850       -2256.515          26.000  
  25700599.648   135057647.232       -1423.738          36.000  
  23077712.597                       -1116.388          21.000  
  25479951.138                        3264.160          22.000  
 18  5  9 13 44 58.0040000  0 11G 4G14G31G16G32G26G22G29G 3G27G23
  22039480.570   115818242.366       -2164.746          48.000  
  23380958.223   122867760.533       -2416.374          39.000  
  23729914.503   124701558.414       -2316.406          44.000  
  21450636.897   112723860.695        1082.499          35.000  
  25953234.547   136385156.644       -3458.761          30.000  
  21708491.226   114078887.112       -1210.290          47.000  
  23593818.527   123986081.047       -2256.625          26.000  
  25700870.825   135059070.561       -1424.232          36.000  
  23077928.753                       -1127.194          20.000  
  25479322.005                        3266.764          23.000  
  23682930.088                        2595.103          23.000  
 18  5  9 13 44 59.0040000  0 11G 4G14G31G16G32G26G22G29G 3G27G23
  22039892.168   115820408.023       -2166.461          48.000  
  23381418.159   122870178.142       -2418.946          39.000  
  23730355.522   124703875.653       -2317.810          44.000  
  21450431.142   112722779.730        1079.436          34.000  
  25953894.933   136388617.197       -3461.792          30.000  
  21708721.779   114080098.118       -1211.860          47.000  
  23594257.417   123988338.651       -2258.218          25.000  
  25701142.106   135060495.477       -1425.389          36.000  
  23078144.595                       -1129.133          19.000  
  25478697.322                        3252.882          23.000  
  23682445.461                        2597.422          23.000  
 18  5  9 13 45  0.0040000  0 11G 4G14G31G16G32G26G22G29G 3G27G23
  22040304.342   115822575.576       -2168.243          48.000  
  23381878.269   122872597.401       -2419.400          39.000  
  23730796.611   124706194.325       -2319.062          44.000  
  21450226.015   112721700.718        1078.564          35.000  
  25954558.966   136392079.221       -3463.024          31.000  
  21708952.680   114081311.041       -1213.532          47.000  
  23594694.580                       -2259.344          24.000  
  25701413.509   135061922.388       -1427.450          36.000  
  23078361.327                       -1124.204          21.000  
  25478073.180                        3249.403          25.000  
  23681951.358                        2597.422          24.000  
 18  5  9 13 45  1.0040000  0 11G 4G14G31G16G32G26G22G29G 3G27G23
  22040716.656   115824743.445       -2166.931          48.000  
  23382338.693   122875016.871       -2418.401          39.000  
  23731237.474   124708512.859       -2317.580          44.000  
  21450021.062   112720622.195        1079.426          35.000  
  25955215.164   136395541.138       -3461.081          30.000  
  21709183.808   114082524.309       -1212.284          47.000  
  23595130.679                       -2258.691          23.000  
  25701685.017   135063349.655       -1426.432          36.000  
  23078573.417                       -1124.212          22.000  
  25477448.253                        3260.085          25.000  
  23681463.066                        2597.422          26.000  
 18  5  9 13 45  2.0040000  0 10G 4G14G31G16G32G26G29G 3G27G23
  22041128.935   115826911.002       -2168.420          48.000  
  23382799.204   122877435.876       -2419.688          40.000  
  23731678.109   124710830.620       -2318.258          44.000  
  21449815.882   112719543.503        1077.880          35.000  
  25955874.154   136399002.431       -3462.021          29.000  
  21709414.989   114083737.297       -1213.718          47.000  
  25701956.368   135064776.670       -1427.477          36.000  
  23078786.117                       -1125.247          22.000  
  25476825.769                        3258.114          26.000  
  23680968.073                        2594.498          26.000  
 18  5  9 13 45  3.0040000  0 10G 4G14G31G16G32G26G29G 3G27G23
  22041541.580   115829079.217       -2168.121          48.000  
  23383259.959   122879855.384       -2419.366          40.000  
  23732118.675   124713148.568       -2317.657          43.000  
  21449610.825   112718465.568        1077.822          35.000  
  25956529.026   136402464.086       -3461.792          29.000  
  21709645.960   114084950.960       -1213.494          47.000  
  25702227.771   135066204.367       -1426.909          37.000  
  23078994.804                       -1132.044          23.000  
  25476203.773   133878354.2463       3259.231          27.000  
  23680478.734   124441755.1273       2594.963          27.000  
 18  5  9 13 45  4.0040000  0 10G 4G14G31G16G32G26G29G 3G27G23
  22041954.208   115831247.260       -2168.115          48.000  
  23383720.523   122882274.580       -2419.149          40.000  
  23732559.607   124715465.908       -2317.145          43.000  
  21449405.872   112717387.609        1077.732          35.000  
  25957186.585   136405925.138       -3460.897          29.000  
  21709877.070   114086164.485       -1213.674          47.000  
  25702499.418   135067632.009       -1427.913          37.000  
  23079206.737                       -1124.051          24.000  
  25475579.003   133875093.8122       3261.345          27.000  
  23679988.313   124439159.9182       2595.260          28.000  
 18  5  9 13 45  5.0040000  0 10G 4G14G31G16G32G26G29G 3G27G23
  22042366.853   115833415.251       -2168.378          48.000  
  23384180.598   122884693.569       -2419.325          39.000  
  23732999.963   124717782.750       -2316.951          43.000  
  21449200.936   112716309.687        1077.689          35.000  
  25957845.610   136409385.865       -3460.662          29.000  
  21710107.884   114087377.969       -1213.821          47.000  
  25702770.752   135069059.595       -1427.827          37.000  
  23079414.953                       -1130.201          26.000  
  25474953.710   133871832.9232       3261.077          27.000  
  23679496.514   124436564.3272       2595.544          28.000  
 18  5  9 13 45  6.0040000  0 10G 4G14G31G16G32G26G29G 3G27G23
  22042779.219   115835583.538       -2167.993          48.000  
  23384641.179   122887112.688       -2418.786          39.000  
  23733440.424   124720099.409       -2316.140          43.000  
  21448996.420   112715232.240        1077.694          35.000  
  25958504.077   136412846.526       -3459.851          30.000  
  21710338.995   114088591.784       -1213.483          47.000  
  25703042.452   135070487.526       -1427.214          36.000  
  23079626.782                       -1128.865          26.000  
  25474332.517   133868571.6872       3262.011          28.000  
  23679003.283   124433968.6972       2596.099          28.000  
 18  5  9 13 45  7.0040000  0 10G 4G14G31G16G32G26G29G 3G27G23
  22043191.760   115837751.274       -2168.182          48.000  
  23385101.586   122889531.126       -2419.052          39.000  
  23733880.658   124722415.077       -2315.835          43.000  
  21448791.415   112714154.389        1077.421          35.000  
  25959165.126   136416306.299       -3459.692          29.000  
  21710569.861   114089805.091       -1213.851          47.000  
  25703313.925   135071914.995       -1427.930          37.000  
  23079839.238   121285385.1953      -1128.612          27.000  
  25473712.266   133865309.3802       3261.851          28.000  
  23678507.086   124431372.2002       2596.012          29.000  
 18  5  9 13 45  8.0040000  0 10G 4G14G31G16G32G26G29G 3G27G23
  22043604.754   115839920.229       -2169.672          48.000  
  23385562.010   122891950.622       -2420.109          39.000  
  23734320.822   124724731.501       -2316.869          43.000  
  21448586.654   112713077.853        1076.009          35.000  
  25959818.811   136419766.989       -3461.719          30.000  
  21710800.937   114091019.612       -1215.120          47.000  
  25703585.590   135073343.724       -1429.523          36.000  
  23080051.904   121286515.1712      -1130.799          28.000  
  25473091.283   133862047.6752       3261.173          28.000  
  23678010.470   124428776.5142       2595.206          28.000  
 18  5  9 13 45  9.0040000  0 10G 4G14G31G16G32G26G29G 3G27G23
  22044017.539   115842089.744       -2169.763          48.000  
  23386022.503   122894370.520       -2420.027          39.000  
  23734761.126   124727048.012       -2316.339          42.000  
  21448381.910   112712002.010        1075.529          35.000  
  25960475.934   136423227.933       -3463.266          30.000  
  21711032.118   114092234.726       -1215.388          47.000  
  25703857.551   135074773.030       -1429.661          37.000  
  23080262.859   121287645.7712      -1130.935          28.000  
  25472478.955   133858785.9612       3261.673          29.000  
  23677514.483   124426181.1132       2595.191          28.000  
 18  5  9 13 45 10.0040000  0 10G 4G14G31G16G32G26G29G 3G27G23
  22044430.516   115844259.094       -2169.177          48.000  
  23386482.701   122896790.096       -2419.197          39.000  
  23735201.273   124729363.899       -2315.345          42.000  
  21448176.888   112710926.161        1075.688          35.000  
  25961134.941   136426688.182       -3459.520          30.000  
  21711263.228   114093449.702       -1214.802          47.000  
  25704129.391   135076202.248       -1429.341          37.000  
  23080476.659   121288776.3132      -1131.007          29.000  
  25471857.954   133855523.4922       3262.899          29.000  
  23677018.600   124423585.1342       2596.364          28.000  
 18  5  9 13 45 11.0040000  0 10G 4G14G31G16G32G26G29G 3G27G23
  22044843.528   115846428.251       -2169.324          48.000  
  23386943.351   122899209.350       -2419.324          39.000  
  23735641.088   124731679.148       -2315.023          41.000  
  21447972.144   112709850.219        1075.627          35.000  
  25961792.675   136430148.086       -3459.755          29.000  
  21711494.391   114094664.525       -1215.065          47.000  
  25704401.353   135077631.312       -1429.015          37.000  
  23080686.062                       -1130.974          29.000  
  25471240.652   133852260.2912       3263.945          30.000  
  23676523.014   124420988.6752       2596.058          28.000  
 18  5  9 13 45 12.0040000  0 10G 4G14G31G16G32G26G29G 3G27G23
  22045256.574   115848597.998       -2170.404          48.000  
  23387403.828   122901629.055       -2420.563          39.000  
  23736081.288   124733994.513       -2315.705          41.000  
  21447767.523   112708775.014        1074.441          35.000  
  25962448.524   136433608.142       -3460.779          29.000  
  21711725.729   114095879.937       -1216.092          47.000  
  25704673.541   135079061.037       -1430.442          37.000  
  23080893.022   121290954.7703      -1132.168          29.000  
  25470619.128   133848997.0922       3263.055          30.000  
  23676026.328   124418392.4212       2595.920          28.000  
 18  5  9 13 45 13.0040000  0 10G 4G14G31G16G32G26G29G 3G27G23
  22045669.761   115850769.167       -2171.936          48.000  
  23387864.671   122904050.006       -2421.926          38.000  
  23736521.940   124736310.862       -2316.970          42.000  
  21447563.408   112707701.377        1072.690          35.000  
  25963104.443   136437069.271       -3459.985          30.000  
  21711957.311   114097096.827       -1217.641          47.000  
  25704945.869   135080492.225       -1432.012          37.000  
  23081105.496   121292087.2832      -1133.141          30.000  
  25469999.453   133845734.778        3262.271          31.000  
  23675534.162   124415797.2672       2594.885          29.000  
 18  5  9 13 45 14.0040000  0 10G 4G14G31G16G32G26G29G 3G27G23
  22046082.895   115852941.465       -2173.303          48.000  
  23388325.618   122906471.923       -2423.093          39.000  
  23736963.274   124738627.875       -2317.992          43.000  
  21447359.240   112706628.991        1070.878          35.000  
  25963768.389   136440531.247       -3462.478          31.000  
  21712189.015   114098314.841       -1219.035          47.000  
  25705218.372   135081924.561       -1433.072          37.000  
  23081319.889   121293221.0832      -1134.903          30.000  
  25469378.592   133842472.950        3261.530          31.000  
  23675038.803   124413202.9302       2593.846          29.000  
 18  5  9 13 45 16.0040000  0 11G 4G14G31G16G32G26G22G29G 3G27G23
  22046910.192   115857287.456       -2173.273          48.000  
  23389247.775   122911316.727       -2422.453          38.000  
  23737845.958   124743261.902       -2316.860          43.000  
  21446951.394   112704485.982        1071.392          35.000  
  25965080.296   136447455.584       -3462.549          30.000  
  21712652.475   114100752.381       -1219.187          47.000  
  23601548.537                       -2261.742          28.000  
  25705763.901   135084790.844       -1433.715          37.000  
  23081748.082   121295490.2142      -1135.167          31.000  
  25468132.036   133835949.128        3261.954          30.000  
  23674048.922   124408014.6082       2593.876          29.000  
 18  5  9 13 45 17.0040000  0 11G 4G14G31G16G32G26G22G29G 3G27G23
  22047323.937   115859461.590       -2174.310          48.000  
  23389709.036   122913740.060       -2423.711          38.000  
  23738287.327   124745579.384       -2317.709          43.000  
  21446747.924   112703415.831        1070.022          35.000  
  25965738.606   136450918.317       -3463.029          29.000  
  21712884.441   114101972.315       -1220.356          46.000  
  23601972.961                       -2264.208          28.000  
  25706036.647   135086225.186       -1434.922          37.000  
  23081960.451   121296626.0682      -1136.803          30.000  
  25467512.221   133832687.454        3261.667          29.000  
  23673558.082   124405421.0732       2593.352          29.000  
 18  5  9 13 45 18.0040000  0 11G 4G14G31G16G32G26G22G29G 3G27G23
  22047737.856   115861635.788       -2174.164          48.000  
  23390170.263   122916163.319       -2423.703          38.000  
  23738728.224   124747896.448       -2316.842          43.000  
  21446544.280   112702345.900        1069.445          35.000  
  25966400.737   136454380.794       -3462.424          29.000  
  21713116.564   114103192.354       -1220.119          46.000  
  23602395.867   124031468.5463      -2263.354          28.000  
  25706309.534   135087659.655       -1434.214          37.000  
  23082177.619   121297762.0362      -1136.254          31.000  
  25466886.195   133829425.289        3262.499          29.000  
  23673064.538   124402827.2282       2593.871          29.000  
 18  5  9 13 45 19.0040000  0 11G 4G14G31G16G32G26G22G29G 3G27G23
  22048151.949   115863810.169       -2174.847          48.000  
  23390631.490   122918586.594       -2424.037          38.000  
  23739169.069   124750213.267       -2317.025          42.000  
  21446340.846   112701276.232        1069.373          34.000  
  25967058.243   136457843.108       -3462.350          29.000  
  21713348.390   114104412.592       -1220.719          46.000  
  23602824.584   124033732.3562      -2263.433          28.000  
  25706582.647   135089094.372       -1435.192          37.000  
  23082396.724   121298897.759       -1136.515          30.000  
  25466264.531   133826162.733        3262.793          29.000  
  23672570.068   124400233.2412       2594.246          29.000  
 18  5  9 13 45 20.0040000  0 11G 4G14G31G16G32G26G22G29G 3G27G23
  22048565.799   115865986.062       -2177.075          48.000  
  23391093.275   122921011.183       -2425.480          38.000  
  23739610.437   124752531.100       -2318.703          43.000  
  21446137.394   112700208.218        1066.819          34.000  
  25967720.444   136461306.499       -3462.683          29.000  
  21713580.443   114105634.370       -1222.971          46.000  
  23603252.062   124035997.5802      -2266.110          27.000  
  25706856.145   135090530.645       -1437.676          37.000  
  23082615.794   121300035.597       -1139.586          31.000  
  25465648.468   133822901.098        3262.065          29.000  
  23672070.818   124397640.4332       2591.967          29.000  
 18  5  9 13 45 21.0040000  0 11G 4G14G31G16G32G26G22G29G 3G27G23
  22048980.346   115868163.558       -2178.265          47.000  
  23391555.130   122923437.294       -2426.836          38.000  
  23740051.561   124754850.110       -2319.543          43.000  
  21445934.517   112699141.940        1065.749          34.000  
  25968386.205   136464771.386       -3465.552          30.000  
  21713812.967   114106857.778       -1224.104          46.000  
  23603683.571   124038264.2272      -2267.181          27.000  
  25707129.624   135091968.559       -1438.501          37.000  
  23082826.209   121301175.070       -1140.495          31.000  
  25465025.042   133819640.591        3260.280          29.000  
  23671576.104   124395048.8462       2591.556          28.000  
 18  5  9 13 45 22.0040000  0 11G 4G14G31G16G32G26G22G29G 3G27G23
  22049394.597   115870342.148       -2178.857          47.000  
  23392017.072   122925864.341       -2427.457          38.000  
  23740492.912   124757169.745       -2319.620          42.000  
  21445731.868   112698076.933        1064.594          34.000  
  25969044.706   136468236.898       -3466.158          31.000  
  21714045.875   114108082.316       -1224.657          46.000  
  23604113.667   124040453.9003      -2268.043          27.000  
  25707403.453   135093407.661       -1439.670          37.000  
  23083042.941   121302315.752       -1140.672          31.000  
  25464405.210   133816380.572        3259.876          29.000  
  23671081.635   124392458.1362       2590.471          28.000  
 18  5  9 13 45 23.0040000  0 11G 4G14G31G16G32G26G22G29G 3G27G23
  22049809.109   115872521.296       -2179.541          48.000  
  23392479.136   122928291.763       -2428.024          38.000  
  23740934.071   124759489.487       -2319.830          42.000  
  21445529.114   112697012.553        1064.036          34.000  
  25969703.278   136471702.648       -3466.469          31.000  
  21714278.818   114109307.434       -1225.625          46.000  
  23604542.366                       -2268.217          27.000  
  25707677.718   135094847.324       -1439.985          37.000  
  23083255.572   121303457.085       -1141.750          31.000  
  25463776.391   133813120.498        3260.121          29.000  
  23670587.759   124389867.5562       2590.834          28.000  
 18  5  9 13 45 24.0040000  0 11G 4G14G31G16G32G26G22G29G 3G27G23
  22050223.796   115874700.770       -2179.382          48.000  
  23392941.201   122930719.378       -2427.455          38.000  
  23741375.562   124761809.090       -2319.169          42.000  
  21445326.430   112695948.653        1064.314          34.000  
  25970363.751   136475168.358       -3465.437          31.000  
  21714511.970   114110532.904       -1225.447          46.000  
  23604972.846                       -2267.566          26.000  
  25707951.931   135096287.384       -1439.801          37.000  
  23083471.832   121304598.865       -1142.905          31.000  
  25463155.897   133809860.237        3260.458          29.000  
  23670097.233   124387277.0192       2590.664          28.000  
 18  5  9 13 45 25.0040000  0 11G 4G14G31G16G32G26G22G29G 3G27G23
  22050638.640   115876880.294       -2179.230          48.000  
  23393403.108   122933146.881       -2426.835          37.000  
  23741816.616   124764128.284       -2318.284          43.000  
  21445124.025   112694884.954        1064.478          34.000  
  25971019.635   136478633.751       -3464.086          31.000  
  21714745.227   114111758.434       -1225.270          46.000  
  23605402.191                       -2267.416          27.000  
  25708225.812   135097727.573       -1440.082          37.000  
  23083688.547   121305740.680       -1141.994          30.000  
  25462537.217   133806599.390        3261.633          29.000  
  23669603.270   124384685.637        2591.340          28.000  
 18  5  9 13 45 26.0040000  0 11G 4G14G31G16G32G26G22G29G 3G27G23
  22051053.310   115879059.567       -2179.785          48.000  
  23393864.980   122935573.998       -2427.454          37.000  
  23742258.351   124766446.818       -2318.967          43.000  
  21444921.532   112693821.150        1062.975          34.000  
  25971681.085   136482098.605       -3464.995          32.000  
  21714978.519   114112983.760       -1225.882          46.000  
  23605830.454   124049476.1752      -2268.380          27.000  
  25708500.234   135099167.529       -1440.588          37.000  
  23083906.064   121306882.338       -1142.044          31.000  
  25461917.891   133803337.799        3261.017          29.000  
  23669109.586   124382094.226        2590.833          27.000  
 18  5  9 13 45 27.0040000  0 11G 4G14G31G16G32G26G22G29G 3G27G23
  22051468.259   115881239.984       -2180.988          47.000  
  23394327.428   122938002.134       -2429.073          37.000  
  23742699.981   124768765.988       -2319.423          43.000  
  21444719.267   112692758.584        1062.373          33.000  
  25972339.046   136485564.303       -3467.265          32.000  
  21715211.916   114114210.244       -1226.967          46.000  
  23606265.872   124051744.9732      -2269.210          27.000  
  25708774.639   135100608.707       -1441.970          37.000  
  23084124.697   121308025.207       -1142.829          31.000  
  25461294.988   133800076.717        3260.927          29.000  
  23668617.786   124379503.561        2590.378          27.000  
 18  5  9 13 45 28.0040000  0 11G 4G14G31G16G32G26G22G29G 3G27G23
  22051883.295   115883421.401       -2181.610          47.000  
  23394790.104   122940431.070       -2429.211          36.000  
  23743142.082   124771085.709       -2319.697          43.000  
  21444517.176   112691697.190        1061.152          33.000  
  25972999.083   136489030.593       -3466.336          33.000  
  21715445.557   114115437.765       -1227.767          46.000  
  23606698.882   124054014.6892      -2269.732          27.000  
  25709049.340   135102050.921       -1442.618          38.000  
  23084351.149   121309169.224       -1144.435          31.000  
  25460672.033   133796816.125        3260.632          29.000  
  23668126.126   124376913.590        2589.899          27.000  
 18  5  9 13 45 29.0040000  0 11G 4G14G31G16G32G26G22G29G 3G27G23
  22052298.331   115885603.091       -2182.001          47.000  
  23395252.674   122942860.165       -2429.191          36.000  
  23743583.974   124773405.267       -2319.847          43.000  
  21444315.347   112690636.192        1060.212          34.000  
  25973658.684   136492496.812       -3466.435          34.000  
  21715679.268   114116665.579       -1228.183          46.000  
  23607134.352   124056284.5062      -2269.837          27.000  
  25709324.164   135103493.472       -1443.147          38.000  
  23084569.713   121310313.560       -1144.714          32.000  
  25460050.194   133793555.199        3261.296          28.000  
  23667634.623   124374323.550        2589.751          27.000  
 18  5  9 13 45 30.0040000  0 11G 4G14G31G16G32G26G22G29G 3G27G23
  22052713.401   115887785.520       -2183.020          47.000  
  23395715.070   122945289.858       -2430.034          36.000  
  23744025.674   124775725.059       -2320.052          43.000  
  21444113.430   112689576.046        1059.193          34.000  
  25974318.563   136495963.399       -3466.455          34.000  
  21715913.450   114117894.152       -1229.041          46.000  
  23607570.660   124058554.9442      -2270.748          27.000  
  25709599.266   135104936.814       -1444.192          38.000  
  23084785.659   121311458.656       -1145.497          31.000  
  25459426.523   133790294.524        3259.968          28.000  
  23667144.307   124371733.900        2589.137          27.000  
 18  5  9 13 45 31.0040000  0 11G 4G14G31G16G32G26G22G29G 3G27G23
  22053128.560   115889968.819       -2183.746          47.000  
  23396177.309   122947720.252       -2430.279          36.000  
  23744467.234   124778045.293       -2320.315          43.000  
  21443911.601   112688516.902        1059.063          34.000  
  25974978.252   136499430.594       -3467.815          33.000  
  21716147.300   114119123.627       -1229.928          46.000  
  23608005.188   124060826.1312      -2271.227          28.000  
  25709874.230   135106381.071       -1444.865          38.000  
  23085006.108   121312604.758       -1146.290          32.000  
  25458805.243   133787034.046        3260.440          28.000  
  23666653.572   124369144.779        2588.857          27.000  
