     2.10           OBSERVATION DATA    M (MIXED)           RINEX VERSION / TYPE
CONVBIN 2.4.3                           20180521 135511 UTC PGM / RUN BY / DATE 
log: 2018_05_21_0948.nvs                                    COMMENT             
format: NVS BINR                                            COMMENT             
                                                            MARKER NAME         
                                                            MARKER NUMBER       
                                                            OBSERVER / AGENCY   
                                                            REC # / TYPE / VERS 
                                                            ANT # / TYPE        
        0.0000        0.0000        0.0000                  APPROX POSITION XYZ 
        0.0000        0.0000        0.0000                  ANTENNA: DELTA H/E/N
     1     1                                                WAVELENGTH FACT L1/2
     8    C1    L1    D1    S1    C2    L2    D2    S2      # / TYPES OF OBSERV 
  2018     5    21    13    48   36.5000000     GPS         TIME OF FIRST OBS   
  2018     5    21    13    55   17.5000000     GPS         TIME OF LAST OBS    
                                                            END OF HEADER       
 18  5 21 13 48 36.5000000  0 13R 9R16R18G 8G 3R19G22G23G26G27G16G31
                                G14
  20048335.678                        2908.703          27.000                  
                                                
  22559496.161                         867.041          28.000                  
                                                
  22708544.735    -7031868.976        3537.285          33.000                  
                                                
  24577247.567    -2058082.304        7163.243          34.000                  
                                                
  22820776.636    -2414887.520        1081.120          31.000                  
                                                
  22651781.236    -7431787.572        6500.897          33.000                  
                                                
  23788369.005    -1385657.369         703.559          39.000                  
                                                
  20995636.748                        5315.932           1.000                  
                                                
  21464543.256    -2434229.748        1126.442          43.000                  
                                                
  22169482.368                        6525.856          30.000                  
                                                
  20002376.448     -629275.286        2737.713          32.000                  
                                                
  23762218.548    -2130252.902        1202.179          36.000                  
                                                
  23713102.652                         270.008          22.000                  
                                                
 18  5 21 13 48 37.0000000  0 13R 9R16R18G 8G 3R19G22G23G26G27G16G31
                                G14
  20048064.971                        2910.466          27.000                  
                                                
  22559415.151                         865.534          28.000                  
                                                
  22708213.452    -7033637.380        3536.116          33.000                  
                                                
  24576566.078    -2061663.767        7162.392          34.000                  
                                                
  22820673.594    -2415427.5701       1079.813          31.000                  
                                                
  22651173.644    -7435038.103        6501.829          33.000                  
                                                
  23788302.122    -1386009.146         703.542          39.000                  
                                                
  20995130.947                        5315.932           1.000                  
                                                
  21464436.060    -2434793.088        1126.892          43.000                  
                                                
  22168860.339                        6525.359          27.000                  
                                                
  20002114.765     -630643.6941       2736.968          31.000                  
                                                
  23762104.097    -2130854.299        1202.395          35.000                  
                                                
  23713076.564                         273.833          22.000                  
                                                
 18  5 21 13 48 37.5000000  0 13R 9R16R18G 8G 3R19G22G23G26G27G16G31
                                G14
  20047793.889                        2907.129          28.000                  
                                                
  22559334.115                         868.682          28.000                  
                                                
  22707882.223    -7035405.631        3536.655          33.000                  
                                                
  24575884.598    -2065245.229        7162.431          34.000                  
                                                
  22820570.517    -2415968.049        1080.317          31.000                  
                                                
  22650566.097    -7438288.490        6500.783          33.000                  
                                                
  23788235.247    -1386360.869         703.574          39.000                  
                                                
  20994625.156                        5315.932           1.000                  
                                                
  21464328.882    -2435356.297        1126.093          43.000                  
                                                
  22168238.640                        6525.462          28.000                  
                                                
  20001854.002     -632012.462        2737.684          31.000                  
                                                
  23761989.646    -2131455.638        1201.886          35.000                  
                                                
  23713050.806                         277.606          22.000                  
                                                
 18  5 21 13 48 38.0000000  0 13R 9R16R18G 8G 3R19G22G23G26G27G16G31
                                G14
  20047522.388                        2905.867          27.000                  
                                                
  22559252.936                         866.755          29.000                  
                                                
  22707551.048    -7037173.633        3535.595          33.000                  
                                                
  24575203.073    -2068826.722        7163.850          33.000                  
                                                
  22820467.377    -2416508.476        1080.552          31.000                  
                                                
  22649958.586    -7441538.693        6499.992          33.000                  
                                                
  23788168.381    -1386712.587         703.599          38.000                  
                                                
  20994119.364                        5315.932           1.000                  
                                                
  21464221.712    -2435919.467        1126.420          43.000                  
                                                
  22167617.003                        6526.016          27.000                  
                                                
  20001593.507     -633381.036        2737.515          31.000                  
                                                
  23761875.177    -2132057.005        1202.612          34.000                  
                                                
  23713025.056                         274.056          21.000                  
                                                
 18  5 21 13 48 38.5000000  0 13R 9R16R18G 8G 3R19G22G23G26G27G16G31
                                G14
  20047250.492                        2906.374          27.000                  
                                                
  22559171.668    -1450704.513         868.666          29.000                  
                                                
  22707219.899    -7038941.451        3536.251          33.000                  
                                                
  24574521.558    -2072408.184        7163.009          34.000                  
                                                
  22820364.451    -2417048.799        1080.811          31.000                  
                                                
  22649351.084    -7444788.874        6500.196          33.000                  
                                                
  23788101.533    -1387064.231         703.474          39.000                  
                                                
  20993613.644                        5314.932           1.000                  
                                                
  21464114.570    -2436482.511        1126.065          43.000                  
                                                
  22166995.661                        6524.229          27.000                  
                                                
  20001333.218     -634749.485        2736.827          31.000                  
                                                
  23761760.744    -2132658.294        1202.630          34.000                  
                                                
  23712999.021                         273.904          21.000                  
                                                
 18  5 21 13 48 39.0000000  0 13R 9R16R18G 8G 3R19G22G23G26G27G16G31
                                G14
  20046978.580                        2907.977          27.000                  
                                                
  22559090.605    -1451138.871         867.419          30.000                  
                                                
  22706888.795    -7040709.097        3534.943          34.000                  
                                                
  24573840.015    -2075989.742        7162.812          34.000                  
                                                
  22820261.463    -2417589.109        1080.448          31.000                  
                                                
  22648743.573    -7448039.065        6500.260          33.000                  
                                                
  23788034.667    -1387415.960         703.205          39.000                  
                                                
  20993107.942                        5314.932           1.000                  
                                                
  21464007.418    -2437045.625        1126.057          44.000                  
                                                
  22166374.347                        6525.500          28.000                  
                                                
  20001072.858     -636117.876        2735.971          32.000                  
                                                
  23761646.275    -2133259.704        1203.239          36.000                  
                                                
  23712971.556                         271.327          21.000                  
                                                
 18  5 21 13 48 39.5000000  0 13R 9R16R18G 8G 3R19G22G23G26G27G16G31
                                G14
  20046706.104                        2909.016          27.000                  
                                                
  22559009.828    -1451573.321         869.429          30.000                  
                                                
  22706557.744    -7042476.551        3533.833          34.000                  
                                                
  24573158.464    -2079571.339        7163.062          34.000                  
                                                
  22820158.609    -2418129.293        1079.630          31.000                  
                                                
  22648136.107    -7451289.101        6500.367          33.000                  
                                                
  23787967.801    -1387767.697         703.893          39.000                  
                                                
  20992602.248                        5314.932           1.000                  
                                                
  21463900.293    -2437608.596        1126.062          44.000                  
                                                
  22165753.353   -11700019.793        6524.162          28.000                  
                                                
  20000812.318     -637486.113        2736.235          32.000                  
                                                
  23761531.850    -2133861.025        1203.262          36.000                  
                                                
  23712944.351                         269.368          21.000                  
                                                
 18  5 21 13 48 40.0000000  0 13R 9R16R18G 8G 3R19G22G23G26G27G16G31
                                G14
  20046433.387                        2907.087          26.000                  
                                                
  22558926.612    -1452007.721         868.805          30.000                  
                                                
  22706226.730    -7044243.853        3534.735          34.000                  
                                                
  24572476.886    -2083152.962        7163.126          34.000                  
                                                
  22820055.719    -2418669.435        1079.811          31.000                  
                                                
  22647528.658    -7454539.048        6500.288          33.000                  
                                                
  23787900.944    -1388119.406         703.275          40.000                  
                                                
  20992096.546                        5314.932           1.000                  
                                                
  21463793.177    -2438171.522        1125.657          44.000                  
                                                
  22165132.843   -11703282.215        6524.441          29.000                  
                                                
  20000551.565     -638854.207        2736.446          32.000                  
                                                
  23761417.408    -2134462.407        1203.395          37.000                  
                                                
  23712917.181                         266.801          19.000                  
                                                
 18  5 21 13 48 40.5000000  0 13R 9R16R18G 8G 3R19G22G23G26G27G16G31
                                G14
  20046160.813                        2908.807          26.000                  
                                                
  22558844.620    -1452442.143         868.161          30.000                  
                                                
  22705895.733    -7046010.953        3533.528          34.000                  
                                                
  24571795.326    -2086734.611        7162.904          34.000                  
                                                
  22819952.928    -2419209.620        1080.936          31.000                  
                                                
  22646921.183    -7457788.929        6499.269          33.000                  
                                                
  23787834.069    -1388471.149         703.654          40.000                  
                                                
  20991590.924                        5313.932           1.000                  
                                                
  21463686.070    -2438734.447        1125.810          44.000                  
                                                
  22164512.368   -11706544.619        6525.778          29.000                  
                                                
  20000290.900     -640222.222        2736.028          32.000                  
                                                
  23761302.957    -2135063.803        1202.789          37.000                  
                                                
  23712890.565                         269.455          20.000                  
                                                
 18  5 21 13 48 41.0000000  0 13R 9R16R18G 8G 3R19G22G23G26G27G16G31
                                G14
  20045887.774                        2908.800          26.000                  
                                                
  22558763.968    -1452876.577         868.481          31.000                  
                                                
  22705564.781    -7047777.809        3533.936          34.000                  
                                                
  24571113.774    -2090316.252        7163.533          33.000                  
                                                
  22819850.351    -2419749.575        1080.244          31.000                  
                                                
  22646313.735    -7461038.606        6498.760          31.000                  
                                                
  23787767.221    -1388822.779         703.184          40.000                  
                                                
  20991085.320                        5313.932           1.000                  
                                                
  21463578.981    -2439297.232        1125.588          45.000                  
                                                
  22163900.800   -11709806.828        6524.664          30.000                  
                                                
  20000030.218     -641590.000        2735.471          31.000                  
                                                
  23761188.524    -2135665.096        1202.620          35.000                  
                                                
  23712862.984                         268.722          13.000                  
                                                
 18  5 21 13 48 41.5000000  0 13R 9R16R18G 8G 3R19G22G23G26G27G16G31
                                G14
  20045615.200                        2905.632          26.000                  
                                                
  22558683.343    -1453310.950         868.709          31.000                  
                                                
  22705233.936    -7049544.427        3533.676          33.000                  
                                                
  24570432.223    -2093897.843        7163.253          33.000                  
                                                
  22819747.818    -2420289.411        1079.859          31.000                  
                                                
  22645706.357    -7464288.215        6498.887          31.000                  
                                                
  23787700.373    -1389174.370         703.181          40.000                  
                                                
  20990584.023                        5311.652          29.000                  
                                                
  21463471.928    -2439859.864        1125.011          45.000                  
                                                
  22163281.022   -11713068.921        6523.591          30.000                  
                                                
  19999769.464     -642957.595        2734.660          31.000                  
                                                
  23761074.100    -2136266.343        1202.217          35.000                  
                                                
  23712837.440                         273.543          14.000                  
                                                
 18  5 21 13 48 42.0000000  0 13R 9R16R18G 8G 3R19G22G23G26G27G16G31
                                G14
  20045343.224                        2906.095          26.000                  
                                                
  22558602.888    -1453745.272         868.107          32.000                  
                                                
  22704903.135    -7051310.698        3530.935          33.000                  
                                                
  24569750.672    -2097479.394        7163.547          33.000                  
                                                
  22819645.214    -2420829.096        1078.358          31.000                  
                                                
  22645099.025    -7467537.603        6498.275          32.000                  
                                                
  23787633.552    -1389525.875         702.838          40.000                  
                                                
  20990087.505                        5312.787          20.000                  
                                                
  21463364.893    -2440422.380        1124.768          44.000                  
                                                
  22162660.467   -11716330.867        6522.526          31.000                  
                                                
  19999508.746     -644325.022        2734.285          31.000                  
                                                
  23760959.666    -2136867.598        1202.536          33.000                  
                                                
  23712812.066                         276.698          14.000                  
                                                
 18  5 21 13 48 42.5000000  0 13R 9R16R18G 8G 3R19G22G23G26G27G16G31
                                G14
  20045071.320                        2907.237          26.000                  
                                                
  22558521.664    -1454179.5751        867.584          32.000                  
                                                
  22704572.192    -7053076.815        3532.039          33.000                  
                                                
  24569069.129    -2101060.910        7162.991          33.000                  
                                                
  22819543.647                        1078.718          31.000                  
                                                
  22644491.523    -7470786.902        6498.252          32.000                  
                                                
  23787566.749    -1389877.340         702.982          40.000                  
                                                
  20989591.112                        5309.372          20.000                  
                                                
  21463257.884    -2440984.778        1124.498          44.000                  
                                                
  22162040.975   -11719592.708        6523.579          31.000                  
                                                
  19999248.162     -645692.220        2733.690          31.000                  
                                                
  23760839.926                        1203.366          33.000                  
                                                
  23712788.533                         276.482          14.000                  
                                                
 18  5 21 13 48 43.0000000  0 13R 9R16R18G 8G 3R19G22G23G26G27G16G31
                                G14
  20044798.952                        2906.434          26.000                  
                                                
  22558440.405    -1454613.912         868.472          32.000                  
                                                
  22704241.222    -7054842.758        3532.354          34.000                  
                                                
  24568387.578    -2104642.497        7164.183          32.000                  
                                                
  22819440.480                        1077.956          29.000                  
                                                
  22643883.967    -7474036.134        6498.212          32.000                  
                                                
  23787499.936    -1390228.827         703.625          39.000                  
                                                
  20989093.121                        5312.099          21.000                  
                                                
  21463150.875    -2441547.163        1124.942          44.000                  
                                                
  22161420.830   -11722854.0131       6523.046          31.000                  
                                                
  19998987.668     -647059.339        2734.819          31.000                  
                                                
  23760725.377    -2138070.295        1202.526          33.000                  
                                                
  23712764.606                         273.461          13.000                  
                                                
 18  5 21 13 48 43.5000000  0 13R 9R16R18G 8G 3R19G22G23G26G27G16G31
                                G14
  20044526.824                        2907.790          26.000                  
                                                
  22558358.904    -1455048.287         869.246          32.000                  
                                                
  22703910.323    -7056608.472        3531.206          34.000                  
                                                
  24567705.991    -2108224.080        7163.122          32.000                  
                                                
  22819337.608    -2422447.787        1080.491          29.000                  
                                                
  22643279.244                        6497.446          32.000                  
                                                
  23787433.124    -1390580.256         702.818          39.000                  
                                                
  20988591.251                        5313.638          21.000                  
                                                
  21463043.894    -2442109.456        1124.601          44.000                  
                                                
  22160800.471   -11726115.683        6522.729          31.000                  
                                                
  19998727.111     -648426.322        2733.343          31.000                  
                                                
  23760611.033    -2138671.455        1202.500          33.000                  
                                                
  23712733.559                         278.252          13.000                  
                                                
 18  5 21 13 48 44.0000000  0 13R 9R16R18G 8G 3R19G22G23G26G27G16G31
                                G14
  20044254.769                        2907.001          25.000                  
                                                
  22558277.440    -1455482.762         869.594          31.000                  
                                                
  22703579.452    -7058374.051        3530.414          34.000                  
                                                
  24567024.404    -2111805.794        7164.516          32.000                  
                                                
  22819235.102                        1076.850          29.000                  
                                                
  22642671.938    -7480534.836        6497.040          32.000                  
                                                
  23787366.303    -1390931.770         702.741          40.000                  
                                                
  20988087.425                        5315.122          22.000                  
                                                
  21462936.903    -2442671.730        1124.034          44.000                  
                                                
  22160180.229   -11729377.432        6522.623          31.000                  
                                                
  19998466.491     -649793.230        2733.053          31.000                  
                                                
  23760494.071    -2139272.642        1202.191          33.000                  
                                                
  23712703.056                         277.833           2.000                  
                                                
 18  5 21 13 48 44.5000000  0 13R 9R16R18G 8G 3R19G22G23G26G27G16G31
                                G14
  20043983.660                        2903.496          25.000                  
                                                
  22558196.046    -1455917.086         868.492          31.000                  
                                                
  22703248.696    -7060139.347        3530.230          34.000                  
                                                
  24566342.817    -2115387.364        7162.857          32.000                  
                                                
  22819132.338                        1078.005          29.000                  
                                                
  22642064.481    -7483783.726        6497.610          32.000                  
                                                
  23787299.509    -1391283.164         702.852          40.000                  
                                                
  20987582.250                        5312.834          22.000                  
                                                
  21462829.939    -2443233.874        1124.458          44.000                  
                                                
  22159559.584   -11732638.949        6523.296          31.000                  
                                                
  19998205.978     -651159.933        2733.677          31.000                  
                                                
  23760382.300    -2139873.687        1201.197          33.000                  
                                                
  23712676.986                         280.092           2.000                  
                                                
 18  5 21 13 48 45.0000000  0 13R 9R16R18G 8G 3R19G22G23G26G27G16G31
                                G14
  20043712.685                        2903.085          23.000                  
                                                
  22558114.671    -1456351.535         868.695          32.000                  
                                                
  22702917.976    -7061904.567        3530.475          34.000                  
                                                
  24565661.265    -2118969.013        7163.318          32.000                  
                                                
  22819028.965                        1078.578          27.000                  
                                                
  22641466.655    -7487032.559        6497.535          33.000                  
                                                
  23787232.696    -1391634.631         702.798          41.000                  
                                                
  20987077.164                        5311.157          21.000                  
                                                
  21462722.975    -2443796.020        1124.030          44.000                  
                                                
  22158938.975   -11735900.449        6522.560          32.000                  
                                                
  19997945.475     -652526.493        2732.755          31.000                  
                                                
  23760267.876    -2140474.869        1202.009          33.000                  
                                                
  23712650.736                         280.876           1.000                  
                                                
 18  5 21 13 48 45.5000000  0 13R 9R16R18G 8G 3R19G22G23G26G27G16G31
                                G14
  20043441.496                        2905.952          23.000                  
                                                
  22558033.322    -1456785.950         868.476          32.000                  
                                                
  22702587.274    -7063669.513        3529.999          34.000                  
                                                
  24564979.687    -2122550.740        7163.749          32.000                  
                                                
  22818925.575                        1080.793          27.000                  
                                                
  22640848.279    -7490281.289        6497.341          33.000                  
                                                
  23787165.893    -1391986.057         702.919          41.000                  
                                                
  20986572.382                        5310.443          21.000                  
                                                
  21462616.029    -2444358.080        1124.218          44.000                  
                                                
  22158318.214   -11739161.886        6522.905          32.000                  
                                                
  19997685.087     -653892.966        2733.215          31.000                  
                                                
  23760152.246    -2141075.964        1201.677          33.000                  
                                                
  23712625.014                         267.997           1.000                  
                                                
 18  5 21 13 48 46.0000000  0 13R 9R16R18G 8G 3R19G22G23G26G27G16G31
                                G14
  20043170.012                        2904.903          23.000                  
                                                
  22557951.928    -1457220.458         868.353          32.000                  
                                                
  22702256.626    -7065434.320        3528.750          35.000                  
                                                
  24564298.082    -2126132.505        7163.719          33.000                  
                                                
  22818822.140    -2425143.747        1079.028          29.000                  
                                                
  22640240.813    -7493529.924        6496.187          32.000                  
                                                
  23787099.072    -1392337.549         703.055          41.000                  
                                                
  20986067.484                        5312.419          22.000                  
                                                
  21462509.083    -2444920.141        1124.214          44.000                  
                                                
  22157697.381   -11742423.326        6522.790          32.000                  
                                                
  19997424.807     -655259.343        2732.461          32.000                  
                                                
  23760038.214    -2141677.179        1202.322          33.000                  
                                                
  23712599.514                         267.997           1.000                  
                                                
 18  5 21 13 48 46.5000000  0 13R 9R16R18G 8G 3R19G22G23G26G27G16G31
                                G14
  20042898.403                        2908.739          23.000                  
                                                
  22557870.669    -1457654.976         868.938          32.000                  
                                                
  22701926.129    -7067198.930        3529.469          35.000                  
                                                
  24563616.451    -2129714.243        7162.518          33.000                  
                                                
  22818718.991                        1078.945          29.000                  
                                                
  22639634.669    -7496777.9471       6495.985          32.000                  
                                                
  23787032.268    -1392688.987         702.394          41.000                  
                                                
  20985562.738                        5313.765          22.000                  
                                                
  21462402.163    -2445482.103        1123.526          44.000                  
                                                
  22157076.612   -11745684.641        6522.029          32.000                  
                                                
  19997164.643     -656625.564        2732.213          32.000                  
                                                
  23759923.567    -2142278.297        1201.216          33.000                  
                                                
  23712574.015                         267.997           1.000                  
                                                
 18  5 21 13 48 47.0000000  0 13R 9R16R18G 8G 3R19G22G23G26G27G16G31
                                G14
  20042625.909                        2905.713          23.000                  
                                                
  22557789.374    -1458089.436         869.413          32.000                  
                                                
  22701595.677    -7068963.217        3528.191          34.000                  
                                                
  24562934.810    -2133296.021        7164.106          32.000                  
                                                
  22818615.762                        1077.311          28.000                  
                                                
  22639027.274    -7500026.367        6497.066          32.000                  
                                                
  23786965.474    -1393040.341         702.469          41.000                  
                                                
  20985056.249                        5311.933          20.000                  
                                                
  21462295.262    -2446043.921        1123.347          44.000                  
                                                
  22156455.904   -11748945.804        6521.628          32.000                  
                                                
  19996904.658     -657991.531        2731.662          32.000                  
                                                
  23759808.508    -2142879.470        1201.600          31.000                  
                                                
  23712548.516                         267.997           1.000                  
                                                
 18  5 21 13 48 47.5000000  0 13R 9R16R18G 8G 3R19G22G23G26G27G16G31
                                G14
  20042353.254                        2905.996          23.000                  
                                                
  22557708.124    -1458523.859         868.453          32.000                  
                                                
  22701265.261    -7070727.280        3528.181          34.000                  
                                                
  24562253.187    -2136877.718        7163.508          32.000                  
                                                
  22818512.425                        1079.217          28.000                  
                                                
  22638420.031    -7503274.612        6497.594          32.000                  
                                                
  23786898.689    -1393391.684         702.782          41.000                  
                                                
  20984548.099                        5312.790          20.000                  
                                                
  21462188.378    -2446605.704        1123.758          44.000                  
                                                
  22155833.490                        6522.093          32.000                  
                                                
  19996644.637     -659357.406        2731.865          32.000                  
                                                
  23759691.886    -2143480.945        1202.680          31.000                  
                                                
  23712523.017                         267.997           1.000                  
                                                
 18  5 21 13 48 48.0000000  0 13R 9R16R18G 8G 3R19G22G23G26G27G16G31
                                G14
  20042081.797                        2903.935          19.000                  
                                                
  22557626.945    -1458958.239         868.762          31.000                  
                                                
  22700934.890    -7072491.133        3527.113          33.000                  
                                                
  24561571.537    -2140459.339        7162.728          30.000                  
                                                
  22818408.410                        1076.915          27.000                  
                                                
  22637813.003                        6493.493          30.000                  
                                                
  23786831.912    -1393742.938         702.132          41.000                  
                                                
  20984040.654                        5313.113          16.000                  
                                                
  21462081.531    -2447167.283        1122.830          45.000                  
                                                
  22155212.890   -11755468.335        6522.320          30.000                  
                                                
  19996384.660     -660723.067        2731.080          31.000                  
                                                
  23759577.363    -2144081.860        1201.334          32.000                  
                                                
  23712497.518                         267.997           1.000                  
                                                
 18  5 21 13 48 48.5000000  0 13R 9R16R18G 8G 3R19G22G23G26G27G16G31
                                G14
  20041812.109                        2907.290          19.000                  
                                                
  22557545.766    -1459392.653         869.396          31.000                  
                                                
  22700604.536    -7074254.748        3527.116          33.000                  
                                                
  24560889.906    -2144040.981        7163.373          30.000                  
                                                
  22818305.216                        1077.638          27.000                  
                                                
  22637205.983                        6495.764          30.000                  
                                                
  23786765.153    -1394094.097         702.211          41.000                  
                                                
  20983534.246                        5314.192          16.000                  
                                                
  21461974.701    -2447728.787        1122.666          45.000                  
                                                
  22154592.692   -11758729.195        6522.458          30.000                  
                                                
  19996124.764     -662088.524        2730.351          31.000                  
                                                
  23759463.395    -2144682.915        1202.188          32.000                  
                                                
  23712472.019                         267.997           1.000                  
                                                
 18  5 21 13 48 49.0000000  0 13R 9R16R18G 8G 3R19G22G23G26G27G16G31
                                G14
  20041542.716                        2904.861          23.000                  
                                                
  22557464.631    -1459826.967         869.195          32.000                  
                                                
  22700274.227    -7076018.157        3527.213          33.000                  
                                                
  24560208.229    -2147622.650        7164.300          30.000                  
                                                
  22818202.344    -2428377.030        1078.742          29.000                  
                                                
  22636598.713    -7513018.481        6496.143          31.000                  
                                                
  23786698.395    -1394445.272         702.111          41.000                  
                                                
  20983028.267                        5318.852          18.000                  
                                                
  21461867.880    -2448290.230        1122.901          44.000                  
                                                
  22153972.315                        6519.288          28.000                  
                                                
  19995864.958     -663453.812        2730.514          33.000                  
                                                
  23759350.284                        1203.316          30.000                  
                                                
  23712445.877                         271.190          20.000                  
                                                
 18  5 21 13 48 49.5000000  0 13R 9R16R18G 8G 3R19G22G23G26G27G16G31
                                G14
  20041273.724                        2905.419          23.000                  
                                                
  22557383.443    -1460261.460         869.628          32.000                  
                                                
  22699943.954    -7077781.467        3526.759          33.000                  
                                                
  24559519.012                        7160.265          30.000                  
                                                
  22818099.901    -2428915.495        1075.984          29.000                  
                                                
  22635991.667    -7516266.319        6495.894          31.000                  
                                                
  23786631.636    -1394796.489         702.240          41.000                  
                                                
  20982520.376                        5322.176          18.000                  
                                                
  21461761.067    -2448851.641        1122.901          44.000                  
                                                
  22153352.198                        6517.953          28.000                  
                                                
  19995605.223     -664819.052        2730.067          33.000                  
                                                
  23759236.065                        1201.519          30.000                  
                                                
  23712419.645                         269.465          20.000                  
                                                
 18  5 21 13 48 50.0000000  0 13R 9R16R18G 8G 3R19G22G23G26G27G16G31
                                G14
  20041004.474                        2904.149          23.000                  
                                                
  22557302.363    -1460695.834         868.691          32.000                  
                                                
  22699628.396    -7079544.384        3525.618          30.000                  
                                                
  24558837.550                        7162.603          27.000                  
                                                
  22817997.896    -2429453.822        1076.122          31.000                  
                                                
  22635390.928    -7519513.971        6495.285          33.000                  
                                                
  23786564.886    -1395147.644         702.245          39.000                  
                                                
  20982006.820                        5320.913          15.000                  
                                                
  21461654.273    -2449412.918        1122.356          43.000                  
                                                
  22152732.321                        6517.300          24.000                  
                                                
  19995345.559     -666184.106        2729.785          32.000                  
                                                
  23759122.329                        1200.273          27.000                  
                                                
  23712394.253                         274.963          23.000                  
                                                
 18  5 21 13 48 50.5000000  0 13R 9R16R18G 8G 3R19G22G23G26G27G16G31
                                G14
  20040734.294                        2898.152          23.000                  
                                                
  22557221.461    -1461130.272         869.644          32.000                  
                                                
  22699299.160                        3525.498          30.000                  
                                                
  24558155.820                        7160.383          27.000                  
                                                
  22817902.600    -2429992.148        1077.265          31.000                  
                                                
  22634792.083    -7522761.563        6495.722          33.000                  
                                                
  23786498.137    -1395498.775         702.607          39.000                  
                                                
  20981492.299                        5317.924           1.000                  
                                                
  21461547.497    -2449974.169        1122.836          43.000                  
                                                
  22152112.365                        6520.090          24.000                  
                                                
  19995085.895     -667549.022        2730.211          32.000                  
                                                
  23759009.075    -2147086.762        1201.838          27.000                  
                                                
  23712368.602                         268.794          23.000                  
                                                
 18  5 21 13 48 51.0000000  0 13R 9R16R18G 8G 3R19G22G23G26G27G16G31
                                G14
  20040463.293                        2903.461          23.000                  
                                                
  22557140.469    -1461564.779         869.282          31.000                  
                                                
  22698969.976                        3525.826          29.000                  
                                                
  24557474.242                        7161.508          28.000                  
                                                
  22817795.931                        1077.143          30.000                  
                                                
  22634190.040    -7526009.120        6495.143          32.000                  
                                                
  23786431.387    -1395849.961         702.029          39.000                  
                                                
  20980986.320                        5317.924           1.000                  
                                                
  21461440.712    -2450535.395        1122.268          45.000                  
                                                
  22151491.255                        6521.424          25.000                  
                                                
  19994826.267     -668913.885        2729.714          32.000                  
                                                
  23758895.857    -2147687.707        1201.078          32.000                  
                                                
  23712343.835                         267.903          23.000                  
                                                
 18  5 21 13 48 51.5000000  0 13R 9R16R18G 8G 3R19G22G23G26G27G16G31
                                G14
  20040192.059                        2904.594          23.000                  
                                                
  22557059.496    -1461999.248         869.088          31.000                  
                                                
  22698640.918                        3524.701          29.000                  
                                                
  24556792.905                        7161.897          28.000                  
                                                
  22817693.783                        1077.438          30.000                  
                                                
  22633579.411    -7529256.508        6494.686          32.000                  
                                                
  23786364.628    -1396201.121         702.067          39.000                  
                                                
  20980481.011                        5308.932           1.000                  
                                                
  21461333.962    -2451096.507        1122.068          45.000                  
                                                
  22150869.780                        6519.057          25.000                  
                                                
  19994566.630     -670278.533        2729.479          32.000                  
                                                
  23758783.505    -2148288.628        1201.504          33.000                  
                                                
  23712318.185                         265.904          23.000                  
                                                
 18  5 21 13 48 52.0000000  0 13R 9R16R18G 8G 3R19G22G23G26G27G16G31
                                G14
  20039921.084                        2903.253          20.000                  
                                                
  22556978.460    -1462433.790         869.656          31.000                  
                                                
  22698311.914    -7086594.646        3525.339          30.000                  
                                                
  24556111.863                        7163.233          27.000                  
                                                
  22817591.644    -2431606.848        1077.769          30.000                  
                                                
  22632971.677    -7532503.880        6494.509          31.000                  
                                                
  23786297.878    -1396552.288         702.552          39.000                  
                                                
  20979975.881                        5308.932           1.000                  
                                                
  21461227.204    -2451657.609        1122.273          44.000                  
                                                
  22150248.420                        6518.284          25.000                  
                                                
  19994306.931     -671643.111        2729.064          32.000                  
                                                
  23758673.566    -2148889.615        1202.349          33.000                  
                                                
  23712292.078                         269.178          21.000                  
                                                
 18  5 21 13 48 52.5000000  0 13R 9R16R18G 8G 3R19G22G23G26G27G16G31
                                G14
  20039650.127                        2905.363          20.000                  
                                                
  22556898.559                         868.694          31.000                  
                                                
  22697982.713                        3522.781          30.000                  
                                                
  24555430.705                        7162.329          27.000                  
                                                
  22817489.317    -2432144.887        1074.489          30.000                  
                                                
  22632366.444                        6494.270          31.000                  
                                                
  23786231.120    -1396903.472         702.083          39.000                  
                                                
  20979470.759                        5308.932           1.000                  
                                                
  21461120.454    -2452218.672        1122.002          44.000                  
                                                
  22149626.882                        6522.937          25.000                  
                                                
  19994047.249     -673007.607        2729.247          32.000                  
                                                
  23758560.696                        1199.447          33.000                  
                                                
  23712265.105                         272.284          21.000                  
                                                
 18  5 21 13 48 53.0000000  0 13R 9R16R18G 8G 3R19G22G23G26G27G16G31
                                G14
  20039379.036                        2903.264          23.000                  
                                                
  22556817.460    -1463302.950         869.744          30.000                  
                                                
  22697653.369                        3525.189          28.000                  
                                                
  24554749.082                        7161.333          25.000                  
                                                
  22817385.989                        1075.334          29.000                  
                                                
  22631759.451    -7538998.366        6493.837          31.000                  
                                                
  23786164.370    -1397254.622         701.977          40.000                  
                                                
  20978965.629                        5308.932           1.000                  
                                                
  21461013.713    -2452779.660        1122.013          44.000                  
                                                
  22149005.549                        6519.520          24.000                  
                                                
  19993787.586     -674371.931        2729.921          31.000                  
                                                
  23758447.139                        1201.622          26.000                  
                                                
  23712238.256                         266.859          16.000                  
                                                
 18  5 21 13 48 53.5000000  0 13R 9R16R18G 8G 3R19G22G23G26G27G16G31
                                G14
  20039108.302                        2902.227          23.000                  
                                                
  22556736.790    -1463737.463         869.296          30.000                  
                                                
  22697324.105    -7091879.843        3524.061          28.000                  
                                                
  24554067.075                        7162.228          25.000                  
                                                
  22817283.716    -2433220.279        1074.755          29.000                  
                                                
  22631152.467    -7542245.459        6494.963          31.000                  
                                                
  23786097.620    -1397605.781         702.261          40.000                  
                                                
  20978460.498                        5308.932           1.000                  
                                                
  21460907.000    -2453340.526        1121.694          44.000                  
                                                
  22148384.386                        6519.282          24.000                  
                                                
  19993527.975     -675736.014        2727.786          31.000                  
                                                
  23758332.965                        1202.566          26.000                  
                                                
  23712210.604                         270.282          16.000                  
                                                
 18  5 21 13 48 54.0000000  0 13R 9R16R18G 8G 3R19G22G23G26G27G16G31
                                G14
  20038838.998                        2901.749          24.000                  
                                                
  22556654.110    -1464171.989         869.119          31.000                  
                                                
  22696994.761    -7093641.235        3522.757          31.000                  
                                                
  24553384.630                        7164.046          24.000                  
                                                
  22817181.264    -2433758.108        1074.366          30.000                  
                                                
  22630545.349    -7545492.320        6493.704          32.000                  
                                                
  23786030.879    -1397956.859         702.271          39.000                  
                                                
  20977955.368                        5308.932           1.000                  
                                                
  21460800.304    -2453901.309        1121.551          46.000                  
                                                
  22147762.866   -11794585.618        6520.145          28.000                  
                                                
  19993268.365     -677100.000        2727.932          32.000                  
                                                
  23758218.737                        1204.733          26.000                  
                                                
  23712183.157                         268.951          16.000                  
                                                
 18  5 21 13 48 54.5000000  0 13R 9R16R18G 8G 3R19G22G23G26G27G16G31
                                G14
  20038568.613                        2902.678          24.000                  
                                                
  22556575.183    -1464606.479         868.629          31.000                  
                                                
  22696669.340    -7095402.440        3522.121          31.000                  
                                                
  24552701.855                        7162.330          24.000                  
                                                
  22817078.955    -2434295.859        1075.470          30.000                  
                                                
  22629932.924    -7548739.122        6493.502          32.000                  
                                                
  23785964.139    -1398307.897         702.154          39.000                  
                                                
  20977450.318                        5307.932           1.000                  
                                                
  21460693.617    -2454462.002        1121.301          46.000                  
                                                
  22147141.631                        6521.151          28.000                  
                                                
  19993008.809     -678463.814        2727.436          32.000                  
                                                
  23758105.099                        1200.938          26.000                  
                                                
  23712154.745                         269.783          16.000                  
                                                
 18  5 21 13 48 55.0000000  0 13R 9R16R18G 8G 3R19G22G23G26G27G16G31
                                G14
  20038297.665                        2903.405          25.000                  
                                                
  22556492.137    -1465040.868         868.727          32.000                  
                                                
  22696347.831    -7097163.284        3521.572          32.000                  
                                                
  24552019.196                        7168.507          23.000                  
                                                
  22816976.199    -2434832.8031       1075.102          31.000                  
                                                
  22629321.008    -7551985.624        6493.189          33.000                  
                                                
  23785897.434    -1398658.738         701.675          38.000                  
                                                
  20976943.087                        5307.132          22.000                  
                                                
  21460586.983    -2455022.445        1121.005          45.000                  
                                                
  22146520.334                        6519.501          28.000                  
                                                
  19992749.342     -679827.281        2726.859          32.000                  
                                                
  23757991.568                        1201.490          25.000                  
                                                
  23712128.040                         266.537          15.000                  
                                                
 18  5 21 13 48 55.5000000  0 13R 9R16R18G 8G 3R19G22G23G26G27G16G31
                                G14
  20038026.324                        2899.966          25.000                  
                                                
  22556408.956    -1465475.248         869.273          32.000                  
                                                
  22696021.329    -7098923.944        3521.451          32.000                  
                                                
  24551336.081                        7166.092          23.000                  
                                                
  22816874.444    -2435370.209        1075.298          31.000                  
                                                
  22628711.442    -7555232.014        6493.117          33.000                  
                                                
  23785830.729    -1399009.583         701.919          38.000                  
                                                
  20976436.965                        5308.157          22.000                  
                                                
  21460480.359    -2455582.826        1120.855          45.000                  
                                                
  22145898.957                        6519.871          29.000                  
                                                
  19992489.892     -681190.631        2726.589          32.000                  
                                                
  23757877.841    -2153094.897        1201.371          25.000                  
                                                
  23712100.960                         265.966          15.000                  
                                                
 18  5 21 13 48 56.0000000  0 13R 9R16R18G 8G 3R19G22G23G26G27G16G31
                                G14
  20037755.823                        2904.934          23.000                  
                                                
  22556327.625    -1465909.787         869.232          32.000                  
                                                
  22695693.745    -7100684.482        3520.426          32.000                  
                                                
  24550653.189                        7161.941          22.000                  
                                                
  22816771.545    -2435907.611        1074.698          31.000                  
                                                
  22628105.995    -7558478.400        6492.778          32.000                  
                                                
  23785764.006    -1399360.509         701.279          38.000                  
                                                
  20975931.754                        5306.427          24.000                  
                                                
  21460373.725    -2456143.254        1120.663          46.000                  
                                                
  22145277.731                        6517.402          28.000                  
                                                
  19992230.452     -682553.981        2726.397          33.000                  
                                                
  23757764.006                        1203.015          28.000                  
                                                
  23712073.638                         261.388          15.000                  
                                                
 18  5 21 13 48 56.5000000  0 13R 9R16R18G 8G 3R19G22G23G26G27G16G31
                                G14
  20037486.161                        2902.885          23.000                  
                                                
  22556246.321    -1466344.2441        868.777          32.000                  
                                                
  22695364.276    -7102444.3201       3520.479          32.000                  
                                                
  24549971.370                        7160.137          22.000                  
                                                
  22816669.370    -2436444.904        1074.300          31.000                  
                                                
  22627499.270    -7561724.7081       6492.675          32.000                  
                                                
  23785697.292    -1399711.428         702.198          38.000                  
                                                
  20975426.740                        5306.776          24.000                  
                                                
  21460267.110    -2456703.577        1120.396          46.000                  
                                                
  22144656.667                        6516.762          28.000                  
                                                
  19991971.065     -683917.115        2725.728          33.000                  
                                                
  23757650.064                        1199.266          28.000                  
                                                
  23712047.978                         259.063          15.000                  
                                                
 18  5 21 13 48 57.0000000  0 13R 9R16R18G 8G 3R19G22G23G26G27G16G31
                                G14
  20037217.215                        2902.812          17.000                  
                                                
  22556164.696    -1466778.776         869.986          31.000                  
                                                
  22695034.851    -7104204.420        3519.784          32.000                  
                                                
  24549288.907                        7161.228          19.000                  
                                                
  22816567.052    -2436982.125        1075.116          31.000                  
                                                
  22626892.358    -7564970.818        6492.144          32.000                  
                                                
  23785630.578    -1400062.272         701.879          38.000                  
                                                
  20974922.172                        5303.270          25.000                  
                                                
  21460160.521    -2457263.789        1120.272          47.000                  
                                                
  22144036.058                        6516.387          27.000                  
                                                
  19991711.696     -685280.120        2726.263          33.000                  
                                                
  23757536.096                        1199.934          28.000                  
                                                
  23712021.541                         265.364          15.000                  
                                                
 18  5 21 13 48 57.5000000  0 13R 9R16R18G 8G 3R19G22G23G26G27G16G31
                                G14
  20036947.982                        2901.451          17.000                  
                                                
  22556082.686    -1467213.356         872.379          31.000                  
                                                
  22694705.606    -7105964.425        3519.689          32.000                  
                                                
  24548604.881                        7162.990          19.000                  
                                                
  22816464.912    -2437519.362        1074.497          31.000                  
                                                
  22626285.249    -7568216.968        6492.229          32.000                  
                                                
  23785563.855    -1400413.195         701.607          38.000                  
                                                
  20974417.247                        5307.285          25.000                  
                                                
  21460053.915    -2457824.064        1120.438          47.000                  
                                                
  22143415.288                        6519.950          27.000                  
                                                
  19991452.354     -686643.044        2724.923          33.000                  
                                                
  23757421.537                        1203.705          28.000                  
                                                
  23711994.094                         267.072          15.000                  
                                                
 18  5 21 13 48 58.0000000  0 13R 9R16R18G 8G 3R19G22G23G26G27G16G31
                                G14
  20036676.319                        2901.489           1.000                  
                                                
  22556001.292    -1467647.998         869.421          31.000                  
                                                
  22694376.512    -7107724.330        3520.092          32.000                  
                                                
  24547919.970                        7157.687          17.000                  
                                                
  22816363.068    -2438056.591        1074.109          32.000                  
                                                
  22625678.086    -7571463.046        6491.248          32.000                  
                                                
  23785497.114    -1400764.206         702.174          38.000                  
                                                
  20973911.509                        5301.306          24.000                  
                                                
  21459947.308    -2458384.348        1120.930          47.000                  
                                                
  22142794.938                        6517.203          27.000                  
                                                
  19991193.021     -688005.943        2725.130          33.000                  
                                                
  23757307.184                        1200.906          28.000                  
                                                
  23711966.996                         264.542          15.000                  
                                                
 18  5 21 13 48 58.5000000  0 13R 9R16R18G 8G 3R19G22G23G26G27G16G31
                                G14
  20036404.755                        2900.963           1.000                  
                                                
  22555919.747    -1468082.685         868.939          31.000                  
                                                
  22694047.355    -7109484.006        3519.169          32.000                  
                                                
  24547236.292                        7159.133          17.000                  
                                                
  22816261.107    -2438593.745        1074.511          32.000                  
                                                
  22625071.040    -7574709.048        6491.393          32.000                  
                                                
  23785430.382    -1401115.199         702.188          38.000                  
                                                
  20973406.513                        5308.865          24.000                  
                                                
  21459840.728    -2458944.527        1120.201          47.000                  
                                                
  22142174.239                        6517.753          27.000                  
                                                
  19990933.742     -689368.709        2724.917          33.000                  
                                                
  23757192.590                        1202.190          28.000                  
                                                
  23711939.915                         269.635          15.000                  
                                                
 18  5 21 13 48 59.0000000  0 13R 9R16R18G 8G 3R19G22G23G26G27G16G31
                                G14
  20036133.182                        2900.963           1.000                  
                                                
  22555838.523    -1468517.385         869.404          32.000                  
                                                
  22693718.208    -7111243.453        3518.942          32.000                  
                                                
  24546553.589                        7158.519          16.000                  
                                                
  22816160.246                        1073.067          32.000                  
                                                
  22624464.128    -7577954.918        6491.420          32.000                  
                                                
  23785363.641    -1401466.214         701.846          38.000                  
                                                
  20972901.552                        5303.696          23.000                  
                                                
  21459734.157    -2459504.633        1120.095          47.000                  
                                                
  22141553.112                        6512.730          26.000                  
                                                
  19990674.507     -690731.267        2724.446          33.000                  
                                                
  23757077.612    -2157300.647        1202.542          30.000                  
                                                
  23711915.113                         265.756          18.000                  
                                                
 18  5 21 13 48 59.5000000  0 13R 9R16R18G 8G 3R19G22G23G26G27G16G31
                                G14
  20035861.581                        2900.963           1.000                  
                                                
  22555761.651    -1468951.956         869.226          32.000                  
                                                
  22693388.882    -7113002.633        3518.340          32.000                  
                                                
  24545871.957                        7157.307          16.000                  
                                                
  22816057.508    -2439668.266        1075.977          32.000                  
                                                
  22623857.278    -7581200.656        6491.554          32.000                  
                                                
  23785296.927    -1401817.049         701.509          38.000                  
                                                
  20972396.645                        5304.337          23.000                  
                                                
  21459627.613    -2460064.579        1119.944          47.000                  
                                                
  22140932.003                        6515.587          26.000                  
                                                
  19990415.335     -692093.620        2724.247          33.000                  
                                                
  23756963.197                        1200.870          30.000                  
                                                
  23711892.902                         266.951          18.000                  
                                                
 18  5 21 13 49  0.0000000  0 13R 9R16R18G 8G 3R19G22G23G26G27G16G31
                                G14
  20035590.446                        2901.117          23.000                  
                                                
  22555681.687    -1469386.612         869.937          31.000                  
                                                
  22693061.807                        3515.365          32.000                  
                                                
  24545189.646                        7158.909          19.000                  
                                                
  22815954.770    -2440205.080        1073.496          32.000                  
                                                
  22623250.365    -7584446.339        6491.622          34.000                  
                                                
  23785230.204    -1402167.954         702.137          39.000                  
                                                
  20971890.353                        5301.180          21.000                  
                                                
  21459521.060    -2460624.564        1119.503          46.000                  
                                                
  22140311.215                        6519.775          27.000                  
                                                
  19990156.171     -693455.933        2723.698          33.000                  
                                                
  23756849.559                        1195.889          28.000                  
                                                
  23711871.245                         265.256          17.000                  
                                                
 18  5 21 13 49  0.5000000  0 13R 9R16R18G 8G 3R19G22G23G26G27G16G31
                                G14
  20035320.463                        2902.090          23.000                  
                                                
  22555598.685    -1469821.871         867.708          31.000                  
                                                
  22692733.393                        3516.704          32.000                  
                                                
  24544508.175                        7153.945          19.000                  
                                                
  22815852.997    -2440742.013        1074.487          32.000                  
                                                
  22622643.596    -7587692.010        6491.098          34.000                  
                                                
  23785163.472    -1402518.886         701.421          39.000                  
                                                
  20971384.883                        5300.692          21.000                  
                                                
  21459414.516    -2461184.585        1120.847          46.000                  
                                                
  22139689.936                        6515.941          27.000                  
                                                
  19989897.017     -694818.174        2724.861          33.000                  
                                                
  23756735.679                        1201.238          28.000                  
                                                
  23711848.488                         262.273          17.000                  
                                                
 18  5 21 13 49  1.0000000  0 13R 9R16R18G 8G 3R19G22G23G26G27G16G31
                                G14
  20035050.551                        2907.524          24.000                  
                                                
  22555517.283    -1470256.649         869.815          30.000                  
                                                
  22692404.531                        3516.639          29.000                  
                                                
  24543824.060                        7154.755           1.000                  
                                                
  22815753.207    -2441278.2631       1073.085          32.000                  
                                                
  22622036.808    -7590937.578        6491.348          34.000                  
                                                
  23785096.732    -1402869.836         701.593          38.000                  
                                                
  20970880.056                        5299.992          17.000                  
                                                
  21459308.008    -2461744.390        1119.687          45.000                  
                                                
  22139067.826                        6515.420          19.000                  
                                                
  19989637.916     -696180.285        2724.629          31.000                  
                                                
  23756621.434                        1203.764          23.000                  
                                                
  23711826.769                         262.460          21.000                  
                                                
 18  5 21 13 49  1.5000000  0 13R 9R16R18G 8G 3R19G22G23G26G27G16G31
                                G14
  20034780.014                        2900.749          24.000                  
                                                
  22555435.809    -1470691.417         870.297          30.000                  
                                                
  22692075.107    -7120036.175        3516.927          29.000                  
                                                
  24543142.615                        7163.908           1.000                  
                                                
  22815652.801    -2441814.998        1073.540          32.000                  
                                                
  22621429.976    -7594183.024        6491.697          34.000                  
                                                
  23785029.991    -1403220.773         702.435          38.000                  
                                                
  20970373.157                        5300.603          17.000                  
                                                
  21459201.491    -2462304.192        1119.955          45.000                  
                                                
  22138446.011                        6517.192          19.000                  
                                                
  19989378.878     -697542.141        2723.202          31.000                  
                                                
  23756507.170                        1204.905          23.000                  
                                                
  23711802.225                         261.998          20.000                  
                                                
 18  5 21 13 49  2.0000000  0 13R 9R16R18G 8G 3R19G22G23G26G27G16G31
                                G14
  20034508.932                        2903.719          25.000                  
                                                
  22555345.946                         869.117          31.000                  
                                                
  22691745.334    -7121794.637        3516.816          31.000                  
                                                
  24542460.993                        7163.908           1.000                  
                                                
  22815550.787    -2442351.756        1074.405          34.000                  
                                                
  22620823.144    -7597428.475        6490.487          34.000                  
                                                
  23784963.214    -1403571.860         702.003          36.000                  
                                                
  20969867.750                        5297.480          21.000                  
                                                
  21459094.973    -2462864.006        1119.478          46.000                  
                                                
  22137824.490                        6518.063          26.000                  
                                                
  19989119.848     -698904.067        2723.507          32.000                  
                                                
  23756392.666                        1201.021          21.000                  
                                                
  23711776.155                         266.298          16.000                  
                                                
 18  5 21 13 49  2.5000000  0 13R 9R16R18G 8G 3R19G22G23G26G27G16G31
                                G14
  20034237.144                        2906.303          25.000                  
                                                
  22555264.150    -1471561.169         869.102          31.000                  
                                                
  22691390.080    -7123552.876        3516.539          31.000                  
                                                
  24541779.370                        7163.908           1.000                  
                                                
  22815448.281    -2442888.376        1073.140          34.000                  
                                                
  22620216.312    -7600673.800        6490.491          35.000                  
                                                
  23784896.465    -1403922.853         702.139          36.000                  
                                                
  20969361.788                        5299.649          21.000                  
                                                
  21458988.483    -2463423.758        1119.693          46.000                  
                                                
  22137203.122                        6518.407          26.000                  
                                                
  19988867.975     -700266.229        2721.724          32.000                  
                                                
  23756278.098                        1199.211          21.000                  
                                                
  23711748.913                         264.261          16.000                  
                                                
 18  5 21 13 49  3.0000000  0 13R 9R16R18G 8G 3R19G22G23G26G27G16G31
                                G14
  20033965.070                        2903.955          23.000                  
                                                
  22555182.418    -1471996.202         870.361          31.000                  
                                                
  22691047.030    -7125310.934        3515.296          31.000                  
                                                
  24541100.302                        7166.360          21.000                  
                                                
  22815345.579    -2443425.103        1073.810          33.000                  
                                                
  22619609.480    -7603919.179        6490.751          35.000                  
                                                
  23784829.697    -1404273.861         702.202          35.000                  
                                                
  20968855.246                        5304.711          22.000                  
                                                
  21458881.975    -2463983.539        1119.694          45.000                  
                                                
  22136581.861                        6520.831          24.000                  
                                                
  19988609.357     -701627.962        2722.673          30.000                  
                                                
  23756164.237                        1202.209          25.000                  
                                                
  23711720.761                         264.958          14.000                  
                                                
 18  5 21 13 49  3.5000000  0 13R 9R16R18G 8G 3R19G22G23G26G27G16G31
                                G14
  20033693.667                        2903.807          23.000                  
                                                
  22555103.436    -1472431.301         871.133          31.000                  
                                                
  22690716.373    -7127068.910        3515.553          30.000                  
                                                
  24540422.691                        7164.049          21.000                  
                                                
  22815243.064    -2443961.717        1073.416          33.000                  
                                                
  22619002.747    -7607164.457        6490.633          35.000                  
                                                
  23784762.920    -1404624.956         702.322          35.000                  
                                                
  20968347.614                        5305.951          22.000                  
                                                
  21458775.475    -2464543.305        1119.540          45.000                  
                                                
  22135960.635                        6520.603          24.000                  
                                                
  19988350.471     -702989.641        2723.277          30.000                  
                                                
  23756050.367                        1202.801          24.000                  
                                                
  23711693.528                         266.177          14.000                  
                                                
 18  5 21 13 49  4.0000000  0 13R 9R16R18G 8G 3R19G22G23G26G27G16G31
                                G14
  20033422.522                        2903.249          25.000                  
                                                
  22555022.794    -1472866.382         870.266          30.000                  
                                                
  22690386.806    -7128826.595        3516.063          30.000                  
                                                
  24539742.819                        7167.334          21.000                  
                                                
  22815140.702    -2444498.271        1072.516          33.000                  
                                                
  22618396.040    -7610409.647        6489.676          34.000                  
                                                
  23784696.126    -1404976.060         702.185          36.000                  
                                                
  20967841.125                        5304.160          23.000                  
                                                
  21458668.994    -2465102.993        1119.257          46.000                  
                                                
  22135339.195                        6516.694          27.000                  
                                                
  19988091.790                        2722.472          30.000                  
                                                
  23755936.407    -2163308.611        1201.130          28.000                  
                                                
  23711668.619                         266.053          16.000                  
                                                
 18  5 21 13 49  4.5000000  0 13R 9R16R18G 8G 3R19G22G23G26G27G16G31
                                G14
  20033150.868                        2903.071          25.000                  
                                                
  22554941.561                         870.691          30.000                  
                                                
  22690057.497                        3514.348          30.000                  
                                                
  24539062.242                        7161.813          21.000                  
                                                
  22815038.402    -2445034.592        1072.026          33.000                  
                                                
  22617789.422    -7613654.556        6489.687          34.000                  
                                                
  23784629.367    -1405326.945         701.628          36.000                  
                                                
  20967334.226                        5302.259          23.000                  
                                                
  21458562.539    -2465662.511        1118.847          46.000                  
                                                
  22134717.880                        6514.696          27.000                  
                                                
  19987833.082     -705712.295        2722.532          30.000                  
                                                
  23755822.018                        1202.210          28.000                  
                                                
  23711643.414                         265.184          16.000                  
                                                
 18  5 21 13 49  5.0000000  0 13R 9R16R18G 8G 3R19G22G23G26G27G16G31
                                G14
  20032879.072                        2900.839          28.000                  
                                                
  22554859.935    -1473736.190         869.892          30.000                  
                                                
  22689728.824                        3510.917          28.000                  
                                                
  24538383.264                        7155.572          20.000                  
                                                
  22814936.289    -2445570.811        1072.350          33.000                  
                                                
  22617182.796    -7616899.363        6490.177          33.000                  
                                                
  23784562.626    -1405677.794         701.736          39.000                  
                                                
  20966827.174                        5304.425          23.000                  
                                                
  21458456.120    -2466221.843        1118.483          46.000                  
                                                
  22134097.137   -11866280.008        6516.129          28.000                  
                                                
  19987574.473     -707073.322        2722.568          30.000                  
                                                
  23755707.228                        1206.083          29.000                  
                                                
  23711619.050                         260.122          24.000                  
                                                
 18  5 21 13 49  5.5000000  0 13R 9R16R18G 8G 3R19G22G23G26G27G16G31
                                G14
  20032607.436                        2901.244          28.000                  
                                                
  22554778.533                         868.579          30.000                  
                                                
  22689400.168                        3513.158          28.000                  
                                                
  24537703.392                        7157.565          20.000                  
                                                
  22814834.346    -2446106.874        1072.888          33.000                  
                                                
  22616576.133    -7620143.935        6489.620          33.000                  
                                                
  23784495.904    -1406028.521         701.567          39.000                  
                                                
  20966321.687                        5298.606          23.000                  
                                                
  21458349.719    -2466781.036        1118.459          46.000                  
                                                
  22133476.716   -11869538.225        6517.164          28.000                  
                                                
  19987316.024                        2722.720          30.000                  
                                                
  23755592.080                        1200.939          29.000                  
                                                
  23711594.677                         264.729          24.000                  
                                                
 18  5 21 13 49  6.0000000  0 13R 9R16R18G 8G 3R19G22G23G26G27G16G31
                                G14
  20032335.809                        2901.454          27.000                  
                                                
  22554697.274                         868.613          28.000                  
                                                
  22689071.467                        3512.440          28.000                  
                                                
  24537022.448                        7157.892          19.000                  
                                                
  22814732.511    -2446642.906        1072.383          32.000                  
                                                
  22615969.453    -7623388.516        6489.156          32.000                  
                                                
  23784429.163    -1406379.336         702.202          36.000                  
                                                
  20965816.511                        5304.211          24.000                  
                                                
  21458243.318    -2467340.266        1118.761          47.000                  
                                                
  22132854.257   -11872796.421        6517.169          32.000                  
                                                
  19987056.968     -709794.713        2720.952          29.000                  
                                                
  23755476.950    -2165712.994        1200.460          28.000                  
                                                
  23711569.696                         264.466          24.000                  
                                                
 18  5 21 13 49  6.5000000  0 13R 9R16R18G 8G 3R19G22G23G26G27G16G31
                                G14
  20032063.833                        2899.755          27.000                  
                                                
  22554615.978                         871.087          28.000                  
                                                
  22688742.400                        3512.636          28.000                  
                                                
  24536340.370                        7159.446          19.000                  
                                                
  22814630.613    -2447178.878        1071.326          32.000                  
                                                
  22615362.809    -7626632.886        6488.823          32.000                  
                                                
  23784362.440    -1406730.074         701.619          36.000                  
                                                
  20965311.658                        5303.713          24.000                  
                                                
  21458136.953    -2467899.356        1117.817          47.000                  
                                                
  22132230.807   -11876054.475        6515.299          32.000                  
                                                
  19986797.456                        2721.710          29.000                  
                                                
  23755361.632                        1201.604          28.000                  
                                                
  23711544.911                         261.255          24.000                  
                                                
 18  5 21 13 49  7.0000000  0 13R 9R16R18G 8G 3R19G22G23G26G27G16G31
                                G14
  20031791.152                        2900.884          25.000                  
                                                
  22554534.531                         867.883          27.000                  
                                                
  22688413.520    -7139365.226        3511.035          28.000                  
                                                
  24535658.479                        7167.406          17.000                  
                                                
  22814528.777    -2447714.634        1071.201          33.000                  
                                                
  22614751.858    -7629877.005        6488.160          31.000                  
                                                
  23784295.753    -1407080.538         696.878          37.000                  
                                                
  20964807.939                        5301.540          26.000                  
                                                
  21458030.596    -2468458.315        1118.140          47.000                  
                                                
  22131610.466   -11879312.183        6513.633          29.000                  
                                                
  19986538.016                        2720.987          26.000                  
                                                
  23755246.511    -2166914.264        1201.457          29.000                  
                                                
  23711519.940                         260.351          24.000                  
                                                
 18  5 21 13 49  7.5000000  0 13R 9R16R18G 8G 3R19G22G23G26G27G16G31
                                G14
  20031517.926                        2903.606          25.000                  
                                                
  22554453.058                         869.313          28.000                  
                                                
  22688084.972    -7141120.773        3513.444          28.000                  
                                                
  24534977.964                        7165.366          17.000                  
                                                
  22814426.986    -2448250.327        1070.796          33.000                  
                                                
  22614145.508    -7633121.170        6488.677          31.000                  
                                                
  23784228.985    -1407431.461         700.924          37.000                  
                                                
  20964304.596                        5303.433          26.000                  
                                                
  21457924.267    -2469017.180        1117.572          47.000                  
                                                
  22130990.161                        6513.695          29.000                  
                                                
  19986278.647                        2719.743          26.000                  
                                                
  23755131.801                        1199.050          29.000                  
                                                
  23711494.860                         264.363          24.000                  
                                                
 18  5 21 13 49  8.0000000  0 13R 9R16R18G 8G 3R19G22G23G26G27G16G31
                                G14
  20031245.039                        2901.354          26.000                  
                                                
  22554371.539                         867.688          28.000                  
                                                
  22687756.798    -7142876.481        3511.008          31.000                  
                                                
  24534297.494                        7168.165          20.000                  
                                                
  22814325.168    -2448786.012        1071.267          33.000                  
                                                
  22613540.240    -7636365.139        6487.131          32.000                  
                                                
  23784162.262    -1407782.106         701.595          37.000                  
                                                
  20963800.877                        5303.936          26.000                  
                                                
  21457817.937    -2469576.027        1117.797          46.000                  
                                                
  22130370.052   -11885827.528        6515.920          29.000                  
                                                
  19986019.251                        2720.633          24.000                  
                                                
  23755016.992                        1202.647          30.000                  
                                                
  23711469.996                         259.564          24.000                  
                                                
 18  5 21 13 49  8.5000000  0 13R 9R16R18G 8G 3R19G22G23G26G27G16G31
                                G14
  20030971.920                        2902.094          26.000                  
                                                
  22554290.235                         866.921          28.000                  
                                                
  22687429.491    -7144632.087        3511.038          31.000                  
                                                
  24533617.729                        7168.306          21.000                  
                                                
  22814223.324    -2449321.610        1071.403          33.000                  
                                                
  22612923.857    -7639609.044        6487.928          32.000                  
                                                
  23784095.539    -1408132.733         701.195          38.000                  
                                                
  20963297.426                        5298.155          26.000                  
                                                
  21457711.616    -2470134.800        1117.392          46.000                  
                                                
  22129750.024                        6514.772          29.000                  
                                                
  19985759.302                        2719.865          24.000                  
                                                
  23754901.889    -2168716.267        1200.432          30.000                  
                                                
  23711445.345                         260.132          24.000                  
                                                
 18  5 21 13 49  9.0000000  0 13R 9R16R18G 8G 3R19G22G23G26G27G16G31
                                G14
  20030699.337                        2903.891          26.000                  
                                                
  22554209.003                         871.914          28.000                  
                                                
  22687106.571    -7146387.689        3511.721          32.000                  
                                                
  24532940.029                        7169.819          20.000                  
                                                
  22814121.533    -2449857.235        1071.633          33.000                  
                                                
  22612316.167    -7642852.971        6485.546          31.000                  
                                                
  23784028.789    -1408483.503         701.326          38.000                  
                                                
  20962793.394                        5301.146          23.000                  
                                                
  21457605.296    -2470693.619        1117.753          45.000                  
                                                
  22129130.317                        6513.348          27.000                  
                                                
  19985498.968                        2720.967          25.000                  
                                                
  23754787.313    -2169317.016        1202.511          30.000                  
                                                
  23711419.417                         264.921          22.000                  
                                                
 18  5 21 13 49  9.5000000  0 13R 9R16R18G 8G 3R19G22G23G26G27G16G31
                                G14
  20030426.745                        2904.171          26.000                  
                                                
  22554127.529                         872.917          28.000                  
                                                
  22686779.881                        3511.238          32.000                  
                                                
  24532261.917                        7164.110          19.000                  
                                                
  22814019.751    -2450392.918        1070.966          33.000                  
                                                
  22611709.290                        6486.747          31.000                  
                                                
  23783962.022    -1408834.383         701.682          38.000                  
                                                
  20962289.032                        5300.357          22.000                  
                                                
  21457498.948    -2471252.501        1117.318          45.000                  
                                                
  22128510.218                        6512.903          26.000                  
                                                
  19985238.375                        2721.907          24.000                  
                                                
  23754674.121                        1202.034          30.000                  
                                                
  23711393.972                         264.576          21.000                  
                                                
 18  5 21 13 49 10.0000000  0 13R 9R16R18G 8G 3R19G22G23G26G27G16G31
                                G14
  20030154.751                        2902.159          26.000                  
                                                
  22554046.350    -1478084.433         868.704          29.000                  
                                                
  22686451.788    -7149898.441        3510.056          33.000                  
                                                
  24531582.215                        7163.297          17.000                  
                                                
  22813917.951    -2450928.483        1071.133          30.000                  
                                                
  22611102.047                        6489.528          28.000                  
                                                
  23783895.254    -1409185.244         701.148          36.000                  
                                                
  20961784.563                        5301.317          22.000                  
                                                
  21457392.627    -2471811.314        1117.577          43.000                  
                                                
  22127890.314                        6516.102          28.000                  
                                                
  19984977.952                        2719.523          22.000                  
                                                
  23754560.037                        1202.116          29.000                  
                                                
  23711368.401                         261.945          16.000                  
                                                
 18  5 21 13 49 10.5000000  0 13R 9R16R18G 8G 3R19G22G23G26G27G16G31
                                G14
  20029883.160                        2900.009          26.000                  
                                                
  22553965.072                         868.545          29.000                  
                                                
  22686123.552    -7151653.529        3510.095          33.000                  
                                                
  24530902.254                        7158.018          17.000                  
                                                
  22813816.017    -2451464.013        1070.305          30.000                  
                                                
  22610495.198                        6487.504          28.000                  
                                                
  23783828.460    -1409536.211         701.791          36.000                  
                                                
  20961281.050                        5302.658          22.000                  
                                                
  21457286.307    -2472370.079        1117.238          43.000                  
                                                
  22127270.500                        6516.267          28.000                  
                                                
  19984717.377                        2720.314          22.000                  
                                                
  23754446.068    -2171118.869        1200.891          29.000                  
                                                
  23711343.099                         260.450          16.000                  
                                                
 18  5 21 13 49 11.0000000  0 13R 9R16R18G 8G 3R19G22G23G26G27G16G31
                                G14
  20029611.676                        2899.759          25.000                  
                                                
  22553884.001                         868.538          28.000                  
                                                
  22685791.777    -7153408.253        3508.544          32.000                  
                                                
  24530222.695                        7163.439          23.000                  
                                                
  22813714.128    -2451999.343        1070.566          32.000                  
                                                
  22609888.946                        6486.142          29.000                  
                                                
  23783761.728    -1409886.804         700.859          36.000                  
                                                
  20960777.608                        5300.638          23.000                  
                                                
  21457180.040    -2472928.589        1116.948          46.000                  
                                                
  22126650.687   -11905372.941        6515.005          30.000                  
                                                
  19984457.141                        2718.905          20.000                  
                                                
  23754332.350    -2171719.496        1201.032          31.000                  
                                                
  23711317.439                         258.467          20.000                  
                                                
 18  5 21 13 49 11.5000000  0 13R 9R16R18G 8G 3R19G22G23G26G27G16G31
                                G14
  20029339.701                        2899.745          25.000                  
                                                
  22553803.063                         868.864          28.000                  
                                                
  22685459.941                        3507.682          32.000                  
                                                
  24529541.528                        7163.276          23.000                  
                                                
  22813612.248    -2452534.499        1071.227          32.000                  
                                                
  22609282.936    -7659071.705        6487.572          29.000                  
                                                
  23783695.005    -1410237.293         700.828          36.000                  
                                                
  20960274.318                        5301.000          23.000                  
                                                
  21457073.799    -2473486.908        1116.851          46.000                  
                                                
  22126030.864   -11908630.176        6514.608          30.000                  
                                                
  19984197.585                        2721.211          20.000                  
                                                
  23754218.140    -2172320.020        1202.050          31.000                  
                                                
  23711292.771                         261.679          20.000                  
                                                
 18  5 21 13 49 12.0000000  0 13R 9R16R18G 8G 3R19G22G23G26G27G16G31
                                G14
  20029068.065                        2899.446          22.000                  
                                                
  22553722.170                         870.082          28.000                  
                                                
  22685131.874    -7156916.771        3508.158          31.000                  
                                                
  24528860.817                        7168.910          22.000                  
                                                
  22813510.403    -2453069.529        1070.585          32.000                  
                                                
  22608677.114                        6486.639          29.000                  
                                                
  23783628.264    -1410587.960         701.925          36.000                  
                                                
  20959771.162                        5299.848          24.000                  
                                                
  21456967.577    -2474045.179        1116.395          46.000                  
                                                
  22125411.363   -11911887.342        6514.978          31.000                  
                                                
  19983937.162                        2716.230          21.000                  
                                                
  23754103.796                        1202.908          29.000                  
                                                
  23711268.228                         264.017          25.000                  
                                                
 18  5 21 13 49 12.5000000  0 13R 9R16R18G 8G 3R19G22G23G26G27G16G31
                                G14
  20028796.643                        2901.474          22.000                  
                                                
  22553641.161                         869.690          28.000                  
                                                
  22684803.576    -7158670.795        3507.367          31.000                  
                                                
  24528180.195                        7167.485          22.000                  
                                                
  22813408.541    -2453604.449        1069.223          32.000                  
                                                
  22608071.041                        6486.122          29.000                  
                                                
  23783561.559    -1410938.400         701.213          36.000                  
                                                
  20959267.988                        5300.258          24.000                  
                                                
  21456861.346    -2474603.428        1116.262          46.000                  
                                                
  22124795.471   -11915144.340        6512.753          31.000                  
                                                
  19983676.247                        2714.049          21.000                  
                                                
  23753989.666                        1202.032          28.000                  
                                                
  23711244.015                         260.533          25.000                  
                                                
 18  5 21 13 49 13.0000000  0 13R 9R16R18G 8G 3R19G22G23G26G27G16G31
                                G14
  20028525.365                        2898.508          26.000                  
                                                
  22553560.017                         871.210          28.000                  
                                                
  22684475.027    -7160424.584        3507.563          31.000                  
                                                
  24527500.010                        7160.595          23.000                  
                                                
  22813306.741    -2454139.336        1070.683          31.000                  
                                                
  22607464.906                        6489.011          25.000                  
                                                
  23783494.854    -1411288.853         700.351          35.000                  
                                                
  20958764.126                        5299.033          25.000                  
                                                
  21456755.150    -2475161.549        1116.005          45.000                  
                                                
  22124176.962   -11918401.228        6511.364          32.000                  
                                                
  19983415.672                        2717.223          21.000                  
                                                
  23753875.796                        1200.924          29.000                  
                                                
  23711219.749                         263.462          20.000                  
                                                
 18  5 21 13 49 13.5000000  0 13R 9R16R18G 8G 3R19G22G23G26G27G16G31
                                G14
  20028253.898                        2899.242          26.000                  
                                                
  22553479.312                         869.242          28.000                  
                                                
  22684146.237    -7162178.154        3508.398          31.000                  
                                                
  24526819.183                        7166.835          23.000                  
                                                
  22813204.959    -2454674.189        1070.002          31.000                  
                                                
  22606859.119                        6484.308          25.000                  
                                                
  23783428.131    -1411639.396         701.162          35.000                  
                                                
  20958260.327                        5299.184          25.000                  
                                                
  21456648.963    -2475719.606        1115.953          45.000                  
                                                
  22123557.845   -11921658.207        6513.535          32.000                  
                                                
  19983155.329                        2717.546          21.000                  
                                                
  23753761.443                        1203.777          29.000                  
                                                
  23711195.402                         265.630          20.000                  
                                                
 18  5 21 13 49 14.0000000  0 13R 9R16R18G 8G 3R19G22G23G26G27G16G31
                                G14
  20027981.181                        2899.754          24.000                  
                                                
  22553398.053                         869.786          28.000                  
                                                
  22683817.411    -7163931.437        3505.784          29.000                  
                                                
  24526137.765                        7166.895          22.000                  
                                                
  22813103.204    -2455208.774        1068.891          31.000                  
                                                
  22606253.011                        6484.543          23.000                  
                                                
  23783361.426    -1411989.842         701.308          35.000                  
                                                
  20957756.555                        5300.917          23.000                  
                                                
  21456542.786    -2476277.582        1116.106          45.000                  
                                                
  22122938.880   -11924914.967        6512.627          32.000                  
                                                
  19982895.183                        2715.835          22.000                  
                                                
  23753647.206    -2175323.910        1198.987          26.000                  
                                                
  23711170.886                         259.249          22.000                  
                                                
 18  5 21 13 49 14.5000000  0 13R 9R16R18G 8G 3R19G22G23G26G27G16G31
                                G14
  20027708.536                        2899.977          24.000                  
                                                
  22553316.704                         871.451          28.000                  
                                                
  22683488.648                        3505.061          29.000                  
                                                
  24525457.081                        7160.904          22.000                  
                                                
  22813001.449    -2455743.346        1068.515          31.000                  
                                                
  22605646.545                        6485.241          23.000                  
                                                
  23783294.739    -1412340.173         700.452          35.000                  
                                                
  20957253.291                        5298.612          23.000                  
                                                
  21456436.653    -2476835.355        1115.312          45.000                  
                                                
  22122322.738                        6512.596          32.000                  
                                                
  19982635.439                        2714.197          22.000                  
                                                
  23753532.934    -2175923.998        1200.198          26.000                  
                                                
  23711147.442                         259.275          22.000                  
                                                
 18  5 21 13 49 15.0000000  0 13R 9R16R18G 8G 3R19G22G23G26G27G16G31
                                G14
  20027436.855                        2898.617          24.000                  
                                                
  22553235.275                         870.267          27.000                  
                                                
  22683159.697    -7167437.634        3504.575          29.000                  
                                                
  24524778.111                        7160.572          19.000                  
                                                
  22812899.667    -2456277.979        1069.085          32.000                  
                                                
  22605040.660                        6484.078          28.000                  
                                                
  23783228.025    -1412690.660         700.946          38.000                  
                                                
  20956751.190                        5294.739          22.000                  
                                                
  21456330.484    -2477393.278        1115.751          45.000                  
                                                
  22121703.782   -11931428.312        6513.841          31.000                  
                                                
  19982376.419                        2716.393          18.000                  
                                                
  23753418.108    -2176524.643        1201.370          33.000                  
                                                
  23711123.810                         262.906          24.000                  
                                                
 18  5 21 13 49 15.5000000  0 13R 9R16R18G 8G 3R19G22G23G26G27G16G31
                                G14
  20027165.594                        2902.558          24.000                  
                                                
  22553153.640    -1482869.417         870.729          27.000                  
                                                
  22682830.603                        3503.756          29.000                  
                                                
  24524100.035                        7163.365          19.000                  
                                                
  22812797.894    -2456812.555        1069.345          32.000                  
                                                
  22604435.249    -7685015.814        6485.269          28.000                  
                                                
  23783161.320    -1413041.138         701.134          38.000                  
                                                
  20956248.641                        5299.858          22.000                  
                                                
  21456224.342    -2477951.123        1115.744          46.000                  
                                                
  22121085.031   -11934684.963        6513.327          31.000                  
                                                
  19982117.219                        2717.850          19.000                  
                                                
  23753301.977    -2177125.219        1200.145          33.000                  
                                                
  23711100.116                         260.620          24.000                  
                                                
 18  5 21 13 49 16.0000000  0 13R 9R16R18G 8G 3R19G22G23G26G27G16G31
                                G14
  20026895.066                        2896.404          24.000                  
                                                
  22553071.934    -1483304.605         870.519          29.000                  
                                                
  22682501.242                        3502.580          27.000                  
                                                
  24523419.940                        7168.246          23.000                  
                                                
  22812696.121    -2457347.105        1069.133          33.000                  
                                                
  22603829.757    -7688258.318        6484.915          32.000                  
                                                
  23783094.588    -1413391.692         701.346          39.000                  
                                                
  20955745.727                        5298.392          23.000                  
                                                
  21456118.191    -2478508.951        1115.626          46.000                  
                                                
  22120478.324   -11937941.520        6512.326          32.000                  
                                                
  19981857.761                        2717.523          23.000                  
                                                
  23753186.534    -2177725.714        1201.496          33.000                  
                                                
  23711076.484                         261.251          26.000                  
                                                
 18  5 21 13 49 16.5000000  0 13R 9R16R18G 8G 3R19G22G23G26G27G16G31
                                G14
  20026624.654                        2897.472          24.000                  
                                                
  22552989.826                         871.338          29.000                  
                                                
  22682172.005                        3502.359          27.000                  
                                                
  24522737.871                        7166.880          23.000                  
                                                
  22812594.366    -2457881.582        1068.621          33.000                  
                                                
  22603225.177                        6486.375          32.000                  
                                                
  23783027.865    -1413742.270         700.891          39.000                  
                                                
  20955243.250                        5294.351          23.000                  
                                                
  21456012.049    -2479066.774        1115.402          46.000                  
                                                
  22119857.572   -11941198.151        6513.421          33.000                  
                                                
  19981598.312                        2715.537          23.000                  
                                                
  23753068.804                        1202.670          33.000                  
                                                
  23711052.727                         260.463          26.000                  
                                                
 18  5 21 13 49 17.0000000  0 13R 9R16R18G 8G 3R19G22G23G26G27G16G31
                                G14
  20026353.992                        2899.140          20.000                  
                                                
  22552907.896                         869.291          28.000                  
                                                
  22681842.848                        3504.337          27.000                  
                                                
  24522055.033                        7164.079          26.000                  
                                                
  22812492.638    -2458415.931        1068.225          32.000                  
                                                
  22602619.184                        6484.831          29.000                  
                                                
  23782961.169    -1414092.687         700.983          37.000                  
                                                
  20954740.532                        5295.177          21.000                  
                                                
  21455905.952    -2479624.370        1115.169          46.000                  
                                                
  22119237.767   -11944454.417        6512.036          33.000                  
                                                
  19981338.621                        2714.869          22.000                  
                                                
  23752954.612                        1200.466          29.000                  
                                                
  23711028.765                         259.639          24.000                  
                                                
 18  5 21 13 49 17.5000000  0 13R 9R16R18G 8G 3R19G22G23G26G27G16G31
                                G14
  20026083.357                        2900.126          20.000                  
                                                
  22552826.056                         869.964          28.000                  
                                                
  22681513.951                        3504.716          27.000                  
                                                
  24521373.035                        7162.848          26.000                  
                                                
  22812390.972    -2458950.071        1067.680          32.000                  
                                                
  22602013.541    -7697985.945        6484.202          29.000                  
                                                
  23782894.464    -1414443.099         700.245          37.000                  
                                                
  20954236.580                        5297.322          21.000                  
                                                
  21455799.863    -2480181.876        1114.969          46.000                  
                                                
  22118620.803   -11947710.709        6513.731          33.000                  
                                                
  19981080.012                        2714.084          22.000                  
                                                
  23752840.241                        1200.315          29.000                  
                                                
  23711004.105                         260.849          24.000                  
                                                
 18  5 21 13 49 18.0000000  0 13R 9R16R18G 8G 3R19G22G23G26G27G16G31
                                G14
  20025814.419                        2902.399          22.000                  
                                                
  22552744.743                         869.810          27.000                  
                                                
  22681185.581    -7177949.655        3502.757          29.000                  
                                                
  24520692.163                        7162.046          23.000                  
                                                
  22812289.351    -2459484.181        1068.511          32.000                  
                                                
  22601407.638                        6482.938          30.000                  
                                                
  23782827.786    -1414793.374         700.451          37.000                  
                                                
  20953732.317                        5294.793          22.000                  
                                                
  21455693.793    -2480739.313        1114.942          45.000                  
                                                
  22118000.793   -11950966.821        6511.864          33.000                  
                                                
  19980822.135                        2710.873          23.000                  
                                                
  23752725.111                        1200.459          25.000                  
                                                
  23710980.116                         259.381          24.000                  
                                                
 18  5 21 13 49 18.5000000  0 13R 9R16R18G 8G 3R19G22G23G26G27G16G31
                                G14
  20025546.679                        2902.769          22.000                  
                                                
  22552663.529    -1485480.095         870.915          27.000                  
                                                
  22680857.390    -7179701.260        3502.943          29.000                  
                                                
  24520010.567                        7163.279          23.000                  
                                                
  22812187.721    -2460018.323        1068.189          32.000                  
                                                
  22600801.539                        6483.770          30.000                  
                                                
  23782761.045    -1415143.904         701.234          37.000                  
                                                
  20953228.294                        5296.108          22.000                  
                                                
  21455587.722    -2481296.754        1114.994          45.000                  
                                                
  22117381.408   -11954223.008        6512.697          33.000                  
                                                
  19980564.276                        2715.289          22.000                  
                                                
  23752609.677                        1200.569          25.000                  
                                                
  23710956.708                         260.364          24.000                  
                                                
 18  5 21 13 49 19.0000000  0 13R 9R16R18G 8G 3R19G22G23G26G27G16G31
                                G14
  20025278.706                        2897.162          23.000                  
                                                
  22552582.305                         871.528          28.000                  
                                                
  22680528.957                        3506.140          28.000                  
                                                
  24519329.239                        7163.866          22.000                  
                                                
  22812086.099    -2460552.326        1068.472          33.000                  
                                                
  22600195.725                        6483.288          27.000                  
                                                
  23782694.331    -1415494.254         700.746          35.000                  
                                                
  20952724.102                        5293.348          23.000                  
                                                
  21455481.669    -2481854.081        1115.013          45.000                  
                                                
  22116762.050   -11957479.0481       6511.666          33.000                  
                                                
  19980305.872                        2715.824          23.000                  
                                                
  23752494.458    -2181326.351        1200.483          26.000                  
                                                
  23710933.192                         259.399          25.000                  
                                                
 18  5 21 13 49 19.5000000  0 13R 9R16R18G 8G 3R19G22G23G26G27G16G31
                                G14
  20025008.383                        2896.453          23.000                  
                                                
  22552500.912                         871.420          28.000                  
                                                
  22680200.864                        3500.535          28.000                  
                                                
  24518648.992                        7166.391          22.000                  
                                                
  22811984.505    -2461086.283        1067.590          33.000                  
                                                
  22599589.920                        6485.666          27.000                  
                                                
  23782627.617    -1415844.697         700.979          35.000                  
                                                
  20952220.338                        5296.867          23.000                  
                                                
  21455375.617    -2482411.442        1114.790          45.000                  
                                                
  22116142.334   -11960735.130        6512.006          34.000                  
                                                
  19980047.057                        2714.032          23.000                  
                                                
  23752380.123                        1199.183          26.000                  
                                                
  23710908.864                         257.163          25.000                  
                                                
 18  5 21 13 49 20.0000000  0 13R 9R16R18G 8G 3R19G22G23G26G27G16G31
                                G14
  20024737.444                        2897.214          20.000                  
                                                
  22552419.357                         868.890          28.000                  
                                                
  22679873.057                        3501.894          25.000                  
                                                
  24517968.575                        7166.972          25.000                  
                                                
  22811882.884    -2461620.325        1068.270          32.000                  
                                                
  22598983.580                        6489.240          19.000                  
                                                
  23782560.885    -1416195.101         700.613          36.000                  
                                                
  20951717.075                        5296.298          24.000                  
                                                
  21455269.564    -2482968.757        1114.624          46.000                  
                                                
  22115521.028                        6511.085          32.000                  
                                                
  19979788.564                        2714.537          26.000                  
                                                
  23752265.985                        1202.510          28.000                  
                                                
  23710884.374                         262.271          19.000                  
                                                
 18  5 21 13 49 20.5000000  0 13R 9R16R18G 8G 3R19G22G23G26G27G16G31
                                G14
  20024466.577                        2895.380          20.000                  
                                                
  22552337.669                         871.195          28.000                  
                                                
  22679545.830                        3500.181          25.000                  
                                                
  24517286.336                        7169.458          25.000                  
                                                
  22811781.290    -2462154.243        1068.007          31.000                  
                                                
  22598377.489                        6484.436          19.000                  
                                                
  23782494.144    -1416545.611         701.132          36.000                  
                                                
  20951213.374                        5296.083          24.000                  
                                                
  21455163.520    -2483526.068        1114.848          46.000                  
                                                
  22114901.438   -11967247.110        6511.127          32.000                  
                                                
  19979530.446                        2711.983          25.000                  
                                                
  23752151.435    -2183127.558        1197.932          27.000                  
                                                
  23710859.536                         258.964          19.000                  
                                                
 18  5 21 13 49 21.0000000  0 13R 9R16R18G 8G 3R19G22G23G26G27G16G31
                                G14
  20024195.432                        2897.028          22.000                  
                                                
  22552256.008                         871.428          26.000                  
                                                
  22679219.176                        3500.935          22.000                  
                                                
  24516603.945                        7167.068          24.000                  
                                                
  22811679.695    -2462688.152        1068.322          32.000                  
                                                
  22597771.524    -7720682.819        6482.208          27.000                  
                                                
  23782427.403    -1416896.154         701.213          38.000                  
                                                
  20950709.378                        5294.459          24.000                  
                                                
  21455057.477    -2484083.353        1114.699          45.000                  
                                                
  22114281.767                        6512.629          33.000                  
                                                
  19979272.587                        2711.198          26.000                  
                                                
  23752037.154                        1201.540          30.000                  
                                                
  23710834.698                         259.664          21.000                  
                                                
 18  5 21 13 49 21.5000000  0 13R 9R16R18G 8G 3R19G22G23G26G27G16G31
                                G14
  20023924.663                        2897.596          22.000                  
                                                
  22552175.383                         873.083          26.000                  
                                                
  22678893.352                        3500.298          22.000                  
                                                
  24515922.358                        7166.477          24.000                  
                                                
  22811578.047    -2463222.194        1068.078          32.000                  
                                                
  22597166.238                        6482.716          27.000                  
                                                
  23782360.618    -1417246.910         701.688          38.000                  
                                                
  20950204.721                        5298.234          24.000                  
                                                
  21454951.388    -2484640.801        1114.984          45.000                  
                                                
  22113662.319                        6510.878          33.000                  
                                                
  19979014.773                        2715.235          26.000                  
                                                
  23751922.998                        1202.479          30.000                  
                                                
  23710810.334                         257.976          21.000                  
                                                
 18  5 21 13 49 22.0000000  0 13R 9R16R18G 8G 3R19G22G23G26G27G16G31
                                G14
  20023654.349                        2893.650          23.000                  
                                                
  22552095.061                         872.706          25.000                  
                                                
  22678567.314                        3501.863          22.000                  
                                                
  24515241.074                        7162.654          24.000                  
                                                
  22811476.417    -2463756.013        1067.293          31.000                  
                                                
  22596560.469    -7727165.492        6482.656          28.000                  
                                                
  23782293.886    -1417597.429         700.815          37.000                  
                                                
  20949699.180                        5296.643          22.000                  
                                                
  21454845.362    -2485197.994        1113.968          45.000                  
                                                
  22113042.675                        6513.274          31.000                  
                                                
  19978756.842                        2711.570          24.000                  
                                                
  23751808.877                        1199.521          27.000                  
                                                
  23710786.202                         260.971          19.000                  
                                                
 18  5 21 13 49 22.5000000  0 13R 9R16R18G 8G 3R19G22G23G26G27G16G31
                                G14
  20023384.170                        2897.732          23.000                  
                                                
  22552014.258                         870.814          25.000                  
                                                
  22678241.829                        3504.934          22.000                  
                                                
  24514558.817                        7166.531          24.000                  
                                                
  22811374.796    -2464289.643        1066.893          30.000                  
                                                
  22595954.664    -7730406.717        6483.584          28.000                  
                                                
  23782227.154    -1417947.896         700.535          36.000                  
                                                
  20949194.988                        5292.642          20.000                  
                                                
  21454739.354    -2485755.005        1114.063          44.000                  
                                                
  22112423.263                        6512.947          30.000                  
                                                
  19978499.243                        2714.559          24.000                  
                                                
  23751694.042                        1200.514          26.000                  
                                                
  23710762.561                         263.849          18.000                  
                                                
 18  5 21 13 49 23.0000000  0 13R 9R16R18G 8G 3R19G22G23G26G27G16G31
                                G14
  20023113.097                        2898.005          21.000                  
                                                
  22551933.436                         870.849          22.000                  
                                                
  22677916.434                        3500.068          22.000                  
                                                
  24513877.016                        7166.197          23.000                  
                                                
  22811273.220    -2464823.064        1066.954          30.000                  
                                                
  22595348.851                        6482.216          28.000                  
                                                
  23782160.458    -1418298.182         700.760          35.000                  
                                                
  20948690.465                        5294.898          20.000                  
                                                
  21454633.391    -2486311.820        1113.678          43.000                  
                                                
  22111803.923                        6516.125          29.000                  
                                                
  19978241.804                        2711.107          25.000                  
                                                
  23751578.474                        1204.244          24.000                  
                                                
  23710739.001                         260.220          19.000                  
                                                
 18  5 21 13 49 23.5000000  0 13R 9R16R18G 8G 3R19G22G23G26G27G16G31
                                G14
  20022842.604                        2893.512          21.000                  
                                                
  22551852.355                         872.497          22.000                  
                                                
  22677589.914                        3502.767          22.000                  
                                                
  24513194.919                        7167.462          23.000                  
                                                
  22811171.679    -2465356.440        1066.652          30.000                  
                                                
  22594743.797    -7736888.116        6482.541          28.000                  
                                                
  23782093.753    -1418648.528         700.859          35.000                  
                                                
  20948185.692                        5292.486          20.000                  
                                                
  21454527.428    -2486868.605        1113.631          43.000                  
                                                
  22111183.537                        6515.752          29.000                  
                                                
  19977984.070                        2710.623          25.000                  
                                                
  23751464.068                        1203.183          24.000                  
                                                
  23710715.860                         258.908          19.000                  
                                                
 18  5 21 13 49 24.0000000  0 13R 9R16R18G 8G 3R19G22G23G26G27G16G31
                                G14
  20022573.220                        2893.034          19.000                  
                                                
  22551769.792                         871.504          17.000                  
                                                
  22677264.564                        3497.093          24.000                  
                                                
  24512512.582                        7166.888          25.000                  
                                                
  22811070.156    -2465889.738        1066.938          30.000                  
                                                
  22594138.752    -7740128.929        6482.050          30.000                  
                                                
  23782027.066    -1418998.738         700.940          35.000                  
                                                
  20947681.043                        5295.671          16.000                  
                                                
  21454421.491    -2487425.256        1113.352          44.000                  
                                                
  22110562.017                        6518.352          29.000                  
                                                
  19977726.729                        2711.649          26.000                  
                                                
  23751350.081                        1204.007          15.000                  
                                                
  23710693.453                         253.836          17.000                  
                                                
 18  5 21 13 49 24.5000000  0 13R 9R16R18G 8G 3R19G22G23G26G27G16G31
                                G14
  20022302.451                        2897.590          19.000                  
                                                
  22551687.022                         873.754          17.000                  
                                                
  22676939.562                        3499.870          24.000                  
                                                
  24511829.047                        7165.775          25.000                  
                                                
  22810968.669    -2466422.987        1066.619          29.000                  
                                                
  22593534.055    -7743369.736        6481.599          30.000                  
                                                
  23781960.361    -1419349.042         700.712          34.000                  
                                                
  20947176.735                        5294.352          15.000                  
                                                
  21454315.537    -2487981.967        1113.322          43.000                  
                                                
  22109940.371   -11993305.270        6511.494          28.000                  
                                                
  19977469.692                        2709.347          25.000                  
                                                
  23751235.907                        1203.017          15.000                  
                                                
  23710670.616                         258.336          16.000                  
                                                
 18  5 21 13 49 25.0000000  0 13R 9R16R18G 8G 3R19G22G23G26G27G16G31
                                G14
  20022031.511                        2893.367          18.000                  
                                                
  22551604.432                         868.891          23.000                  
                                                
  22676614.328                        3498.054          24.000                  
                                                
  24511145.852                        7166.528          25.000                  
                                                
  22810867.155    -2466956.209        1066.544          29.000                  
                                                
  22592934.022    -7746610.436        6481.422          32.000                  
                                                
  23781893.647    -1419699.346         700.694          33.000                  
                                                
  20946673.365                        5297.263          15.000                  
                                                
  21454209.600    -2488538.614        1113.295          44.000                  
                                                
  22109319.655                        6512.252          29.000                  
                                                
  19977212.861                        2709.754          25.000                  
                                                
  23751120.518                        1199.067          16.000                  
                                                
  23710647.306                         261.268          16.000                  
                                                
 18  5 21 13 49 25.5000000  0 13R 9R16R18G 8G 3R19G22G23G26G27G16G31
                                G14
  20021758.124                        2898.996          18.000                  
                                                
  22551521.778                         872.602          23.000                  
                                                
  22676288.763                        3495.731          24.000                  
                                                
  24510462.763                        7167.976          26.000                  
                                                
  22810765.668    -2467489.255        1065.928          29.000                  
                                                
  22592333.525    -7749851.334        6478.960          32.000                  
                                                
  23781815.604    -1420049.645         699.792          34.000                  
                                                
  20946169.351                        5295.639          15.000                  
                                                
  21454103.691    -2489095.078        1112.778          44.000                  
                                                
  22108699.484   -11999818.858        6509.692          30.000                  
                                                
  19976956.342                        2708.327          25.000                  
                                                
  23751005.057                        1198.829          16.000                  
                                                
  23710624.889                         257.093          17.000                  
                                                
 18  5 21 13 49 26.0000000  0 13R 9R16R18G 8G 3R19G22G23G26G27G16G31
                                G14
  20021484.567                        2897.122          23.000                  
                                                
  22551439.590                         866.885          23.000                  
                                                
  22675962.090                        3497.184          26.000                  
                                                
  24509779.389                        7165.729          26.000                  
                                                
  22810664.190    -2468022.221        1066.210          30.000                  
                                                
  22591728.194                        6481.568          30.000                  
                                                
  23781747.961    -1420399.808         700.928          31.000                  
                                                
  20945665.587                        5294.232          20.000                  
                                                
  21453997.799    -2489651.496        1112.987          44.000                  
                                                
  22108079.634                        6509.165          31.000                  
                                                
  19976699.761                        2708.738          28.000                  
                                                
  23750889.507                        1198.624          26.000                  
                                                
  23710600.989                         258.307          20.000                  
                                                
 18  5 21 13 49 26.5000000  0 13R 9R16R18G 8G 3R19G22G23G26G27G16G31
                                G14
  20021212.896                        2896.647          23.000                  
                                                
  22551357.812                         869.030          23.000                  
                                                
  22675634.855                        3499.500          26.000                  
                                                
  24509096.400                        7166.871          26.000                  
                                                
  22810558.637                        1065.624          30.000                  
                                                
  22591122.666    -7756332.088        6481.104          30.000                  
                                                
  23781679.871    -1420750.006         700.604          31.000                  
                                                
  20945163.191                        5290.345          20.000                  
                                                
  21453891.925    -2490207.797        1112.632          44.000                  
                                                
  22107459.955   -12006328.687        6509.905          31.000                  
                                                
  19976443.519                        2710.589          28.000                  
                                                
  23750773.403                        1202.586          26.000                  
                                                
  23710576.768                         257.500          20.000                  
                                                
 18  5 21 13 49 27.0000000  0 13R 9R16R18G 8G 3R19G22G23G26G27G16G31
                                G14
  20020940.447                        2896.146          25.000                  
                                                
  22551277.464                         870.283          21.000                  
                                                
  22675307.557                        3497.618          26.000                  
                                                
  24508413.472                        7164.362          26.000                  
                                                
  22810456.570                        1067.506          29.000                  
                                                
  22590517.290    -7759572.294        6481.168          31.000                  
                                                
  23781602.578    -1421100.209         700.841          31.000                  
                                                
  20944660.598                        5294.872          20.000                  
                                                
  21453786.042    -2490764.114        1112.871          44.000                  
                                                
  22106840.480   -12009583.585        6510.497          30.000                  
                                                
  19976187.205                        2710.385          28.000                  
                                                
  23750658.085                        1199.820          25.000                  
                                                
  23710552.117                         259.241          18.000                  
                                                
 18  5 21 13 49 27.5000000  0 13R 9R16R18G 8G 3R19G22G23G26G27G16G31
                                G14
  20020668.561     -836465.769        2892.990          25.000                  
                                                
  22551196.312                         872.679          21.000                  
                                                
  22674979.669                        3496.233          26.000                  
                                                
  24507730.777                        7165.512          26.000                  
                                                
  22810354.627                        1064.763          29.000                  
                                                
  22589911.879    -7762812.484        6480.399          31.000                  
                                                
  23781540.278    -1421450.547         701.029          31.000                  
                                                
  20944156.620                        5294.414          19.000                  
                                                
  21453680.168    -2491320.464        1112.846          43.000                  
                                                
  22106220.836                        6513.280          30.000                  
                                                
  19975930.562                        2711.014          27.000                  
                                                
  23750543.625                        1200.028          25.000                  
                                                
  23710527.154                         259.375          18.000                  
                                                
 18  5 21 13 49 28.0000000  0 13R 9R16R18G 8G 3R19G22G23G26G27G16G31
                                G14
  20020396.612     -837914.166        2895.942          29.000                  
                                                
  22551113.829                         873.678          21.000                  
                                                
  22674651.684                        3493.610          25.000                  
                                                
  24507048.297                        7164.909          26.000                  
                                                
  22810252.863    -2470154.649        1066.769          29.000                  
                                                
  22589306.450    -7766052.572        6480.038          32.000                  
                                                
  23781472.715    -1421800.749         700.451          31.000                  
                                                
  20943652.454                        5298.062          14.000                  
                                                
  21453574.312    -2491876.679        1112.478          44.000                  
                                                
  22105602.362   -12016097.166        6509.392          30.000                  
                                                
  19975673.453                        2709.267          28.000                  
                                                
  23750429.174                        1198.755          26.000                  
                                                
  23710502.594                         258.095          18.000                  
                                                
 18  5 21 13 49 28.5000000  0 13R 9R16R18G 8G 3R19G22G23G26G27G16G31
                                G14
  20020124.235                        2896.777          29.000                  
                                                
  22551031.452                         871.549          21.000                  
                                                
  22674324.475                        3493.463          25.000                  
                                                
  24506365.709                        7165.250          26.000                  
                                                
  22810150.902    -2470687.297        1065.794          29.000                  
                                                
  22588701.020    -7769292.494        6479.791          32.000                  
                                                
  23781405.108    -1422150.890         700.439          31.000                  
                                                
  20943148.610                        5294.760          15.000                  
                                                
  21453468.483    -2492432.782        1111.984          44.000                  
                                                
  22104983.889   -12019351.786        6508.996          30.000                  
                                                
  19975416.479     -770882.008        2707.936          28.000                  
                                                
  23750314.518                        1199.216          26.000                  
                                                
  23710478.131                         256.634          19.000                  
                                                
 18  5 21 13 49 29.0000000  0 13R 9R16R18G 8G 3R19G22G23G26G27G16G31
                                G14
  20019852.045     -840810.447        2895.632          29.000                  
                                                
  22550948.898                         870.119          21.000                  
                                                
  22673997.731                        3488.783          21.000                  
                                                
  24505683.541                        7165.146          27.000                  
                                                
  22810050.889    -2471219.717        1064.878          31.000                  
                                                
  22588095.814    -7772532.224        6479.430          31.000                  
                                                
  23781336.428                         700.445          31.000                  
                                                
  20942646.017                        5290.600          19.000                  
                                                
  21453362.680    -2492988.740        1111.957          46.000                  
                                                
  22104364.325   -12022606.245        6509.199          31.000                  
                                                
  19975159.799     -772236.238        2708.457          30.000                  
                                                
  23750199.906    -2193333.999        1200.818          29.000                  
                                                
  23710453.311                         259.002          20.000                  
                                                
 18  5 21 13 49 29.5000000  0 13R 9R16R18G 8G 3R19G22G23G26G27G16G31
                                G14
  20019580.212     -842258.533        2896.819          29.000                  
                                                
  22550866.495                         867.715          21.000                  
                                                
  22673670.022                        3491.120          21.000                  
                                                
  24505000.971                        7166.688          27.000                  
                                                
  22809948.875    -2471752.194        1065.469          32.000                  
                                                
  22587490.501    -7775771.885        6479.567          31.000                  
                                                
  23781268.910    -1422851.049         699.647          31.000                  
                                                
  20942143.183                        5293.335          20.000                  
                                                
  21453256.887    -2493544.657        1112.115          46.000                  
                                                
  22103747.736   -12025860.656        6509.147          31.000                  
                                                
  19974904.469     -773590.322        2708.469          30.000                  
                                                
  23750085.124                        1201.979          29.000                  
                                                
  23710428.687                         260.009          21.000                  
                                                
 18  5 21 13 49 30.0000000  0 13R 9R16R18G 8G 3R19G22G23G26G27G16G31
                                G14
  20019308.103     -843706.743        2897.261          30.000                  
                                                
  22550782.725                         871.476          21.000                  
                                                
  22673342.947                        3495.170          18.000                  
                                                
  24504318.009                        7168.367          28.000                  
                                                
  22809851.721    -2472284.692        1065.094          33.000                  
                                                
  22586887.011    -7779011.635        6480.421          31.000                  
                                                
  23781201.240    -1423201.346         700.735          31.000                  
                                                
  20941639.714                        5287.749          21.000                  
                                                
  21453151.075    -2494100.680        1112.236          47.000                  
                                                
  22103128.593   -12029115.161        6509.371          32.000                  
                                                
  19974649.326     -774944.430        2708.252          31.000                  
                                                
  23749970.512    -2194534.558        1201.495          31.000                  
                                                
  23710403.635                         259.866          18.000                  
                                                
 18  5 21 13 49 30.5000000  0 13R 9R16R18G 8G 3R19G22G23G26G27G16G31
                                G14
  20019033.420     -845154.662        2895.291          30.000                  
                                                
  22550698.838                         872.095          21.000                  
                                                
  22673016.436                        3489.362          18.000                  
                                                
  24503635.108                        7168.761          28.000                  
                                                
  22809751.735    -2472816.991        1063.964          33.000                  
                                                
  22586281.742    -7782251.095        6478.389          31.000                  
                                                
  23781125.958    -1423551.411         699.660          31.000                  
                                                
  20941136.469                        5289.792          21.000                  
                                                
  21453045.300    -2494656.465        1111.295          47.000                  
                                                
  22102508.609   -12032369.378        6508.484          32.000                  
                                                
  19974393.379     -776298.284        2707.762          31.000                  
                                                
  23749857.535    -2195134.768        1200.719          31.000                  
                                                
  23710379.672                         256.075          18.000                  
                                                
 18  5 21 13 49 31.0000000  0 13R 9R16R18G 8G 3R19G22G23G26G27G16G31
                                G14
  20018755.378     -846602.508        2894.937          32.000                  
                                                
  22550616.087                         867.226          18.000                  
                                                
  22672685.439                        3486.264           1.000                  
                                                
  24502952.279                        7167.334          29.000                  
                                                
  22809651.785    -2473349.2051       1065.057          32.000                  
                                                
  22585676.912    -7785490.416        6478.220          31.000                  
                                                
  23781060.995    -1423901.4711        699.549          32.000                  
                                                
  20940632.375                        5290.702          17.000                  
                                                
  21452939.551    -2495212.144        1111.005          47.000                  
                                                
  22101889.733   -12035623.0441       6508.364          33.000                  
                                                
  19974135.216     -777651.3931       2706.531          31.000                  
                                                
  23749745.496    -2195734.3991       1200.588          31.000                  
                                                
  23710354.495                         254.249          18.000                  
                                                
 18  5 21 13 49 31.5000000  0 13R 9R16R18G 8G 3R19G22G23G26G27G16G31
                                G14
  20018484.180     -848050.275        2895.693          32.000                  
                                                
  22550534.381                         865.055          18.000                  
                                                
  22672358.346                        3493.955           1.000                  
                                                
  24502269.414    -2452083.936        7166.485          29.000                  
                                                
  22809550.780    -2473881.224        1063.799          32.000                  
                                                
  22585072.000    -7788729.597        6477.788          31.000                  
                                                
  23781001.536    -1424251.423         699.799          32.000                  
                                                
  20940128.218                        5292.962          18.000                  
                                                
  21452833.829    -2495767.703        1111.003          47.000                  
                                                
  22101270.938   -12038877.005        6507.624          33.000                  
                                                
  19973877.750     -779004.869        2707.292          31.000                  
                                                
  23749631.546    -2196334.500        1200.873          32.000                  
                                                
  23710330.122                         255.589          18.000                  
                                                
 18  5 21 13 49 32.0000000  0 13R 9R16R18G 8G 3R19G22G23G26G27G16G31
                                G14
  20018212.115     -849498.084        2895.678          32.000                  
                                                
  22550452.639                         871.270          21.000                  
                                                
  22672031.120                        3493.955           1.000                  
                                                
  24501586.943    -2455667.183        7168.145          29.000                  
                                                
  22809449.623    -2474413.315        1064.307          33.000                  
                                                
  22584469.350    -7791968.824        6479.161          31.000                  
                                                
  23780938.404    -1424601.468         699.603          33.000                  
                                                
  20939624.553                        5292.169          16.000                  
                                                
  21452728.098    -2496323.324        1111.437          47.000                  
                                                
  22100652.446   -12042131.043        6507.803          33.000                  
                                                
  19973620.008     -780358.272        2706.983          31.000                  
                                                
  23749517.756    -2196934.691        1200.661          33.000                  
                                                
  23710306.159                         254.372          17.000                  
                                                
 18  5 21 13 49 32.5000000  0 13R 9R16R18G 8G 3R19G22G23G26G27G16G31
                                G14
  20017941.113     -850945.8121       2895.956          32.000                  
                                                
  22550370.334                         870.079          21.000                  
                                                
  22671703.884                        3493.955           1.000                  
                                                
  24500904.507    -2459250.356        7166.558          29.000                  
                                                
  22809348.494    -2474945.276        1063.616          33.000                  
                                                
  22583865.055    -7795207.908        6478.695          31.000                  
                                                
  23780872.325    -1424951.450         699.711          33.000                  
                                                
  20939122.139                        5290.000          16.000                  
                                                
  21452622.393    -2496878.799        1111.099          47.000                  
                                                
  22100033.589   -12045384.924        6507.480          33.000                  
                                                
  19973362.318     -781711.491        2706.174          31.000                  
                                                
  23749403.975    -2197534.797        1200.105          33.000                  
                                                
  23710281.938                         251.499          17.000                  
                                                
 18  5 21 13 49 33.0000000  0 13R 9R16R18G 8G 3R19G22G23G26G27G16G31
                                G14
  20017669.746     -852393.536        2896.311          32.000                  
                                                
  22550288.199                         871.214          20.000                  
                                                
  22671376.649                        3493.955           1.000                  
                                                
  24500221.973    -2462833.633        7168.120          30.000                  
                                                
  22809247.292    -2475477.214        1064.697          32.000                  
                                                
  22583254.980    -7798446.835        6478.526          31.000                  
                                                
  23780806.603    -1425301.504         700.050          36.000                  
                                                
  20938618.643                        5295.442          17.000                  
                                                
  21452516.680    -2497434.282        1111.526          48.000                  
                                                
  22099414.668   -12048638.843        6508.333          33.000                  
                                                
  19973104.862     -783064.639        2706.427          31.000                  
                                                
  23749290.346    -2198134.999        1201.018          35.000                  
                                                
  23710258.279                         254.951          20.000                  
                                                
 18  5 21 13 49 33.5000000  0 13R 9R16R18G 8G 3R19G22G23G26G27G16G31
                                G14
  20017398.378     -853841.213        2895.507          32.000                  
                                                
  22550207.154                         872.048          21.000                  
                                                
  22671049.414                        3493.955           1.000                  
                                                
  24499539.340    -2466417.021        7168.192          30.000                  
                                                
  22809146.118    -2476009.144        1063.585          32.000                  
                                                
  22582649.703    -7801685.834        6479.080          31.000                  
                                                
  23780740.809    -1425651.641         700.757          36.000                  
                                                
  20938113.870                        5297.779          17.000                  
                                                
  21452410.976    -2497989.760        1110.987          48.000                  
                                                
  22098795.658   -12051892.697        6507.843          33.000                  
                                                
  19972847.387     -784417.735        2706.245          31.000                  
                                                
  23749176.886    -2198735.281        1200.595          35.000                  
                                                
  23710233.772                         258.086          20.000                  
                                                
 18  5 21 13 49 34.0000000  0 13R 9R16R18G 8G 3R19G22G23G26G27G16G31
                                G14
  20017126.652     -855288.816        2894.276          32.000                  
                                                
  22550127.566                         868.209          19.000                  
                                                
  22670722.500                        3493.935          24.000                  
                                                
  24498850.588    -2470000.363        7167.748          30.000                  
                                                
  22809044.944    -2476540.998        1063.511          33.000                  
                                                
  22582044.416    -7804924.603        6476.688          30.000                  
                                                
  23780675.229    -1426001.671         699.693          35.000                  
                                                
  20937608.713                        5295.582          19.000                  
                                                
  21452305.290    -2498545.136        1110.731          48.000                  
                                                
  22098176.667   -12055146.467        6507.575          34.000                  
                                                
  19972589.858     -785770.678        2705.679          31.000                  
                                                
  23749063.793    -2199335.483        1201.093          35.000                  
                                                
  23710209.854                         259.461          24.000                  
                                                
 18  5 21 13 49 34.5000000  0 13R 9R16R18G 8G 3R19G22G23G26G27G16G31
                                G14
  20016855.150     -856736.408        2894.945          32.000                  
                                                
  22550046.914                         871.996          19.000                  
                                                
  22670396.077                        3491.628          24.000                  
                                                
  24498171.565    -2473583.654        7166.067          30.000                  
                                                
  22808943.751    -2477072.796        1064.872          33.000                  
                                                
  22581434.010    -7808163.299        6476.622          30.000                  
                                                
  23780609.337    -1426351.679         699.762          35.000                  
                                                
  20937105.879                        5285.911          19.000                  
                                                
  21452199.612    -2499100.430        1110.509          48.000                  
                                                
  22097557.567   -12058400.172        6507.916          34.000                  
                                                
  19972332.428     -787123.429        2704.784          31.000                  
                                                
  23748950.423    -2199935.645        1200.232          35.000                  
                                                
  23710186.231                         259.626          24.000                  
                                                
 18  5 21 13 49 35.0000000  0 13R 9R16R18G 8G 3R19G22G23G26G27G16G31
                                G14
  20016583.800     -858183.864        2894.418          33.000                  
                                                
  22549965.431                         870.929          21.000                  
                                                
  22670070.316                        3489.653          27.000                  
                                                
  24497487.878    -2477166.974        7166.458          31.000                  
                                                
  22808842.836    -2477604.326        1062.262          32.000                  
                                                
  22580829.483    -7811401.856        6476.715          31.000                  
                                                
  23780543.320    -1426701.659         698.994          35.000                  
                                                
  20936602.910                        5282.807          17.000                  
                                                
  21452093.962    -2499655.608        1110.296          48.000                  
                                                
  22096938.459   -12061653.643        6506.045          34.000                  
                                                
  19972075.177     -788476.039        2704.610          31.000                  
                                                
  23748837.035    -2200535.759        1200.426          37.000                  
                                                
  23710162.555                         262.531          21.000                  
                                                
 18  5 21 13 49 35.5000000  0 13R 9R16R18G 8G 3R19G22G23G26G27G16G31
                                G14
  20016312.504     -859631.142        2894.616          33.000                  
                                                
  22549883.931                         867.629          21.000                  
                                                
  22669744.135                        3487.115          27.000                  
                                                
  24496805.844    -2480750.149        7166.131          31.000                  
                                                
  22808741.947    -2478135.773        1062.624          32.000                  
                                                
  22580224.295    -7814640.167        6476.355          31.000                  
                                                
  23780477.250    -1427051.473         699.498          34.000                  
                                                
  20936105.160                        5284.971          17.000                  
                                                
  21451988.347    -2500210.583        1109.762          48.000                  
                                                
  22096319.423   -12064906.978        6506.071          34.000                  
                                                
  19971818.149     -789828.334        2704.466          31.000                  
                                                
  23748723.513    -2201135.712        1199.984          37.000                  
                                                
  23710138.217                         257.755          20.000                  
                                                
 18  5 21 13 49 36.0000000  0 13R 9R16R18G 8G 3R19G22G23G26G27G16G31
                                G14
  20016041.145     -861078.502        2894.814          33.000                  
                                                
  22549801.921                         873.421          18.000                  
                                                
  22669417.748                        3486.121          26.000                  
                                                
  24496123.793    -2484333.476        7164.916          30.000                  
                                                
  22808641.059    -2478667.295        1063.885          32.000                  
                                                
  22579619.420    -7817878.533        6476.860          32.000                  
                                                
  23780411.250    -1427401.463         700.135          34.000                  
                                                
  20935609.759                        5286.082          14.000                  
                                                
  21451882.723    -2500765.657        1110.234          47.000                  
                                                
  22095700.431   -12068160.392        6507.514          34.000                  
                                                
  19971561.023     -791180.664        2705.031          31.000                  
                                                
  23748609.902    -2201735.878        1200.920          37.000                  
                                                
  23710112.665                         256.563          20.000                  
                                                
 18  5 21 13 49 36.5000000  0 13R 9R16R18G 8G 3R19G22G23G26G27G16G31
                                G14
  20015769.750     -862525.954        2895.307          33.000                  
                                                
  22549720.501                         870.662          18.000                  
                                                
  22669091.255                        3487.673          26.000                  
                                                
  24495441.759    -2487917.049        7165.630          30.000                  
                                                
  22808540.028    -2479198.811        1063.483          32.000                  
                                                
  22579014.116    -7821116.4251       6476.518          32.000                  
                                                
  23780345.224    -1427751.505         699.844          34.000                  
                                                
  20935112.679                        5288.393          14.000                  
                                                
  21451777.081    -2501320.775        1110.175          47.000                  
                                                
  22095081.394   -12071413.834        6506.758          34.000                  
                                                
  19971303.870     -792532.983        2704.950          31.000                  
                                                
  23748496.237    -2202336.112        1200.770          37.000                  
                                                
  23710085.450                         258.141          20.000                  
                                                
 18  5 21 13 49 37.0000000  0 13R 9R16R18G 8G 3R19G22G23G26G27G16G31
                                G14
  20015498.391     -863973.373        2894.668          32.000                  
                                                
  22549637.678                         870.164          19.000                  
                                                
  22668764.511                        3492.637          25.000                  
                                                
  24494759.761    -2491500.653        7167.165          30.000                  
                                                
  22808438.978    -2479730.305        1063.323          31.000                  
                                                
  22578409.008    -7824354.769        6476.427          31.000                  
                                                
  23780279.297    -1428101.630         700.022          35.000                  
                                                
  20934610.738                        5286.301          19.000                  
                                                
  21451671.449    -2501875.867        1109.981          47.000                  
                                                
  22094462.349   -12074667.224        6506.050          34.000                  
                                                
  19971046.806     -793885.173        2704.379          32.000                  
                                                
  23748382.563    -2202936.366        1200.548          37.000                  
                                                
  23710058.861                         257.978          14.000                  
                                                
 18  5 21 13 49 37.5000000  0 13R 9R16R18G 8G 3R19G22G23G26G27G16G31
                                G14
  20015227.157     -865420.672        2894.478          32.000                  
                                                
  22549554.953                         869.159          19.000                  
                                                
  22668437.945                        3490.822          25.000                  
                                                
  24494077.915    -2495084.153        7167.129          30.000                  
                                                
  22808337.947    -2480261.663        1062.454          31.000                  
                                                
  22577803.981    -7827592.926        6476.436          32.000                  
                                                
  23780213.324    -1428451.670         700.481          34.000                  
                                                
  20934107.859                        5288.592          19.000                  
                                                
  21451565.843    -2502430.839        1110.083          47.000                  
                                                
  22093843.384   -12077920.538        6507.308          34.000                  
                                                
  19970789.751     -795237.191        2704.142          32.000                  
                                                
  23748268.791    -2203536.573        1200.665          37.000                  
                                                
  23710032.093                         260.401          14.000                  
                                                
 18  5 21 13 49 38.0000000  0 13R 9R16R18G 8G 3R19G22G23G26G27G16G31
                                G14
  20014955.986     -866867.967        2895.263          33.000                  
                                                
  22549472.577                         868.745          21.000                  
                                                
  22668111.076                        3489.544          26.000                  
                                                
  24493395.774                        7168.268          30.000                  
                                                
  22808236.871    -2480792.955        1062.693          31.000                  
                                                
  22577199.034    -7830831.003        6476.487          32.000                  
                                                
  23780147.414    -1428801.689         700.489          35.000                  
                                                
  20933605.820                        5287.326          21.000                  
                                                
  21451460.246    -2502985.754        1109.996          47.000                  
                                                
  22093224.481   -12081173.709        6506.511          34.000                  
                                                
  19970532.741     -796589.045        2703.503          32.000                  
                                                
  23748154.957    -2204136.802        1200.842          37.000                  
                                                
  23710005.772                         259.905          18.000                  
                                                
 18  5 21 13 49 38.5000000  0 13R 9R16R18G 8G 3R19G22G23G26G27G16G31
                                G14
  20014684.949     -868314.978        2894.025          33.000                  
                                                
  22549390.281                         872.643          21.000                  
                                                
  22667784.225                        3486.904          26.000                  
                                                
  24492713.597    -2502251.143        7166.190          30.000                  
                                                
  22808135.821    -2481324.040        1061.303          31.000                  
                                                
  22576594.060    -7834068.816        6476.200          32.000                  
                                                
  23780081.522    -1429151.527         699.246          35.000                  
                                                
  20933104.790                        5287.243          22.000                  
                                                
  21451354.693    -2503540.433        1109.200          47.000                  
                                                
  22092605.606   -12084426.687        6506.052          34.000                  
                                                
  19970275.766     -797940.653        2703.306          32.000                  
                                                
  23748041.095    -2204736.825        1199.851          37.000                  
                                                
  23709979.934                         255.733          18.000                  
                                                
 18  5 21 13 49 39.0000000  0 13R 9R16R18G 8G 3R19G22G23G26G27G16G31
                                G14
  20014413.911     -869761.980        2893.897          33.000                  
                                                
  22549307.851                         870.930          20.000                  
                                                
  22667457.463                        3484.924          25.000                  
                                                
  24492031.518    -2505834.631        7166.846          30.000                  
                                                
  22808034.799    -2481855.076        1062.337          31.000                  
                                                
  22575989.176    -7837306.529        6475.526          32.000                  
                                                
  23780015.621    -1429501.392         699.480          34.000                  
                                                
  20932602.697                        5289.654          20.000                  
                                                
  21451249.150    -2504095.078        1109.523          47.000                  
                                                
  22091986.766   -12087679.559        6505.137          34.000                  
                                                
  19970018.863     -799292.109        2702.429          32.000                  
                                                
  23747927.243    -2205336.889        1200.198          37.000                  
                                                
  23709954.551                         252.434          13.000                  
                                                
 18  5 21 13 49 39.5000000  0 13R 9R16R18G 8G 3R19G22G23G26G27G16G31
                                G14
  20014142.928     -871209.044        2894.660          33.000                  
                                                
  22549225.752                         870.782          20.000                  
                                                
  22667130.674                        3484.262          25.000                  
                                                
  24491350.039    -2509418.185        7166.985          31.000                  
                                                
  22807933.732    -2482386.186        1062.943          31.000                  
                                                
  22575384.256    -7840544.216        6475.206          32.000                  
                                                
  23779949.631    -1429851.354         700.391          35.000                  
                                                
  20932099.470                        5290.460          21.000                  
                                                
  21451143.598    -2504649.746        1109.534          47.000                  
                                                
  22091367.952   -12090932.490        6505.540          34.000                  
                                                
  19969761.978     -800643.545        2703.567          32.000                  
                                                
  23747813.328    -2205937.034        1200.803          37.000                  
                                                
  23709929.105                         252.001          13.000                  
                                                
 18  5 21 13 49 40.0000000  0 13R 9R16R18G 8G 3R19G22G23G26G27G16G31
                                G14
  20013872.006     -872655.994        2893.113          32.000                  
                                                
  22549144.725                         870.273          22.000                  
                                                
  22666804.118                        3484.427          26.000                  
                                                
  24490668.773    -2513001.786        7167.600          31.000                  
                                                
  22807832.888    -2482917.541        1059.850          30.000                  
                                                
  22574779.300    -7843781.816        6474.780          32.000                  
                                                
  23779883.659    -1430201.245         699.383          34.000                  
                                                
  20931596.689                        5288.334          23.000                  
                                                
  21451038.063    -2505204.329        1109.002          47.000                  
                                                
  22090749.237   -12094185.290        6504.438          34.000                  
                                                
  19969505.138     -801994.810        2702.259          32.000                  
                                                
  23747699.440    -2206537.139        1199.981          38.000                  
                                                
  23709902.346                         250.479          14.000                  
                                                
 18  5 21 13 49 40.5000000  0 13R 9R16R18G 8G 3R19G22G23G26G27G16G31
                                G14
  20013601.067     -874102.755        2893.379          32.000                  
                                                
  22549063.582                         867.392          22.000                  
                                                
  22666477.293                        3484.939          26.000                  
                                                
  24489989.527    -2516585.181        7167.165          31.000                  
                                                
  22807731.910    -2483448.200        1059.073          30.000                  
                                                
  22574174.345    -7847019.187        6475.606          32.000                  
                                                
  23779817.695    -1430550.964         698.717          34.000                  
                                                
  20931093.399                        5288.987          23.000                  
                                                
  21450932.582    -2505758.668        1108.466          47.000                  
                                                
  22090130.594   -12097437.901        6505.123          34.000                  
                                                
  19969248.333     -803345.756        2701.323          32.000                  
                                                
  23747585.596    -2207137.079        1199.849          38.000                  
                                                
  23709874.444                         253.873          15.000                  
                                                
 18  5 21 13 49 41.0000000  0 13R 9R16R18G 8G 3R19G22G23G26G27G16G31
                                G14
  20013330.137     -875549.486        2892.730          32.000                  
                                                
  22548982.662                         869.144          22.000                  
                                                
  22666149.978                        3485.018          26.000                  
                                                
  24489306.769    -2520168.680        7167.919          31.000                  
                                                
  22807631.155    -2483978.921        1062.441          30.000                  
                                                
  22573569.433    -7850256.410        6474.229          32.000                  
                                                
  23779751.749    -1430900.783         699.587          35.000                  
                                                
  20930589.904                        5285.851          22.000                  
                                                
  21450827.102    -2506312.989        1108.619          47.000                  
                                                
  22089511.968   -12100690.430        6504.704          34.000                  
                                                
  19968991.511     -804696.637        2701.754          32.000                  
                                                
  23747471.726    -2207737.054        1200.034          38.000                  
                                                
  23709848.060                         257.336          16.000                  
                                                
 18  5 21 13 49 41.5000000  0 13R 9R16R18G 8G 3R19G22G23G26G27G16G31
                                G14
  20013059.216     -876996.109        2893.238          32.000                  
                                                
  22548901.108                         872.541          22.000                  
                                                
  22665822.215                        3483.241          26.000                  
                                                
  24488624.369    -2523752.063        7166.816          31.000                  
                                                
  22807530.258                        1058.857          30.000                  
                                                
  22572964.567    -7853493.535        6474.595          32.000                  
                                                
  23779685.857    -1431250.467         699.648          36.000                  
                                                
  20930086.712                        5285.588          22.000                  
                                                
  21450721.648    -2506867.192        1108.751          47.000                  
                                                
  22088893.352   -12103942.843        6505.098          34.000                  
                                                
  19968734.697     -806047.283        2701.262          32.000                  
                                                
  23747357.891    -2208336.954        1200.005          38.000                  
                                                
  23709823.204                         259.843          16.000                  
                                                
 18  5 21 13 49 42.0000000  0 13R 9R16R18G 8G 3R19G22G23G26G27G16G31
                                G14
  20012788.277     -878442.808        2893.798          31.000                  
                                                
  22548820.518                         872.227          24.000                  
                                                
  22665494.301                        3484.183          27.000                  
                                                
  24487942.648    -2527335.613        7167.274          31.000                  
                                                
  22807429.521                        1059.961          29.000                  
                                                
  22572359.727    -7856730.615        6474.629          32.000                  
                                                
  23779619.974    -1431600.250         700.151          36.000                  
                                                
  20929584.619                        5283.540          24.000                  
                                                
  21450616.185    -2507421.419        1108.825          47.000                  
                                                
  22088274.735   -12107195.265        6505.518          34.000                  
                                                
  19968477.875     -807397.917        2700.565          31.000                  
                                                
  23747244.012    -2208936.946        1200.599          38.000                  
                                                
  23709799.564                         259.603          19.000                  
                                                
 18  5 21 13 49 42.5000000  0 13R 9R16R18G 8G 3R19G22G23G26G27G16G31
                                G14
  20012515.328                        2895.047          31.000                  
                                                
  22548739.902                         871.201          24.000                  
                                                
  22665167.164                        3483.284          27.000                  
                                                
  24487260.954    -2530919.149        7166.321          31.000                  
                                                
  22807328.892    -2485569.618        1062.169          29.000                  
                                                
  22571760.338                        6472.072          32.000                  
                                                
  23779554.073    -1431950.018         699.379          36.000                  
                                                
  20929081.865                        5284.766          24.000                  
                                                
  21450510.731    -2507975.583        1108.055          47.000                  
                                                
  22087656.083   -12110447.616        6505.056          35.000                  
                                                
  19968221.034     -808748.415        2700.698          31.000                  
                                                
  23747130.097    -2209536.936        1199.599          38.000                  
                                                
  23709776.432                         253.550          19.000                  
                                                
 18  5 21 13 49 43.0000000  0 13R 9R16R18G 8G 3R19G22G23G26G27G16G31
                                G14
  20012244.112     -881336.501        2893.417          31.000                  
                                                
  22548658.902                         874.849          24.000                  
                                                
  22664840.419                        3482.450          28.000                  
                                                
  24486579.278    -2534502.7651       7166.685          31.000                  
                                                
  22807228.289    -2486100.098        1062.388          30.000                  
                                                
  22571155.605    -7863205.039        6473.661          30.000                  
                                                
  23779488.208    -1432299.790         699.664          36.000                  
                                                
  20928577.879                        5288.271          24.000                  
                                                
  21450405.285    -2508529.682        1108.041          47.000                  
                                                
  22087037.448   -12113699.870        6503.929          34.000                  
                                                
  19967964.212     -810098.770        2700.167          32.000                  
                                                
  23747016.182    -2210136.931        1200.163          38.000                  
                                                
  23709752.488                         253.747          19.000                  
                                                
 18  5 21 13 49 43.5000000  0 13R 9R16R18G 8G 3R19G22G23G26G27G16G31
                                G14
  20011972.744     -882783.033        2892.318          31.000                  
                                                
  22548577.750                         870.344          24.000                  
                                                
  22664513.130    -7267028.971        3482.047          28.000                  
                                                
  24485897.610    -2538086.398        7166.962          31.000                  
                                                
  22807127.526    -2486630.417        1061.926          30.000                  
                                                
  22570550.784    -7866441.892        6474.308          30.000                  
                                                
  23779422.343    -1432649.585         699.759          36.000                  
                                                
  20928073.650                        5282.869          24.000                  
                                                
  21450299.849    -2509083.756        1108.186          47.000                  
                                                
  22086418.751   -12116952.137        6504.859          34.000                  
                                                
  19967707.327     -811449.059        2700.080          32.000                  
                                                
  23746902.231    -2210736.956        1200.420          38.000                  
                                                
  23709728.918                         255.109          19.000                  
                                                
 18  5 21 13 49 44.0000000  0 13R 9R16R18G 8G 3R19G22G23G26G27G16G31
                                G14
  20011706.084     -884229.506        2891.735          31.000                  
                                                
  22548496.499                         873.400          25.000                  
                                                
  22664186.324    -7268770.425        3482.535          30.000                  
                                                
  24485215.862    -2541670.063        7166.941          31.000                  
                                                
  22807026.905    -2487161.222        1061.250          30.000                  
                                                
  22569942.334    -7869678.686        6474.367          30.000                  
                                                
  23779356.451    -1432999.324         699.555          35.000                  
                                                
  20927569.958                        5285.573          24.000                  
                                                
  21450194.440    -2509637.729        1107.891          47.000                  
                                                
  22085800.072   -12120204.270        6504.761          34.000                  
                                                
  19967450.450     -812799.177        2699.781          31.000                  
                                                
  23746788.298    -2211336.921        1200.033          39.000                  
                                                
  23709707.511                         254.733          14.000                  
                                                
 18  5 21 13 49 44.5000000  0 13R 9R16R18G 8G 3R19G22G23G26G27G16G31
                                G14
  20011436.190     -885675.3291       2891.701          31.000                  
                                                
  22548415.151                         871.479          25.000                  
                                                
  22663857.811    -7270511.563        3481.320          30.000                  
                                                
  24484534.034    -2545253.620        7167.248          31.000                  
                                                
  22806926.946                        1060.046          30.000                  
                                                
  22569337.200                        6472.251          30.000                  
                                                
  23779290.586    -1433348.959         698.466          35.000                  
                                                
  20927066.097                        5285.067          23.000                  
                                                
  21450089.048    -2510191.541        1107.253          47.000                  
                                                
  22085181.411   -12123456.157        6503.383          34.000                  
                                                
  19967193.664     -814149.044        2699.247          31.000                  
                                                
  23746674.356    -2211936.814        1199.539          39.000                  
                                                
  23709685.577                         251.422          14.000                  
                                                
 18  5 21 13 49 45.0000000  0 13R 9R16R18G 8G 3R19G22G23G26G27G16G31
                                G14
  20011164.197                        2891.935          30.000                  
                                                
  22548334.356                         871.211          27.000                  
                                                
  22663525.474    -7272252.510        3482.490          31.000                  
                                                
  24483853.528                        7168.993          30.000                  
                                                
  22806827.541    -2488221.399        1059.670          30.000                  
                                                
  22568732.334    -7876151.578        6474.326          30.000                  
                                                
  23779224.729    -1433698.640         699.638          35.000                  
                                                
  20926561.547                        5288.513          24.000                  
                                                
  21449983.666    -2510745.302        1107.770          48.000                  
                                                
  22084562.731   -12126708.068        6503.771          33.000                  
                                                
  19966936.930     -815498.717        2698.521          31.000                  
                                                
  23746560.432    -2212536.691        1200.019          39.000                  
                                                
  23709660.328                         251.631          13.000                  
                                                
 18  5 21 13 49 45.5000000  0 13R 9R16R18G 8G 3R19G22G23G26G27G16G31
                                G14
  20010893.535                        2893.804          30.000                  
                                                
  22548253.507                         872.312          27.000                  
                                                
  22663198.283    -7273993.332        3481.100          31.000                  
                                                
  24483172.093                        7165.732          30.000                  
                                                
  22806727.966    -2488751.420        1059.466          30.000                  
                                                
  22568127.583    -7879387.909        6471.477          30.000                  
                                                
  23779158.793    -1434048.318         699.026          35.000                  
                                                
  20926056.390                        5286.772          24.000                  
                                                
  21449878.292    -2511299.068        1107.265          48.000                  
                                                
  22083943.945   -12129959.958        6503.627          33.000                  
                                                
  19966680.170     -816848.442        2698.723          31.000                  
                                                
  23746446.491    -2213136.628        1199.814          39.000                  
                                                
  23709636.134                         250.520          13.000                  
                                                
 18  5 21 13 49 46.0000000  0 13R 9R16R18G 8G 3R19G22G23G26G27G16G31
                                G14
  20010622.793                        2894.863          29.000                  
                                                
  22548172.409                         871.385          27.000                  
                                                
  22662870.932    -7275734.032        3481.315          33.000                  
                                                
  24482490.497    -2556005.109        7166.507          29.000                  
                                                
  22806628.042    -2489281.474        1060.516          31.000                  
                                                
  22567522.824    -7882624.190        6471.549          31.000                  
                                                
  23779092.793    -1434398.052         699.751          36.000                  
                                                
  20925551.715                        5286.923          24.000                  
                                                
  21449772.910    -2511852.806        1107.538          48.000                  
                                                
  22083325.168   -12133211.774        6502.999          33.000                  
                                                
  19966423.464     -818198.028        2699.351          31.000                  
                                                
  23746332.549    -2213736.601        1199.956          39.000                  
                                                
  23709610.742                         247.740          18.000                  
                                                
 18  5 21 13 49 46.5000000  0 13R 9R16R18G 8G 3R19G22G23G26G27G16G31
                                G14
  20010351.836                        2891.537          29.000                  
                                                
  22548091.712                         868.436          27.000                  
                                                
  22662543.768    -7277473.9011       3480.626          33.000                  
                                                
  24481808.606    -2559588.790        7167.924          29.000                  
                                                
  22806530.772    -2489811.304        1059.841          31.000                  
                                                
  22566918.199    -7885860.307        6471.156          31.000                  
                                                
  23779026.803    -1434747.666         699.321          36.000                  
                                                
  20925047.558                        5284.928          24.000                  
                                                
  21449667.572    -2512406.358        1107.106          48.000                  
                                                
  22082706.426   -12136463.449        6503.456          33.000                  
                                                
  19966166.811     -819547.366        2697.983          31.000                  
                                                
  23746218.634    -2214336.424        1199.661          39.000                  
                                                
  23709586.467                         251.372          18.000                  
                                                
 18  5 21 13 49 47.0000000  0 13R 9R16R18G 8G 3R19G22G23G26G27G16G31
                                G14
  20010081.093                        2891.503          27.000                  
                                                
  22548011.409                         870.546          27.000                  
                                                
  22662216.613    -7279213.976        3480.125          33.000                  
                                                
  24481130.190    -2563172.360        7167.779          31.000                  
                                                
  22806433.582    -2490341.032        1059.648          31.000                  
                                                
  22566313.869    -7889096.348        6471.990          30.000                  
                                                
  23778960.849    -1435097.195         699.049          36.000                  
                                                
  20924544.295                        5283.495          25.000                  
                                                
  21449562.252    -2512959.807        1107.099          48.000                  
                                                
  22082087.711   -12139714.973        6503.366          33.000                  
                                                
  19965910.176     -820896.485        2698.079          31.000                  
                                                
  23746104.719    -2214936.224        1199.775          39.000                  
                                                
  23709563.031                         251.521          16.000                  
                                                
 18  5 21 13 49 47.5000000  0 13R 9R16R18G 8G 3R19G22G23G26G27G16G31
                                G14
  20009810.413                        2891.261          27.000                  
                                                
  22547930.846                         871.858          27.000                  
                                                
  22661889.895    -7280953.960        3480.463          33.000                  
                                                
  24480445.834    -2566756.063        7168.447          31.000                  
                                                
  22806333.275    -2490870.726        1059.642          31.000                  
                                                
  22565712.076    -7892332.205        6471.101          30.000                  
                                                
  23778894.858    -1435446.743         698.961          36.000                  
                                                
  20924041.514                        5282.801          25.000                  
                                                
  21449456.941    -2513513.203        1106.792          48.000                  
                                                
  22081469.023   -12142966.421        6502.286          33.000                  
                                                
  19965653.568     -822245.556        2698.132          31.000                  
                                                
  23745990.795    -2215536.040        1199.758          39.000                  
                                                
  23709540.892                         251.731          16.000                  
                                                
 18  5 21 13 49 48.0000000  0 13R 9R16R18G 8G 3R19G22G23G26G27G16G31
                                G14
  20009540.082                        2889.698          27.000                  
                                                
  22547850.168    -1511173.771         871.614          29.000                  
                                                
  22661563.321    -7282693.711        3479.138          33.000                  
                                                
  24479763.916    -2570339.831        7168.823          31.000                  
                                                
  22806232.940    -2491400.385        1058.966          31.000                  
                                                
  22565107.727                        6471.188          30.000                  
                                                
  23778828.850    -1435796.438         699.671          37.000                  
                                                
  20923538.055                        5285.094          24.000                  
                                                
  21449351.621    -2514066.657        1107.080          48.000                  
                                                
  22080850.326   -12146217.970        6503.535          34.000                  
                                                
  19965396.951     -823594.551        2698.031          31.000                  
                                                
  23745876.844    -2216135.958        1200.163          40.000                  
                                                
  23709522.397                         245.849          15.000                  
                                                
 18  5 21 13 49 48.5000000  0 13R 9R16R18G 8G 3R19G22G23G26G27G16G31
                                G14
  20009269.616                        2890.674          27.000                  
                                                
  22547770.266                         872.857          29.000                  
                                                
  22661237.051    -7284433.422        3479.098          33.000                  
                                                
  24479077.058    -2573923.650        7166.308          31.000                  
                                                
  22806133.669    -2491930.097        1058.802          31.000                  
                                                
  22564503.174                        6471.850          30.000                  
                                                
  23778762.824    -1436146.157         699.832          37.000                  
                                                
  20923034.854                        5285.029          24.000                  
                                                
  21449246.292    -2514620.109        1106.691          48.000                  
                                                
  22080231.602   -12149469.440        6503.088          34.000                  
                                                
  19965142.461                        2696.733          31.000                  
                                                
  23745762.893    -2216735.919        1199.674          40.000                  
                                                
  23709503.760                         245.186          15.000                  
                                                
 18  5 21 13 49 49.0000000  0 13R 9R16R18G 8G 3R19G22G23G26G27G16G31
                                G14
  20008998.945                        2893.125          26.000                  
                                                
  22547690.142                         873.333          29.000                  
                                                
  22660910.771    -7286172.907        3478.102          34.000                  
                                                
  24478397.436    -2577507.1321       7169.214          31.000                  
                                                
  22806033.334                        1057.217          30.000                  
                                                
  22563898.468                        6470.116          29.000                  
                                                
  23778696.798    -1436495.854         699.468          37.000                  
                                                
  20922531.493                        5284.156          25.000                  
                                                
  21449140.981    -2515173.504        1106.751          48.000                  
                                                
  22079612.869   -12152720.846        6502.538          33.000                  
                                                
  19964885.549     -826292.810        2697.423          30.000                  
                                                
  23745648.934    -2217335.925        1200.135          40.000                  
                                                
  23709484.408                         246.902          18.000                  
                                                
 18  5 21 13 49 49.5000000  0 13R 9R16R18G 8G 3R19G22G23G26G27G16G31
                                G14
  20008728.104                        2891.278          26.000                  
                                                
  22547609.365    -1512481.796         871.625          29.000                  
                                                
  22660584.536    -7287912.122        3478.385          34.000                  
                                                
  24477716.921    -2581090.849        7167.144          31.000                  
                                                
  22805933.017                        1058.995          30.000                  
                                                
  22563294.441                        6468.738          29.000                  
                                                
  23778630.745    -1436845.455         698.713          37.000                  
                                                
  20922028.301                        5285.545          25.000                  
                                                
  21449035.705    -2515726.720        1106.320          48.000                  
                                                
  22078994.172   -12155972.090        6502.350          33.000                  
                                                
  19964629.048     -827641.340        2696.640          30.000                  
                                                
  23745534.992    -2217935.776        1199.661          40.000                  
                                                
  23709465.073                         247.904          18.000                  
                                                
 18  5 21 13 49 50.0000000  0 13R 9R16R18G 8G 3R19G22G23G26G27G16G31
                                G14
  20008457.648                        2892.583          26.000                  
                                                
  22547528.481    -1512917.690         870.289          29.000                  
                                                
  22660258.355    -7289651.094        3477.595          34.000                  
                                                
  24477033.976    -2584674.627        7165.883          31.000                  
                                                
  22805832.656                        1060.708          30.000                  
                                                
  22562690.388                        6467.689          27.000                  
                                                
  23778564.666    -1437195.039         699.415          37.000                  
                                                
  20921525.154                        5287.651          26.000                  
                                                
  21448930.439    -2516279.869        1106.358          48.000                  
                                                
  22078375.457   -12159223.231        6502.524          34.000                  
                                                
  19964372.306     -828989.750        2696.069          30.000                  
                                                
  23745421.068    -2218535.628        1199.727          41.000                  
                                                
  23709449.608                         251.117          17.000                  
                                                
 18  5 21 13 49 50.5000000  0 14R 8R 9R16R18G 8G 3R19G22G23G26G27G16
                                G31G14
  21707767.420     -578048.5101       6362.067          33.000                  
                                                
  20008186.834                        2892.867          26.000                  
                                                
  22547450.643    -1513353.657         871.682          29.000                  
                                                
  22659932.255    -7291389.839        3477.321          34.000                  
                                                
  24476351.746    -2588258.416        7165.938          30.000                  
                                                
  22805732.134    -2494047.344        1057.727          30.000                  
                                                
  22562086.388                        6469.478          27.000                  
                                                
  23778498.586    -1437544.544         699.150          37.000                  
                                                
  20921022.257                        5282.927          26.000                  
                                                
  21448825.208    -2516832.884        1105.880          48.000                  
                                                
  22077756.787   -12162474.261        6502.039          34.000                  
                                                
  19964114.063     -830338.016        2696.908          30.000                  
                                                
  23745307.135    -2219135.408        1199.362          40.000                  
                                                
  23709430.783                         253.506          17.000                  
                                                
 18  5 21 13 49 51.0000000  0 14R 8R 9R16R18G 8G 3R19G22G23G26G27G16
                                G31G14
  21707173.767     -581229.512        6362.112          34.000                  
                                                
  20007916.377                        2889.915          26.000                  
                                                
  22547367.972    -1513789.628         871.141          30.000                  
                                                
  22659606.216    -7293128.436        3476.997          35.000                  
                                                
  24475669.363    -2591842.300        7167.755          31.000                  
                                                
  22805631.406                        1057.725          30.000                  
                                                
  22561482.710                        6470.552          27.000                  
                                                
  23778432.479    -1437894.098         699.370          36.000                  
                                                
  20920519.539                        5281.443          26.000                  
                                                
  21448719.960    -2517385.921        1106.354          47.000                  
                                                
  22077138.108   -12165725.231        6501.561          34.000                  
                                                
  19963859.250     -831686.181        2696.995          30.000                  
                                                
  23745193.175    -2219735.254        1199.826          41.000                  
                                                
  23709408.831                         254.915          17.000                  
                                                
 18  5 21 13 49 51.5000000  0 14R 8R 9R16R18G 8G 3R19G22G23G26G27G16
                                G31G14
  21706580.158     -584410.406        6361.184          34.000                  
                                                
  20007646.564                        2889.688          26.000                  
                                                
  22547286.364    -1514225.629         870.415          30.000                  
                                                
  22659280.232    -7294866.929        3476.815          35.000                  
                                                
  24474986.624                        7167.596          31.000                  
                                                
  22805530.813                        1057.714          30.000                  
                                                
  22560878.978                        6470.507          27.000                  
                                                
  23778366.328    -1438243.726         699.492          36.000                  
                                                
  20920017.705                        5279.710          26.000                  
                                                
  21448614.720    -2517938.949        1105.852          47.000                  
                                                
  22076519.438   -12168976.255        6502.127          34.000                  
                                                
  19963601.606                        2696.833          30.000                  
                                                
  23745079.189    -2220335.160        1199.414          41.000                  
                                                
  23709385.663                         253.029          16.000                  
                                                
 18  5 21 13 49 52.0000000  0 14R 8R 9R16R18G 8G 3R19G22G23G26G27G16
                                G31G14
  21705986.576     -587591.146        6361.133          34.000                  
                                                
  20007376.340                        2889.904          26.000                  
                                                
  22547204.774    -1514661.717         874.380          29.000                  
                                                
  22658954.185    -7296605.208        3476.359          35.000                  
                                                
  24474304.492    -2599010.217        7168.287          31.000                  
                                                
  22805430.344    -2495634.535        1057.893          29.000                  
                                                
  22560274.916                        6468.091          26.000                  
                                                
  23778300.195    -1438593.312         698.978          36.000                  
                                                
  20919515.595                        5282.695          25.000                  
                                                
  21448509.489    -2518491.891        1105.706          47.000                  
                                                
  22075900.803   -12172227.155        6501.636          34.000                  
                                                
  19963344.962     -834382.713        2696.388          30.000                  
                                                
  23744965.211    -2220935.041        1199.627          41.000                  
                                                
  23709360.700                         256.013          16.000                  
                                                
 18  5 21 13 49 52.5000000  0 14R 8R 9R16R18G 8G 3R19G22G23G26G27G16
                                G31G14
  21705393.056     -590771.693        6360.799          34.000                  
                                                
  20007105.329                        2891.307          26.000                  
                                                
  22547123.211    -1515098.284         870.029          29.000                  
                                                
  22658628.182    -7298343.276        3476.015          35.000                  
                                                
  24473622.476    -2602594.131        7167.670          31.000                  
                                                
  22805329.581    -2496163.631        1058.938          29.000                  
                                                
  22559670.764                        6467.104          26.000                  
                                                
  23778233.990    -1438942.874         699.138          36.000                  
                                                
  20919012.805                        5286.516          25.000                  
                                                
  21448404.286    -2519044.746        1105.620          47.000                  
                                                
  22075282.186   -12175477.959        6501.723          34.000                  
                                                
  19963088.381     -835730.446        2695.453          30.000                  
                                                
  23744851.234    -2221534.899        1199.855          41.000                  
                                                
  23709334.755                         262.035          16.000                  
                                                
 18  5 21 13 49 53.0000000  0 14R 8R 9R16R18G 8G 3R19G22G23G26G27G16
                                G31G14
  21704799.599     -593952.067        6359.777          33.000                  
                                                
  20006833.309                        2892.532          24.000                  
                                                
  22547041.952    -1515534.337         871.490          30.000                  
                                                
  22658302.180    -7300081.096        3475.240          36.000                  
                                                
  24472940.487                        7169.159          30.000                  
                                                
  22805226.968    -2496692.570        1058.113          29.000                  
                                                
  22559067.086                        6465.762          25.000                  
                                                
  23778167.786    -1439292.413         698.985          35.000                  
                                                
  20918509.390                        5280.667          25.000                  
                                                
  21448299.091    -2519597.513        1105.337          46.000                  
                                                
  22074663.588   -12178728.641        6501.138          33.000                  
                                                
  19962832.648     -837078.093        2695.232          30.000                  
                                                
  23744737.247    -2222134.728        1199.719          40.000                  
                                                
  23709301.911                         263.886           1.000                  
                                                
 18  5 21 13 49 53.5000000  0 14R 8R 9R16R18G 8G 3R19G22G23G26G27G16
                                G31G14
  21704206.151     -597132.259        6360.126          33.000                  
                                                
  20006561.164                        2891.755          24.000                  
                                                
  22546960.317                         873.518          30.000                  
                                                
  22657976.276    -7301818.665        3474.742          36.000                  
                                                
  24472258.730    -2609762.492        7166.717          30.000                  
                                                
  22805122.827                        1056.806          29.000                  
                                                
  22558463.757                        6471.202          25.000                  
                                                
  23778101.581    -1439641.869         698.889          36.000                  
                                                
  20918005.430                        5281.090          25.000                  
                                                
  21448193.922    -2520150.158        1105.443          46.000                  
                                                
  22074045.016   -12181979.232        6501.375          33.000                  
                                                
  19962577.014     -838425.465        2694.445          30.000                  
                                                
  23744623.269    -2222734.481        1199.810          40.000                  
                                                
  23709277.547                         252.997           1.000                  
                                                
 18  5 21 13 49 54.0000000  0 14R 8R 9R16R18G 8G 3R19G22G23G26G27G16
                                G31G14
  21703612.783     -600312.246        6360.079          33.000                  
                                                
  20006289.412                        2889.803          24.000                  
                                                
  22546878.468    -1516407.404         871.506          29.000                  
                                                
  22657650.354    -7303556.084        3474.720          36.000                  
                                                
  24471577.116    -2613346.414        7168.282          30.000                  
                                                
  22805022.135    -2497750.218        1060.894          29.000                  
                                                
  22557859.337                        6476.412          18.000                  
                                                
  23778035.385    -1439991.313         698.749          37.000                  
                                                
  20917501.943                        5281.578          25.000                  
                                                
  21448088.763    -2520702.744        1105.212          46.000                  
                                                
  22073426.462   -12185229.729        6501.324          33.000                  
                                                
  19962321.174     -839772.775        2694.398          31.000                  
                                                
  23744509.274    -2223334.242        1199.533          40.000                  
                                                
  23709253.477                         252.997           1.000                  
                                                
 18  5 21 13 49 54.5000000  0 14R 8R 9R16R18G 8G 3R19G22G23G26G27G16
                                G31G14
  21703019.424     -603492.083        6359.417          33.000                  
                                                
  20006017.936                        2888.531          24.000                  
                                                
  22546796.735                         871.745          29.000                  
                                                
  22657324.530    -7305293.296        3474.411          36.000                  
                                                
  24470895.690    -2616930.402        7168.077          30.000                  
                                                
  22804921.586                        1058.524          29.000                  
                                                
  22557254.801                        6473.441          18.000                  
                                                
  23777969.189    -1440340.763         698.872          37.000                  
                                                
  20916998.850                        5280.033          25.000                  
                                                
  21447983.613    -2521255.294        1105.128          46.000                  
                                                
  22072807.925   -12188480.160        6501.049          33.000                  
                                                
  19962064.137     -841119.993        2695.666          31.000                  
                                                
  23744395.288    -2223933.995        1199.621          40.000                  
                                                
  23709229.479                         251.997           1.000                  
                                                
 18  5 21 13 49 55.0000000  0 14R 8R 9R16R18G 8G 3R19G22G23G26G27G16
                                G31G14
  21702426.074     -606671.930        6359.557          34.000                  
                                                
  20005746.694                        2887.159          24.000                  
                                                
  22546715.780                         872.935          27.000                  
                                                
  22656998.706    -7307030.431        3474.407          35.000                  
                                                
  24470213.772    -2620514.0361       7168.786          30.000                  
                                                
  22804820.599                        1055.776          28.000                  
                                                
  22556650.104                        6472.363          16.000                  
                                                
  23777902.949    -1440690.334         699.265          38.000                  
                                                
  20916495.524                        5281.906          26.000                  
                                                
  21447878.445    -2521807.883        1105.242          47.000                  
                                                
  22072189.380   -12191730.631        6501.271          33.000                  
                                                
  19961807.458     -842467.113        2694.523          30.000                  
                                                
  23744281.283    -2224533.883        1199.891          40.000                  
                                                
  23709205.508                         251.997           1.000                  
                                                
 18  5 21 13 49 55.5000000  0 14R 8R 9R16R18G 8G 3R19G22G23G26G27G16
                                G31G14
  21701832.608     -609851.656        6359.760          34.000                  
                                                
  20005474.772                        2887.896          24.000                  
                                                
  22546634.779                         871.677          27.000                  
                                                
  22656672.855    -7308767.390        3474.055          35.000                  
                                                
  24469525.797    -2624098.201        7168.785          30.000                  
                                                
  22804719.898                        1058.566          28.000                  
                                                
  22556044.791                        6477.043          16.000                  
                                                
  23777836.664    -1441039.934         699.394          38.000                  
                                                
  20915991.868                        5279.308          26.000                  
                                                
  21447773.286    -2522360.469        1105.416          47.000                  
                                                
  22071570.862   -12194981.039        6500.897          33.000                  
                                                
  19961551.019     -843814.171        2694.533          30.000                  
                                                
  23744167.279    -2225133.812        1200.169          40.000                  
                                                
  23709181.528                         251.997           1.000                  
                                                
 18  5 21 13 49 56.0000000  0 14R 8R 9R16R18G 8G 3R19G22G23G26G27G16
                                G31G14
  21701239.151     -613031.262        6359.095          33.000                  
                                                
  20005203.216                        2887.972          24.000                  
                                                
  22546553.234                         873.529          27.000                  
                                                
  22656347.067    -7310504.217        3473.687          35.000                  
                                                
  24468845.237    -2627682.402        7168.357          30.000                  
                                                
  22804618.724                        1057.748          26.000                  
                                                
  22555441.256                        6477.285           2.000                  
                                                
  23777770.343    -1441389.589         699.474          39.000                  
                                                
  20915488.381                        5277.396          26.000                  
                                                
  21447668.135    -2522913.026        1105.245          47.000                  
                                                
  22070952.334   -12198231.449        6500.802          33.000                  
                                                
  19961296.815     -845161.190        2694.465          31.000                  
                                                
  23744053.274    -2225733.771        1200.117          41.000                  
                                                
  23709157.547                         251.997           1.000                  
                                                
 18  5 21 13 49 56.5000000  0 14R 8R 9R16R18G 8G 3R19G22G23G26G27G16
                                G31G14
  21700645.766     -616210.677        6358.610          33.000                  
                                                
  20004932.018                        2889.775          24.000                  
                                                
  22546471.099                         872.182          27.000                  
                                                
  22656021.378    -7312240.818        3473.060          35.000                  
                                                
  24468164.749    -2631266.628        7168.636          30.000                  
                                                
  22804517.407                        1055.534          26.000                  
                                                
  22554835.255                        6472.900           2.000                  
                                                
  23777704.031    -1441739.198         699.210          39.000                  
                                                
  20914984.511                        5283.824          26.000                  
                                                
  21447563.003    -2523465.467        1104.968          47.000                  
                                                
  22070333.834   -12201481.758        6500.192          33.000                  
                                                
  19961040.573     -846507.974        2693.500          31.000                  
                                                
  23743939.252    -2226333.698        1199.843          41.000                  
                                                
  23709133.576                         251.997           1.000                  
                                                
 18  5 21 13 49 57.0000000  0 14R 8R 9R16R18G 8G 3R19G22G23G26G27G16
                                G31G14
  21700052.362     -619390.028        6358.813          34.000                  
                                                
  20004660.891                        2890.607          27.000                  
                                                
  22546389.313                         872.233          27.000                  
                                                
  22655695.724    -7313977.267        3473.075          35.000                  
                                                
  24467483.957    -2634850.842        7168.481          30.000                  
                                                
  22804415.866                        1058.008          26.000                  
                                                
  22554233.864                        6472.736           2.000                  
                                                
  23777637.728    -1442088.814         699.441          39.000                  
                                                
  20914480.104                        5280.815          25.000                  
                                                
  21447457.871    -2524017.899        1105.087          47.000                  
                                                
  22069715.351   -12204731.979        6500.718          33.000                  
                                                
  19960784.188                        2692.858          30.000                  
                                                
  23743825.230    -2226933.624        1200.167          40.000                  
                                                
  23709109.596                         251.997           1.000                  
                                                
 18  5 21 13 49 57.5000000  0 14R 8R 9R16R18G 8G 3R19G22G23G26G27G16
                                G31G14
  21699458.923     -622569.179        6358.239          34.000                  
                                                
  20004390.042                        2891.558          27.000                  
                                                
  22546307.740                         873.832          27.000                  
                                                
  22655370.114    -7315713.492        3472.417          35.000                  
                                                
  24466801.977    -2638435.109        7168.470          30.000                  
                                                
  22804314.138                        1056.237          27.000                  
                                                
  22553629.694                        6466.035           2.000                  
                                                
  23777571.416    -1442438.412         699.333          39.000                  
                                                
  20913975.831                        5278.203          25.000                  
                                                
  21447352.747    -2524570.260        1104.707          47.000                  
                                                
  22069096.860   -12207982.151        6500.247          33.000                  
                                                
  19960527.973                        2693.220          31.000                  
                                                
  23743711.181    -2227533.564        1199.977          41.000                  
                                                
  23709085.625                         251.997           1.000                  
                                                
 18  5 21 13 49 58.0000000  0 14R 8R 9R16R18G 8G 3R19G22G23G26G27G16
                                G31G14
  21698865.493     -625748.176        6357.994          34.000                  
                                                
  20004118.897                        2890.872          27.000                  
                                                
  22546226.463    -1519897.183         876.717          29.000                  
                                                
  22655044.559    -7317449.506        3472.114          36.000                  
                                                
  24466120.202    -2642019.389        7168.617          30.000                  
                                                
  22804213.178                        1056.913          27.000                  
                                                
  22553023.559                        6461.237          14.000                  
                                                
  23777505.095    -1442787.978         699.288          38.000                  
                                                
  20913471.916                        5278.649          25.000                  
                                                
  21447247.650    -2525122.529        1104.655          47.000                  
                                                
  22068478.377   -12211232.202        6499.997          34.000                  
                                                
  19960271.553     -850548.207        2695.498          29.000                  
                                                
  23743597.150    -2228133.460        1199.917          41.000                  
                                                
  23709061.644                         251.997           1.000                  
                                                
 18  5 21 13 49 58.5000000  0 14R 8R 9R16R18G 8G 3R19G22G23G26G27G16
                                G31G14
  21698272.036     -628926.966        6357.635          34.000                  
                                                
  20003847.324                        2890.379          27.000                  
                                                
  22546145.025                         871.584          29.000                  
                                                
  22654719.083    -7319185.241        3471.416          36.000                  
                                                
  24465438.088    -2645603.646        7168.759          30.000                  
                                                
  22804111.557                        1053.620          27.000                  
                                                
  22552417.925                        6465.185          14.000                  
                                                
  23777438.783    -1443137.479         699.181          38.000                  
                                                
  20912968.331                        5280.044          25.000                  
                                                
  21447142.572    -2525674.676        1104.351          47.000                  
                                                
  22067859.903   -12214482.151        6499.995          34.000                  
                                                
  19960014.596     -851894.406        2692.846          29.000                  
                                                
  23743483.110    -2228733.310        1199.916          41.000                  
                                                
  23709037.664                         251.997           1.000                  
                                                
