     2.10           OBSERVATION DATA    M (MIXED)           RINEX VERSION / TYPE
CONVBIN 2.4.3                           20180521 133016 UTC PGM / RUN BY / DATE 
log: 2018_05_21_0920.nvs                                    COMMENT             
format: NVS BINR                                            COMMENT             
                                                            MARKER NAME         
                                                            MARKER NUMBER       
                                                            OBSERVER / AGENCY   
                                                            REC # / TYPE / VERS 
                                                            ANT # / TYPE        
   654895.2974 -5210921.8980  3608580.8691                  APPROX POSITION XYZ 
        0.0000        0.0000        0.0000                  ANTENNA: DELTA H/E/N
     1     1                                                WAVELENGTH FACT L1/2
     8    C1    L1    D1    S1    C2    L2    D2    S2      # / TYPES OF OBSERV 
  2018     5    21    13    20   37.4000000     GPS         TIME OF FIRST OBS   
  2018     5    21    13    30   22.0000000     GPS         TIME OF LAST OBS    
                                                            END OF HEADER       
 18  5 21 13 20 37.4000000  0  5R16G22G26G27G31
  22223032.483      -43602.364         771.324          31.000                  
                                                
  23443810.535      -45533.748         892.908          39.000                  
                                                
  21310682.133                        1648.508          29.000                  
                                                
  23718577.560     -389218.472        6816.160          39.000                  
                                                
  23554963.399      -68655.177        1201.883          32.000                  
                                                
 18  5 21 13 20 37.9000000  0  5R16G22G26G27G31
  22222954.592      -43988.504         773.228          31.000                  
                                                
  23443725.532      -45980.261         893.368          38.000                  
                                                
  21310523.867                        1648.284          17.000                  
                                                
  23717929.049     -392626.600        6816.497          38.000                  
                                                
  23554852.512      -69256.442        1202.845          30.000                  
                                                
 18  5 21 13 20 38.4000000  0  5R16G22G26G27G31
  22222879.836      -44374.711         773.096          31.000                  
                                                
  23443640.529      -46426.789         892.973          38.000                  
                                                
  21310365.976                        1653.415          17.000                  
                                                
  23717280.519     -396034.820        6816.667          38.000                  
                                                
  23554741.760                        1201.646          30.000                  
                                                
 18  5 21 13 20 38.9900000  0  5R16G22G26G27G31
  22222794.012      -44830.489         773.009          31.000                  
                                                
  23443540.221      -46953.698         893.458          38.000                  
                                                
  21310180.817                        1652.869          27.000                  
                                                
  23716515.261     -400056.543        6816.755          39.000                  
                                                
  23554607.653      -70566.928        1203.557          31.000                  
                                                
 18  5 21 13 20 39.4900000  0  5R16G22G26G27G31
  22222720.892      -45216.793         772.749          31.000                  
                                                
  23443455.200      -47400.216         892.717          38.000                  
                                                
  21310023.543                        1653.569          27.000                  
                                                
  23715866.731     -403464.801        6816.623          39.000                  
                                                
  23554493.131                        1203.123          31.000                  
                                                
 18  5 21 13 20 39.9900000  0  5R16G22G26G27G31
  22222648.191                         773.376          29.000                  
                                                
  23443370.198      -47846.697         893.155          38.000                  
                                                
  21309866.644                        1651.038          26.000                  
                                                
  23715218.220     -406873.049        6816.604          38.000                  
                                                
  23554378.313      -71770.968        1201.567          30.000                  
                                                
 18  5 21 13 20 40.4900000  0  5R16G22G26G27G31
  22222575.554                         772.194          29.000                  
                                                
  23443285.212      -48293.003         892.436          38.000                  
                                                
  21309710.531                        1651.411          26.000                  
                                                
  23714569.726     -410281.151        6816.066          38.000                  
                                                
  23554263.549      -72371.743        1204.234          30.000                  
                                                
 18  5 21 13 20 40.9900000  0  5R16G22G26G27G31
  22222503.023                         771.736          28.000                  
                                                
  23443200.245      -48739.238         892.482          37.000                  
                                                
  21309554.374      -97727.752        1652.660          28.000                  
                                                
  23713921.250     -413689.256        6816.468          38.000                  
                                                
  23554148.562      -72973.226        1203.398          32.000                  
                                                
 18  5 21 13 20 41.4900000  0  5R16G22G26G27G31
  22222430.216                         773.071          28.000                  
                                                
  23443115.242      -49185.703         892.904          37.000                  
                                                
  21309398.404                        1652.804          27.000                  
                                                
  23713272.739     -417097.594        6816.764          38.000                  
                                                
  23554033.736      -73575.011        1203.394          32.000                  
                                                
 18  5 21 13 20 42.0000000  0  5R16G22G26G27G31
  21622770.983      -47158.777         773.411          28.000                  
                                                
  22843443.268      -49642.876         893.063          36.000                  
                                                
  20709653.891                        1652.122          26.000                  
                                                
  23113023.747     -420587.741        6816.770          38.000                  
                                                
  22954331.161      -74191.739        1203.401          32.000                  
                                                
 18  5 21 13 20 42.5000000  0  5R16G22G26G27G31
  21622698.506      -47545.337         771.051          28.000                  
                                                
  22843358.274      -50089.359         893.134          36.000                  
                                                
  20709498.100                        1653.589          26.000                  
                                                
  23112375.236     -423996.150        6816.969          38.000                  
                                                
  22954216.263      -74793.443        1202.895          32.000                  
                                                
 18  5 21 13 20 43.0000000  0  5R16G22G26G27G31
  21622626.360                         772.856          28.000                  
                                                
  22843273.280      -50535.831         893.230          36.000                  
                                                
  20709342.666                        1651.617          27.000                  
                                                
  23111726.715     -427404.596        6817.181          38.000                  
                                                
  22954101.571      -75395.244        1203.655          33.000                  
                                                
 18  5 21 13 20 43.5000000  0  5R16G22G26G27G31
  21622554.187                         775.662          28.000                  
                                                
  22843188.295      -50982.346         893.371          36.000                  
                                                
  20709188.019                        1652.019          27.000                  
                                                
  23111078.195     -430813.088        6817.160          38.000                  
                                                
  22953986.798      -75997.247        1203.753          33.000                  
                                                
 18  5 21 13 20 44.0000000  0  5R16G22G26G27G31
  21622481.817                         773.495          28.000                  
                                                
  22843103.283      -51428.916         893.074          37.000                  
                                                
  20709033.291     -102705.338        1650.888          28.000                  
                                                
  23110429.639     -434221.706        6817.195          38.000                  
                                                
  22953872.419                        1204.359          30.000                  
                                                
 18  5 21 13 20 44.5000000  0  5R16G22G26G27G31
  21622409.082                         771.240          28.000                  
                                                
  22843018.236      -51875.638         893.933          37.000                  
                                                
  20708878.340     -103532.014        1653.568          29.000                  
                                                
  23109781.065     -437630.502        6818.146          38.000                  
                                                
  22953757.682                        1205.202          30.000                  
                                                
 18  5 21 13 20 45.0000000  0  5R16G22G26G27G31
  21622336.489                         773.332          28.000                  
                                                
  22842933.144      -52322.615         893.722          38.000                  
                                                
  20708723.478     -104358.813        1653.327          32.000                  
                                                
  23109132.446     -441039.544        6817.863          39.000                  
                                                
  22953642.418                        1205.630          27.000                  
                                                
 18  5 21 13 20 45.5000000  0  5R16G22G26G27G31
  21622263.842                         774.037          28.000                  
                                                
  22842848.033      -52769.716         894.177          38.000                  
                                                
  20708572.958     -105185.733        1653.707          32.000                  
                                                
  23108483.791     -444448.776        6818.339          39.000                  
                                                
  22953527.127                        1204.458          27.000                  
                                                
 18  5 21 13 20 46.0000000  0  5R16G22G26G27G31
  21622190.928                         773.457          28.000                  
                                                
  22842762.950      -53216.622         894.052          37.000                  
                                                
  20708416.747     -106012.378        1653.470          33.000                  
                                                
  23107835.173     -447857.875        6818.517          38.000                  
                                                
  22953412.184      -79009.179        1206.145          28.000                  
                                                
 18  5 21 13 20 46.5000000  0  5R16G22G26G27G31
  21622118.344                         771.968          28.000                  
                                                
  22842677.885      -53663.460         893.271          37.000                  
                                                
  20708260.768     -106838.945        1652.480          33.000                  
                                                
  23107186.545     -451266.935        6817.753          38.000                  
                                                
  22953297.724      -79611.713        1204.959          28.000                  
                                                
 18  5 21 13 20 47.0000000  0  5R16G22G26G27G31
  21622045.456                         775.879          27.000                  
                                                
  22842592.792      -54110.385         893.725          37.000                  
                                                
  20708104.057     -107665.523        1653.085          33.000                  
                                                
  23106537.908     -454676.100        6818.409          38.000                  
                                                
  22953183.103                        1204.917          31.000                  
                                                
 18  5 21 13 20 47.5000000  0  5R16G22G26G27G31
  21621972.023                         780.902          27.000                  
                                                
  22842507.691      -54557.325         894.167          37.000                  
                                                
  20707948.775     -108492.142        1653.622          34.000                  
                                                
  23105889.263     -458085.270        6818.579          38.000                  
                                                
  22953068.384      -80817.412        1206.835          31.000                  
                                                
 18  5 21 13 20 48.0000000  0  5R16G22G26G27G31
  21621898.930                         776.857          27.000                  
                                                
  22842422.581      -55004.351         894.431          38.000                  
                                                
  20707793.172     -109318.692        1653.413          34.000                  
                                                
  23105240.600     -461494.565        6818.880          38.000                  
                                                
  22952953.254      -81420.439        1206.486          34.000                  
                                                
 18  5 21 13 20 48.5000000  0  5R16G22G26G27G31
  21621825.837                         775.111          27.000                  
                                                
  22842337.480      -55451.351         894.089          38.000                  
                                                
  20707636.210     -110145.286        1653.141          34.000                  
                                                
  23104591.918     -464903.941        6819.048          38.000                  
                                                
  22952838.160                        1204.553          34.000                  
                                                
 18  5 21 13 20 49.0000000  0  5R16G22G26G27G31
  21621752.842                         771.199          26.000                  
                                                
  22842252.352      -55898.506         894.337          36.000                  
                                                
  20707478.829     -110971.9201       1653.203          34.000                  
                                                
  23103943.228     -468313.439        6819.266          38.000                  
                                                
  22952724.057                        1205.428          28.000                  
                                                
 18  5 21 13 20 49.5000000  0  5R16G22G26G27G31
  21621680.008                         773.984          26.000                  
                                                
  22842167.233      -56345.510         894.098          36.000                  
                                                
  20707321.635     -111798.376        1653.109          34.000                  
                                                
  23103294.547     -471722.845        6819.007          38.000                  
                                                
  22952610.383                        1204.457          28.000                  
                                                
 18  5 21 13 20 50.0000000  0  5R16G22G26G27G31
  21621606.905                         774.655          27.000                  
                                                
  22842082.105      -56792.634         894.435          37.000                  
                                                
  20707164.280     -112624.909        1653.230          33.000                  
                                                
  23102645.848     -475132.372        6819.201          38.000                  
                                                
  22952496.361                        1206.252          27.000                  
                                                
 18  5 21 13 20 50.5000000  0  5R16G22G26G27G31
  21621534.491                         772.843          27.000                  
                                                
  22841996.977      -57239.706         894.009          37.000                  
                                                
  20707007.024     -113451.352        1652.978          33.000                  
                                                
  23101997.149     -478541.916        6818.964          38.000                  
                                                
  22952382.276                        1208.009          27.000                  
                                                
 18  5 21 13 20 51.0000000  0  5R16G22G26G27G31
  21621462.238                         776.659          28.000                  
                                                
  22841911.840      -57686.835         894.345          37.000                  
                                                
  20706849.687     -114277.772        1653.121          33.000                  
                                                
  23101348.440     -481951.504        6819.203          38.000                  
                                                
  22952268.540                        1209.340          24.000                  
                                                
 18  5 21 13 20 51.5000000  0  5R16G22G26G27G31
  21621389.806                         776.904          28.000                  
                                                
  22841826.738      -58133.854         894.259          37.000                  
                                                
  20706692.368     -115104.021        1652.629          33.000                  
                                                
  23100699.741     -485361.037        6819.221          38.000                  
                                                
  22952155.447                        1207.054          24.000                  
                                                
 18  5 21 13 20 52.0000000  0  5R16G22G26G27G31
  21621317.132                         779.392          28.000                  
                                                
  22841741.610      -58581.013         894.549          37.000                  
                                                
  20706535.023     -115930.407        1652.929          34.000                  
                                                
  23100051.006     -488770.735        6819.439          37.000                  
                                                
  22952043.605                        1207.713          14.000                  
                                                
 18  5 21 13 20 52.5000000  0  5R16G22G26G27G31
  21621244.602      -55293.890         776.960          28.000                  
                                                
  22841656.464      -59028.284         894.785          37.000                  
                                                
  20706377.731     -116756.833        1652.952          34.000                  
                                                
  23099402.245     -492180.595        6819.937          38.000                  
                                                
  22951933.040                        1209.175          14.000                  
                                                
 18  5 21 13 20 53.0000000  0  5R16G22G26G27G31
  21621172.197                         777.594          29.000                  
                                                
  22841571.327      -59475.551         894.757          37.000                  
                                                
  20706220.599     -117583.230        1652.947          34.000                  
                                                
  23098753.474     -495590.478        6819.964          37.000                  
                                                
  22951819.992                        1211.092          13.000                  
                                                
 18  5 21 13 20 53.5000000  0  5R16G22G26G27G31
  21621099.729                         778.755          29.000                  
                                                
  22841486.199      -59922.819         894.563          37.000                  
                                                
  20706063.495     -118409.584        1652.701          34.000                  
                                                
  23098104.695     -499000.410        6820.060          37.000                  
                                                
  22951708.418                        1210.001          13.000                  
                                                
 18  5 21 13 20 54.0000000  0  5R16G22G26G27G31
  21621027.440      -56460.430         777.156          29.000                  
                                                
  22841401.080      -60370.089         894.695          38.000                  
                                                
  20705906.390     -119235.880        1652.771          35.000                  
                                                
  23097455.915     -502410.364        6820.188          37.000                  
                                                
  22951598.800                        1214.615           1.000                  
                                                
 18  5 21 13 20 54.5000000  0  5R16G22G26G27G31
  21620955.338                         777.309          29.000                  
                                                
  22841315.934      -60817.437         894.616          38.000                  
                                                
  20705749.295     -120062.208        1652.587          34.000                  
                                                
  23096807.118     -505820.434        6820.263          37.000                  
                                                
  22951483.759                        1206.984           1.000                  
                                                
 18  5 21 13 20 55.0000000  0  5R16G22G26G27G31
  21620882.531                         779.313          29.000                  
                                                
  22841230.824      -61264.690         894.373          38.000                  
                                                
  20705592.235     -120888.388        1652.125          35.000                  
                                                
  23096158.338     -509230.403        6819.882          37.000                  
                                                
  22951368.924                        1206.984           1.000                  
                                                
 18  5 21 13 20 55.5000000  0  5R16G22G26G27G31
  21620809.715      -57626.409         779.804          29.000                  
                                                
  22841145.732      -61711.789         894.168          38.000                  
                                                
  20705435.193     -121714.399        1652.095          35.000                  
                                                
  23095509.559     -512640.298        6819.942          37.000                  
                                                
  22951254.080                        1206.984           1.000                  
                                                
 18  5 21 13 20 56.0000000  0  5R16G22G26G27G31
  21620737.059      -58015.251         777.425          29.000                  
                                                
  22841060.640      -62159.030         894.573          38.000                  
                                                
  20705278.133     -122540.487        1652.329          36.000                  
                                                
  23094860.761     -516050.328        6820.273          37.000                  
                                                
  22951139.236                        1206.984           1.000                  
                                                
 18  5 21 13 20 56.5000000  0  5R16G22G26G27G31
  21620663.841      -58404.691         776.785          29.000                  
                                                
  22840975.521      -62606.336         894.816          38.000                  
                                                
  20705121.100     -123366.589        1652.289          36.000                  
                                                
  23094211.928     -519460.468        6820.439          37.000                  
                                                
  22951024.400                        1206.984           1.000                  
                                                
 18  5 21 13 20 57.0000000  0  5R16G22G26G27G31
  21620590.792                         776.651          28.000                  
                                                
  22840890.402      -63053.708         895.073          37.000                  
                                                
  20704964.112     -124192.713        1652.687          37.000                  
                                                
  23093563.068     -522870.725        6820.855          37.000                  
                                                
  22950909.556                        1206.984           1.000                  
                                                
 18  5 21 13 20 57.5000000  0  5R16G22G26G27G31
  21620518.039      -59182.622         777.890          28.000                  
                                                
  22840805.291      -63501.028         894.716          37.000                  
                                                
  20704807.079     -125018.736        1652.138          37.000                  
                                                
  23092914.208     -526280.940        6820.630          37.000                  
                                                
  22950794.712                        1206.984           1.000                  
                                                
 18  5 21 13 20 58.0000000  0  5R16G22G26G27G31
  21620444.954      -59571.959         779.082          30.000                  
                                                
  22840720.172      -63948.483         895.228          38.000                  
                                                
  20704650.055     -125844.855        1652.492          37.000                  
                                                
  23092265.312     -529691.316        6821.006          36.000                  
                                                
  22950679.877                        1206.984           1.000                  
                                                
 18  5 21 13 20 58.5000000  0  5R16G22G26G27G31
  21620371.790                         780.102          30.000                  
                                                
  22840635.044      -64395.944         895.235          38.000                  
                                                
  20704493.040     -126670.917        1652.315          37.000                  
                                                
  23091616.399     -533101.744        6821.000          36.000                  
                                                
  22950565.032                        1206.984           1.000                  
                                                
 18  5 21 13 20 59.0000000  0  5R16G22G26G27G31
  21620298.759      -60351.474         778.521          29.000                  
                                                
  22840549.898      -64843.498         895.295          38.000                  
                                                
  20704336.016     -127497.052        1652.101          37.000                  
                                                
  23090967.449     -536512.320        6821.260          36.000                  
                                                
  22950449.920                        1206.764          24.000                  
                                                
 18  5 21 13 20 59.5000000  0  5R16G22G26G27G31
  21620225.630      -60741.235         782.181          29.000                  
                                                
  22840464.752      -65291.079         895.491          38.000                  
                                                
  20704178.974     -128323.180        1652.510          37.000                  
                                                
  23090318.518     -539922.919        6821.532          36.000                  
                                                
  22950335.612                        1207.040          23.000                  
                                                
 18  5 21 13 21  7.5000000  0  6R16G 3G22G26G27G31
  21619060.784      -66984.680         780.234          30.000                  
                                                
  22054320.187     -141258.5141       1681.319          31.000                  
                                                
  22839102.704      -72453.721         895.732          36.000                  
                                                
  20701665.267     -141536.008        1651.007          37.000                  
                                                
  23079933.578     -594498.366        6822.706          34.000                  
                                                
  22948481.781                        1211.134          24.000                  
                                                
 18  5 21 13 21  8.0000000  0  6R16G 3G22G26G27G31
  21618987.342                         782.586          31.000                  
                                                
  22054159.920     -142098.979        1680.928          32.000                  
                                                
  22839017.576      -72901.505         895.806          37.000                  
                                                
  20701508.172     -142361.485        1651.192          38.000                  
                                                
  23079284.432     -597909.699        6822.747          34.000                  
                                                
  22948365.633                        1208.336          25.000                  
                                                
 18  5 21 13 21  8.5000000  0  6R16G 3G22G26G27G31
  21618914.026      -67766.234         781.629          31.000                  
                                                
  22053999.671     -142939.390        1680.951          32.000                  
                                                
  22838932.493      -73349.101         895.423          37.000                  
                                                
  20701351.121     -143186.798        1650.882          38.000                  
                                                
  23078635.286     -601320.957        6822.904          34.000                  
                                                
  22948249.725                        1209.805          25.000                  
                                                
 18  5 21 13 21  9.0000000  0  6R16G 3G22G26G27G31
  21618840.620                         780.692          30.000                  
                                                
  22053839.403     -143779.849        1681.206          32.000                  
                                                
  22838847.383      -73796.901         896.007          39.000                  
                                                
  20701194.043     -144012.258        1651.147          37.000                  
                                                
  23077986.122     -604732.353        6823.209          33.000                  
                                                
  22948132.522                        1211.880          25.000                  
                                                
 18  5 21 13 21  9.5000000  0  6R16G 3G22G26G27G31
  21618767.384                         780.089          30.000                  
                                                
  22053679.127     -144620.318        1680.875          32.000                  
                                                
  22838762.263      -74244.736         895.988          39.000                  
                                                
  20701036.974     -144837.686        1650.876          37.000                  
                                                
  23077336.932     -608143.847        6823.279          33.000                  
                                                
  22948014.194                        1210.822          25.000                  
                                                
 18  5 21 13 21 10.0000000  0  6R16G 3G22G26G27G31
  21618694.335      -68939.426         782.374          30.000                  
                                                
  22053518.833     -145460.807        1681.149          32.000                  
                                                
  22838677.135      -74692.654         896.013          39.000                  
                                                
  20700879.888     -145663.187        1651.110          37.000                  
                                                
  23076687.732     -611555.449        6823.307          33.000                  
                                                
  22947895.847                        1211.167          23.000                  
                                                
 18  5 21 13 21 10.5000000  0  6R16G 3G22G26G27G31
  21618621.054      -69330.596         780.421          30.000                  
                                                
  22053358.548     -146301.191        1680.676          32.000                  
                                                
  22838592.016      -75140.532         895.777          39.000                  
                                                
  20700722.837     -146488.549        1650.625          37.000                  
                                                
  23076038.533     -614967.035        6822.976          33.000                  
                                                
  22947777.500                        1212.439          23.000                  
                                                
 18  5 21 13 21 11.0000000  0  6R16G 3G22G26G27G31
  21618548.202                         783.467          31.000                  
                                                
  22053198.227     -147141.510        1680.827          33.000                  
                                                
  22838506.906      -75588.401         895.988          39.000                  
                                                
  20700565.804     -147313.901        1650.766          37.000                  
                                                
  23075389.325     -618378.641        6823.301          33.000                  
                                                
  22947659.574                        1212.364          27.000                  
                                                
 18  5 21 13 21 11.5000000  0  6R16G 3G22G26G27G31
  21618475.511      -70113.118         784.265          31.000                  
                                                
  22053038.014     -147981.620        1680.288          33.000                  
                                                
  22838421.832      -76036.123         895.617          39.000                  
                                                
  20700408.816     -148139.038        1650.216          37.000                  
                                                
  23074740.134     -621790.149        6822.961          33.000                  
                                                
  22947541.826                        1214.140          27.000                  
                                                
 18  5 21 13 21 12.0000000  0  6R16G 3G22G26G27G31
  21618402.507      -70504.419         784.697          30.000                  
                                                
  22052877.791     -148821.699        1680.454          33.000                  
                                                
  22838336.748      -76483.837         895.465          39.000                  
                                                
  20700251.836     -148964.153        1650.278          38.000                  
                                                
  23074090.935     -625201.710        6823.229          33.000                  
                                                
  22947423.274                        1209.286          25.000                  
                                                
 18  5 21 13 21 12.5000000  0  6R16G 3G22G26G27G31
  21618329.405      -70896.147         781.807          30.000                  
                                                
  22052717.586     -149661.692        1680.036          33.000                  
                                                
  22838251.638      -76931.618         895.738          39.000                  
                                                
  20700094.866     -149789.248        1650.209          37.000                  
                                                
  23073441.717     -628613.351        6823.525          33.000                  
                                                
  22947305.535                        1209.283          25.000                  
                                                
 18  5 21 13 21 13.0000000  0  6R16G 3G22G26G27G31
  21618256.553      -71287.734         783.302          31.000                  
                                                
  22052557.328     -150501.789        1680.528          33.000                  
                                                
  22838166.528      -77379.507         896.058          37.000                  
                                                
  20699937.851     -150614.455        1650.797          38.000                  
                                                
  23072792.491     -632025.056        6823.723          34.000                  
                                                
  22947188.940                        1210.269          26.000                  
                                                
 18  5 21 13 21 13.5000000  0  6R16G 3G22G26G27G31
  21618183.620      -71679.003         782.004          31.000                  
                                                
  22052397.132     -151341.670        1679.564          33.000                  
                                                
  22838081.463      -77827.193         894.749          37.000                  
                                                
  20699780.845     -151439.400        1649.888          38.000                  
                                                
  23072143.283     -635436.699        6823.103          34.000                  
                                                
  22947073.148     -112251.390        1212.324          26.000                  
                                                
 18  5 21 13 21 14.0000000  0  6R16G 3G22G26G27G31
  21618112.180      -72070.680         783.391          33.000                  
                                                
  22052236.927     -152181.653        1680.143          34.000                  
                                                
  22837996.361      -78275.133         895.900          35.000                  
                                                
  20699623.785     -152264.503        1650.408          37.000                  
                                                
  23071494.029     -638848.558        6823.803          35.000                  
                                                
  22946956.928     -112857.734        1213.619          33.000                  
                                                
 18  5 21 13 21 14.5000000  0  6R16G 3G22G26G27G31
  21618042.312      -72462.295         783.226          33.000                  
                                                
  22052076.785     -153021.514        1679.794          34.000                  
                                                
  22837911.260      -78722.988         895.882          35.000                  
                                                
  20699466.734     -153089.478        1649.865          37.000                  
                                                
  23070844.785     -642260.358        6823.503          35.000                  
                                                
  22946837.920     -113464.085        1212.702          33.000                  
                                                
 18  5 21 13 21 15.0000000  0  6R16G 3G22G26G27G31
  21617969.559      -72854.000         783.536          33.000                  
                                                
  22051916.679     -153861.311        1679.508          34.000                  
                                                
  22837826.177      -79170.854         895.846          35.000                  
                                                
  20699309.701     -153914.397        1649.735          38.000                  
                                                
  23070195.532     -645672.198        6823.760          35.000                  
                                                
  22946721.111     -114070.535        1212.948          36.000                  
                                                
 18  5 21 13 21 15.5000000  0  6R16G 3G22G26G27G31
  21617896.224      -73245.654         783.417          33.000                  
                                                
  22051756.608     -154701.026        1679.383          34.000                  
                                                
  22837741.102      -79618.637         895.762          35.000                  
                                                
  20699152.668     -154739.254        1649.719          38.000                  
                                                
  23069546.288     -649084.033        6823.818          35.000                  
                                                
  22946610.233     -114677.000        1212.876          36.000                  
                                                
 18  5 21 13 21 16.0000000  0  6R16G 3G22G26G27G31
  21617823.024      -73637.444         783.626          32.000                  
                                                
  22051596.502     -155540.689        1679.202          34.000                  
                                                
  22837656.028      -80066.449         895.366          35.000                  
                                                
  20698995.644     -155564.078        1649.615          39.000                  
                                                
  23068897.035     -652495.941        6823.655          36.000                  
                                                
  22946495.219     -115283.528        1212.950          36.000                  
                                                
 18  5 21 13 21 16.5000000  0  6R16G 3G22G26G27G31
  21617749.627      -74029.3041        783.893          32.000                  
                                                
  22051436.395     -156380.338        1679.171          34.000                  
                                                
  22837570.936      -80514.343         895.993          35.000                  
                                                
  20698838.638     -156388.911        1649.653          39.000                  
                                                
  23068247.773     -655907.918        6824.234          36.000                  
                                                
  22946379.839     -115890.193        1213.292          36.000                  
                                                
 18  5 21 13 21 17.0000000  0  6R16G 3G22G26G27G31
  21617676.247      -74421.328         784.370          31.000                  
                                                
  22051276.271     -157220.006        1679.530          34.000                  
                                                
  22837485.826      -80962.275         896.101          35.000                  
                                                
  20698681.623     -157213.793        1649.990          39.000                  
                                                
  23067598.502     -659319.986        6824.564          36.000                  
                                                
  22946264.807     -116496.942        1213.624          36.000                  
                                                
 18  5 21 13 21 17.5000000  0  6R16G 3G22G26G27G31
  21617602.949      -74813.438         784.513          31.000                  
                                                
  22051116.173     -158059.645        1679.261          34.000                  
                                                
  22837400.698      -81410.252         896.254          35.000                  
                                                
  20698524.626     -158038.647        1649.880          39.000                  
                                                
  23066949.204     -662732.141        6824.740          36.000                  
                                                
  22946149.454     -117103.798        1213.871          36.000                  
                                                
 18  5 21 13 21 18.0000000  0  6R16G 3G22G26G27G31
  21617529.668      -75205.598         784.515          32.000                  
                                                
  22050956.076     -158899.262        1679.376          34.000                  
                                                
  22837315.561      -81858.231         895.969          36.000                  
                                                
  20698367.628     -158863.468        1649.752          39.000                  
                                                
  23066299.915     -666144.338        6824.741          36.000                  
                                                
  22946034.020     -117710.723        1214.197          36.000                  
                                                
 18  5 21 13 21 18.5000000  0  6R16G 3G22G26G27G31
  21617456.351      -75597.969         785.039          32.000                  
                                                
  22050795.969     -159738.957        1680.159          34.000                  
                                                
  22837230.388      -82306.387         896.720          36.000                  
                                                
  20698210.613     -159688.372        1649.902          39.000                  
                                                
  23065650.600     -669556.650        6824.749          36.000                  
                                                
  22945918.631     -118317.805        1214.616          36.000                  
                                                
 18  5 21 13 21 19.0000000  0  6R16G 3G22G26G27G31
  21617383.079      -75990.359         784.403          32.000                  
                                                
  22050635.863     -160578.527        1679.820          34.000                  
                                                
  22837145.224      -82754.470         896.514          35.000                  
                                                
  20698053.616     -160513.222        1649.941          39.000                  
                                                
  23065001.266     -672969.030        6825.156          36.000                  
                                                
  22945803.197     -118924.9361       1214.639          36.000                  
                                                
 18  5 21 13 21 19.5000000  0  6R16G 3G22G26G27G31
  21617309.843      -76382.744         784.811          32.000                  
                                                
  22050475.774     -161417.945        1678.961          34.000                  
                                                
  22837060.069      -83202.506         896.097          35.000                  
                                                
  20697896.646     -161337.897        1649.156          38.000                  
                                                
  23064351.969     -676381.320        6824.854          36.000                  
                                                
  22945687.736     -119532.010        1214.669          36.000                  
                                                
 18  5 21 13 21 20.0000000  0  6R16G 3G22G26G27G31
  21617236.589      -76774.836         784.273          32.000                  
                                                
  22050315.757     -162256.955        1677.524          34.000                  
                                                
  22836974.977      -83650.157         894.915          34.000                  
                                                
  20697739.756     -162162.198        1648.348          38.000                  
                                                
  23063702.733     -679793.262        6823.436          36.000                  
                                                
  22945572.374     -120138.784        1213.170          36.000                  
                                                
 18  5 21 13 21 20.5000000  0  7R16R18G 3G22G26G27G31
  21617163.308      -77166.993         785.058          32.000                  
                                                
  22786469.034     -214629.6761       4727.326          31.000                  
                                                
  22050155.776     -163095.956        1678.332          34.000                  
                                                
  22836889.876      -84097.848         895.828          34.000                  
                                                
  20697582.857     -162986.502        1649.103          38.000                  
                                                
  23063053.480     -683205.327        6824.696          36.000                  
                                                
  22945456.976     -120745.634        1214.553          36.000                  
                                                
 18  5 21 13 21 21.0000000  0  7R16R18G 3G22G26G27G31
  21617089.983      -77559.608         785.888          32.000                  
                                                
  22786026.713     -216993.468        4727.878          31.000                  
                                                
  22049995.750     -163935.290        1679.101          34.000                  
                                                
  22836804.694      -84545.908         896.406          34.000                  
                                                
  20697425.904     -163811.119        1649.627          38.000                  
                                                
  23062404.156     -686617.763        6825.266          37.000                  
                                                
  22945341.417     -121352.923        1215.072          36.000                  
                                                
 18  5 21 13 21 21.5000000  0  7R16R18G 3G22G26G27G31
  21617016.532      -77952.479         785.979          32.000                  
                                                
  22785584.338     -219357.377        4727.947          31.000                  
                                                
  22049835.706     -164774.777        1679.038          34.000                  
                                                
  22836719.459      -84994.248         896.918          34.000                  
                                                
  20697268.925     -164635.941        1649.807          38.000                  
                                                
  23061754.778     -690030.502        6825.721          37.000                  
                                                
  22945225.893     -121960.466        1215.038          36.000                  
                                                
 18  5 21 13 21 22.0000000  0  7R16R18G 3G22G26G27G31
  21616943.028      -78345.416         785.901          32.000                  
                                                
  22785141.991     -221721.155        4727.450          32.000                  
                                                
  22049675.653     -165614.233        1679.003          34.000                  
                                                
  22836634.206      -85442.536         896.669          34.000                  
                                                
  20697111.936     -165460.721        1649.463          38.000                  
                                                
  23061105.390     -693443.265        6825.760          37.000                  
                                                
  22945110.218     -122568.115        1215.596          35.000                  
                                                
 18  5 21 13 21 22.5000000  0  7R16R18G 3G22G26G27G31
  21616869.568      -78738.248         786.009          32.000                  
                                                
  22784699.625     -224084.625        4726.911          32.000                  
                                                
  22049515.663     -166453.388        1678.319          34.000                  
                                                
  22836548.979      -85890.637         896.332          34.000                  
                                                
  20696955.002     -166285.258        1649.106          38.000                  
                                                
  23060456.039     -696855.848        6825.361          37.000                  
                                                
  22944994.668     -123175.589        1215.257          35.000                  
                                                
 18  5 21 13 21 23.0000000  0  7R16R18G 3G22G26G27G31
  21616796.118      -79131.032         785.856          32.000                  
                                                
  22784257.385     -226447.904        4726.356          33.000                  
                                                
  22049355.672     -167292.494        1678.409          33.000                  
                                                
  22836463.744      -86338.731         896.306          34.000                  
                                                
  20696798.058     -167109.683        1648.968          37.000                  
                                                
  23059806.697     -700268.412        6825.340          37.000                  
                                                
  22944879.047     -123783.064        1215.176          36.000                  
                                                
 18  5 21 13 21 23.5000000  0  7R16R18G 3G22G26G27G31
  21616722.658      -79523.832         785.251          32.000                  
                                                
  22783815.108     -228811.062        4725.956          33.000                  
                                                
  22049195.709     -168131.444        1677.944          33.000                  
                                                
  22836378.518      -86786.750         896.154          34.000                  
                                                
  20696641.114     -167934.042        1648.683          37.000                  
                                                
  23059157.354     -703680.984        6825.163          37.000                  
                                                
  22944763.407     -124390.554        1215.057          36.000                  
                                                
 18  5 21 13 21 24.0000000  0  7R16R18G 3G22G26G27G31
  21616649.234      -79916.618         784.833          32.000                  
                                                
  22783372.948     -231174.009        4725.358          34.000                  
                                                
  22049035.719     -168970.251        1677.291          33.000                  
                                                
  22836293.301      -87234.699         895.399          33.000                  
                                                
  20696484.198     -168758.245        1647.827          37.000                  
                                                
  23058508.012     -707093.499        6825.227          37.000                  
                                                
  22944647.795     -124997.993        1214.936          36.000                  
                                                
 18  5 21 13 21 24.5000000  0  7R16R18G 3G22G26G27G31
  21616575.766      -80309.437         785.555          32.000                  
                                                
  22782930.744     -233536.804        4725.653          34.000                  
                                                
  22048875.764     -169808.963        1677.617          33.000                  
                                                
  22836208.092      -87682.617         896.312          33.000                  
                                                
  20696327.308     -169582.383        1648.528          37.000                  
                                                
  23057858.687     -710505.960        6824.997          37.000                  
                                                
  22944532.209     -125605.424        1214.917          36.000                  
                                                
 18  5 21 13 21 25.0000000  0  7R16R18G 3G22G26G27G31
  21616502.270      -80702.331         786.174          31.000                  
                                                
  22782488.593     -235899.466        4725.503          35.000                  
                                                
  22048715.783     -170647.650        1677.635          32.000                  
                                                
  22836122.875      -88130.538         896.494          33.000                  
                                                
  20696170.409     -170406.480        1648.728          37.000                  
                                                
  23057209.345     -713918.497        6825.350          37.000                  
                                                
  22944416.632     -126212.963        1214.971          36.000                  
                                                
 18  5 21 13 21 25.5000000  0  7R16R18G 3G22G26G27G31
  21616428.713      -81095.263         785.830          31.000                  
                                                
  22782046.424     -238262.024        4725.147          35.000                  
                                                
  22048555.801     -171486.240        1677.229          32.000                  
                                                
  22836037.657      -88578.438         895.988          33.000                  
                                                
  20696013.536     -171230.493        1647.581          37.000                  
                                                
  23056559.993     -717331.051        6825.320          37.000                  
                                                
  22944301.055     -126820.517        1214.959          36.000                  
                                                
 18  5 21 13 21 26.0000000  0  7R16R18G 3G22G26G27G31
  21616355.155      -81488.246         784.728          31.000                  
                                                
  22781604.326     -240624.529        4724.750          34.000                  
                                                
  22048395.811     -172324.849        1677.422          31.000                  
                                                
  22835952.431      -89026.395         896.258          32.000                  
                                                
  20695856.646     -172054.565        1648.313          37.000                  
                                                
  23055910.624     -720743.686        6825.544          37.000                  
                                                
  22944185.452     -127428.168        1215.116          35.000                  
                                                
 18  5 21 13 21 26.5000000  0  7R16R18G 3G22G26G27G31
  21616281.561      -81881.457         787.372          31.000                  
                                                
  22781162.211     -242986.937        4724.678          34.000                  
                                                
  22048235.848     -173163.381        1676.665          31.000                  
                                                
  22835867.205      -89474.353         896.479          32.000                  
                                                
  20695699.783     -172878.557        1647.709          37.000                  
                                                
  23055261.246     -724156.388        6825.720          37.000                  
                                                
  22944069.794     -128035.925        1215.690          35.000                  
                                                
 18  5 21 13 21 27.0000000  0  7R16R18G 3G22G26G27G31
  21616212.194      -82274.644         786.655          31.000                  
                                                
  22780724.312     -245349.281        4724.511          34.000                  
                                                
  22048075.875     -174001.875        1675.662          31.000                  
                                                
  22835781.970      -89922.349         895.457          33.000                  
                                                
  20695542.911     -173702.575        1648.209          37.000                  
                                                
  23054611.859     -727569.131        6825.544          37.000                  
                                                
  22943954.164     -128643.747        1215.864          37.000                  
                                                
 18  5 21 13 21 27.5000000  0  7R16R18G 3G22G26G27G31
  21616142.496                         785.929          31.000                  
                                                
  22780286.343     -247711.435        4724.059          34.000                  
                                                
  22047915.912     -174840.351        1677.657          31.000                  
                                                
  22835696.734      -90370.300         895.538          33.000                  
                                                
  20695386.057     -174526.474        1647.871          37.000                  
                                                
  23053962.490     -730981.834        6825.465          37.000                  
                                                
  22943838.533     -129251.537        1215.677          37.000                  
                                                
 18  5 21 13 21 28.0000000  0  7R16R18G 3G22G26G27G31
  21616068.312      -83061.205         787.337          31.000                  
                                                
  22779844.183     -250073.565        4724.037          34.000                  
                                                
  22047730.172                        1675.983          31.000                  
                                                
  22835611.481      -90818.343         895.743          33.000                  
                                                
  20695229.176     -175350.441        1647.966          37.000                  
                                                
  23053313.085     -734394.703        6825.796          38.000                  
                                                
  22943722.849     -129859.475        1215.986          37.000                  
                                                
 18  5 21 13 21 28.5000000  0  7R16R18G 3G22G26G27G31
  21615993.754      -83454.618         786.688          31.000                  
                                                
  22779401.165     -252435.618        4724.297          34.000                  
                                                
  22047570.093     -176517.139        1676.950          30.000                  
                                                
  22835526.228      -91266.405         896.182          32.000                  
                                                
  20695072.312     -176174.353        1648.216          37.000                  
                                                
  23052663.671     -737807.583        6826.066          38.000                  
                                                
  22943607.192     -130467.467        1216.387          37.000                  
                                                
 18  5 21 13 21 29.0000000  0  7R16R18G 3G22G26G27G31
  21615917.632      -83848.147         787.341          31.000                  
                                                
  22778958.817     -254797.568        4724.017          35.000                  
                                                
  22047409.870     -177355.497        1676.778          30.000                  
                                                
  22835440.966      -91714.495         896.203          32.000                  
                                                
  20694915.440     -176998.238        1647.922          37.000                  
                                                
  23052014.257     -741220.511        6825.900          38.000                  
                                                
  22943491.526     -131075.562        1216.417          38.000                  
                                                
 18  5 21 13 21 29.5000000  0  7R16R18G 3G22G26G27G31
  21615843.118      -84241.627         787.098          31.000                  
                                                
  22778513.459     -257159.344        4723.377          35.000                  
                                                
  22047244.474     -178193.745        1676.568          30.000                  
                                                
  22835355.713      -92162.549         895.999          32.000                  
                                                
  20694758.586     -177822.028        1647.618          37.000                  
                                                
  23051364.834     -744633.432        6825.767          38.000                  
                                                
  22943375.878     -131683.617        1216.128          38.000                  
                                                
 18  5 21 13 21 30.0000000  0  7R16R18G 3G22G26G27G31
  21615768.336      -84635.026         786.836          32.000                  
                                                
  22778069.949     -259520.851        4722.737          35.000                  
                                                
  22047083.689     -179031.752        1675.742          30.000                  
                                                
  22835270.487      -92610.452         895.867          33.000                  
                                                
  20694601.759     -178645.607        1647.033          37.000                  
                                                
  23050715.438     -748046.236        6825.562          38.000                  
                                                
  22943260.265     -132291.592        1216.010          39.000                  
                                                
 18  5 21 13 21 30.5000000  0  7R16R18G 3G22G26G27G31
  21615689.060      -85028.3131        786.724          32.000                  
                                                
  22777623.090     -261882.106        4722.504          35.000                  
                                                
  22046926.611     -179869.569        1675.523          30.000                  
                                                
  22835185.296      -93058.128         895.322          33.000                  
                                                
  20694444.976     -179469.000        1646.805          37.000                  
                                                
  23050066.060     -751458.910        6825.427          38.000                  
                                                
  22943144.644     -132899.449        1215.902          39.000                  
                                                
 18  5 21 13 21 31.0000000  0  7R16R18G 3G22G26G27G31
  21615616.923      -85421.708         787.155          33.000                  
                                                
  22777181.984     -264243.254        4722.297          35.000                  
                                                
  22046766.603                        1677.333          30.000                  
                                                
  22835100.088      -93505.872         895.496          33.000                  
                                                
  20694288.193     -180292.361        1646.777          37.000                  
                                                
  23049416.682     -754871.622        6825.546          38.000                  
                                                
  22943029.013     -133507.374        1215.971          38.000                  
                                                
 18  5 21 13 21 31.5000000  0  7R16R18G 3G22G26G27G31
  21615542.820      -85815.101         786.917          33.000                  
                                                
  22776739.404     -266604.256        4721.849          35.000                  
                                                
  22046606.747     -181545.032        1675.028          30.000                  
                                                
  22835014.879      -93953.609         895.421          33.000                  
                                                
  20694131.428     -181115.649        1646.525          37.000                  
                                                
  23048767.295     -758284.367        6825.602          38.000                  
                                                
  22942913.365     -134115.346        1215.984          38.000                  
                                                
 18  5 21 13 21 32.0000000  0  7R16R18G 3G22G26G27G31
  21615469.057      -86208.669         787.445          33.000                  
                                                
  22776297.235     -268965.291        4722.318          35.000                  
                                                
  22046446.917     -182382.793        1675.764          29.000                  
                                                
  22834929.653      -94401.437         895.810          34.000                  
                                                
  20693974.645     -181939.017        1646.738          37.000                  
                                                
  23048117.890     -761697.232        6825.968          38.000                  
                                                
  22942797.690     -134723.476        1216.616          39.000                  
                                                
 18  5 21 13 21 32.5000000  0  7R16R18G 3G22G26G27G31
  21615398.126      -86602.269         787.310          33.000                  
                                                
  22775857.854     -271326.136        4721.556          35.000                  
                                                
  22046284.872     -183220.465        1675.633          30.000                  
                                                
  22834844.436      -94849.247         895.774          34.000                  
                                                
  20693817.898     -182762.302        1646.502          37.000                  
                                                
  23047468.476     -765110.090        6825.756          38.000                  
                                                
  22942682.015     -135331.608        1216.465          39.000                  
                                                
 18  5 21 13 21 33.0000000  0  7R16R18G 3G22G26G27G31
  21615324.059      -86995.865         787.441          32.000                  
                                                
  22775415.470     -273686.802        4721.345          35.000                  
                                                
  22046125.516                        1673.384          30.000                  
                                                
  22834759.245      -95296.955         895.647          34.000                  
                                                
  20693661.160     -183585.481        1646.432          38.000                  
                                                
  23046819.062     -768522.928        6825.822          38.000                  
                                                
  22942566.339     -135939.716        1216.354          39.000                  
                                                
 18  5 21 13 21 33.5000000  0  7R16R18G 3G22G26G27G31
  21615250.143      -87389.378         786.815          32.000                  
                                                
  22774973.319     -276047.244        4720.599          35.000                  
                                                
  22045966.258     -184895.295        1674.718          30.000                  
                                                
  22834674.072      -95744.594         895.152          34.000                  
                                                
  20693504.449     -184408.499        1645.964          38.000                  
                                                
  23046169.666     -771935.679        6825.390          38.000                  
                                                
  22942450.664     -136547.773        1216.158          39.000                  
                                                
 18  5 21 13 21 34.0000000  0  7R16R18G 3G22G26G27G31
  21615176.416      -87783.081         787.656          33.000                  
                                                
  22774531.365     -278407.667        4720.935          36.000                  
                                                
  22045807.322                        1673.635          30.000                  
                                                
  22834588.882      -96192.302         895.762          34.000                  
                                                
  20693347.728     -185231.552        1646.294          38.000                  
                                                
  23045520.252     -775348.521        6825.878          37.000                  
                                                
  22942334.962     -137155.952        1216.593          40.000                  
                                                
 18  5 21 13 21 34.5000000  0  7R16R18G 3G22G26G27G31
  21615105.208      -88176.848         787.692          33.000                  
                                                
  22774092.001     -280767.998        4720.720          36.000                  
                                                
  22045648.529     -186569.997        1674.832          30.000                  
                                                
  22834503.691      -96640.042         895.769          34.000                  
                                                
  20693191.026     -186054.578        1646.158          38.000                  
                                                
  23044870.820     -778761.448        6826.034          37.000                  
                                                
  22942219.225     -137764.213        1216.723          40.000                  
                                                
 18  5 21 13 21 35.0000000  0  7R16R18G 3G22G26G27G31
  21615031.480      -88570.772         788.445          33.000                  
                                                
  22773650.073     -283128.308        4720.834          36.000                  
                                                
  22045489.763     -187407.355        1674.401          29.000                  
                                                
  22834418.483      -97087.850         896.163          34.000                  
                                                
  20693034.306     -186877.642        1646.255          38.000                  
                                                
  23044221.371     -782174.492        6826.453          37.000                  
                                                
  22942103.460     -138372.620        1217.140          40.000                  
                                                
 18  5 21 13 21 35.5000000  0  7R16R18G 3G22G26G27G31
  21614955.233      -88964.687         787.890          33.000                  
                                                
  22773205.581     -285488.471        4720.197          36.000                  
                                                
  22045335.375     -188244.647        1674.702          29.000                  
                                                
  22834333.274      -97535.661         895.943          34.000                  
                                                
  20692877.594     -187700.661        1646.043          38.000                  
                                                
  23043571.912     -785587.525        6825.885          38.000                  
                                                
  22941987.678     -138981.047        1216.927          40.000                  
                                                
 18  5 21 13 21 36.0000000  0  7R16R18G 3G22G26G27G31
  21614882.158      -89358.689         788.182          33.000                  
                                                
  22772764.243     -287848.554        4720.061          36.000                  
                                                
  22045186.972     -189081.851        1674.488          30.000                  
                                                
  22834248.066      -97983.463         895.791          34.000                  
                                                
  20692720.901     -188523.645        1646.151          38.000                  
                                                
  23042922.436     -789000.640        6826.457          37.000                  
                                                
  22941871.887     -139589.540        1217.110          40.000                  
                                                
 18  5 21 13 21 36.5000000  0  7R16R18G 3G22G26G27G31
  21614812.397      -89752.684         787.932          33.000                  
                                                
  22772326.256     -290208.449        4719.685          36.000                  
                                                
  22045029.475     -189918.998        1674.255          30.000                  
                                                
  22834162.875      -98431.189         895.379          34.000                  
                                                
  20692564.225     -189346.490        1645.645          38.000                  
                                                
  23042272.968     -792413.659        6825.927          38.000                  
                                                
  22941756.104     -140198.007        1216.903          40.000                  
                                                
 18  5 21 13 21 37.0000000  0  7R16R18G 3G22G26G27G31
  21614738.902      -90146.730         788.295          33.000                  
                                                
  22771884.534     -292568.226        4719.597          36.000                  
                                                
  22044871.852     -190756.0301       1674.099          30.000                  
                                                
  22834077.676      -98878.936         895.737          33.000                  
                                                
  20692407.559     -190169.307        1645.864          38.000                  
                                                
  23041623.492     -795826.760        6826.449          37.000                  
                                                
  22941640.313     -140806.523        1217.222          40.000                  
                                                
 18  5 21 13 21 37.5000000  0  7R16R18G 3G22G26G27G31
  21614667.417      -90540.746         788.162          33.000                  
                                                
  22771444.911     -294927.809        4719.167          36.000                  
                                                
  22044712.648     -191592.947        1673.959          30.000                  
                                                
  22833992.494      -99326.621         895.535          33.000                  
                                                
  20692250.928     -190991.996        1645.560          38.000                  
                                                
  23040974.024     -799239.779        6826.196          37.000                  
                                                
  22941524.522     -141415.032        1217.250          40.000                  
                                                
 18  5 21 13 21 38.0000000  0  7R16R18G 3G22G26G27G31
  21614593.564      -90934.994         788.840          33.000                  
                                                
  22771002.947     -297287.422        4719.354          36.000                  
                                                
  22044553.775     -192429.939        1674.294          31.000                  
                                                
  22833907.286      -99774.421         895.840          33.000                  
                                                
  20692094.288     -191814.779        1645.797          38.000                  
                                                
  23040324.521     -802652.986        6826.634          36.000                  
                                                
  22941408.704     -142023.721        1217.642          40.000                  
                                                
 18  5 21 13 21 38.5000000  0  7R16R18G 3G22G26G27G31
  21614522.097      -91329.385         788.894          33.000                  
                                                
  22770563.477     -299646.988        4718.822          36.000                  
                                                
  22044394.946     -193266.955        1674.002          31.000                  
                                                
  22833822.050     -100222.316         895.680          33.000                  
                                                
  20691937.639     -192637.609        1645.624          38.000                  
                                                
  23039674.982     -806066.313        6826.551          36.000                  
                                                
  22941292.886     -142632.538        1217.645          40.000                  
                                                
 18  5 21 13 21 39.0000000  0  7R16R18G 3G22G26G27G31
  21614448.271      -91723.906         789.109          33.000                  
                                                
  22770121.683     -302006.576        4719.186          35.000                  
                                                
  22044236.287     -194104.004        1674.311          31.000                  
                                                
  22833736.797     -100670.308         896.023          33.000                  
                                                
  20691780.963     -193460.487        1645.882          38.000                  
                                                
  23039025.434     -809479.746        6826.948          37.000                  
                                                
  22941177.032     -143241.501        1218.127          41.000                  
                                                
 18  5 21 13 21 39.5000000  0  7R16R18G 3G22G26G27G31
  21614367.414      -92118.534         789.613          33.000                  
                                                
  22769672.911     -304366.017        4718.893          35.000                  
                                                
  22044077.574     -194940.989        1674.098          31.000                  
                                                
  22833651.544     -101118.291         896.232          33.000                  
                                                
  20691624.306     -194283.332        1645.860          38.000                  
                                                
  23038375.877     -812893.250        6827.237          37.000                  
                                                
  22941061.169     -143850.539        1218.390          41.000                  
                                                
 18  5 21 13 21 40.0000000  0  7R16R18G 3G22G26G27G31
  21614293.570      -92513.201         789.306          33.000                  
                                                
  22769231.171     -306725.385        4718.579          35.000                  
                                                
  22043918.978     -195777.967        1673.891          31.000                  
                                                
  22833566.273     -101566.321         895.978          33.000                  
                                                
  20691467.666     -195106.156        1645.661          38.000                  
                                                
  23037726.302     -816306.772        6827.036          37.000                  
                                                
  22940945.297     -144459.629        1218.187          41.000                  
                                                
 18  5 21 13 21 40.5000000  0  7R16R18G 3G22G26G27G31
  21614216.554      -92907.711         789.083          33.000                  
                                                
  22768786.295     -309084.392        4718.000          35.000                  
                                                
  22043760.354     -196614.625        1672.969          31.000                  
                                                
  22833481.056     -102014.088         895.406          33.000                  
                                                
  20691311.071     -195928.680        1645.077          38.000                  
                                                
  23037076.772     -819720.087        6826.566          37.000                  
                                                
  22940829.461     -145068.535        1217.925          41.000                  
                                                
 18  5 21 13 21 41.0000000  0  7R16R18G 3G22G26G27G31
  21614142.827      -93302.183         788.756          33.000                  
                                                
  22768344.734     -311443.194        4717.300          36.000                  
                                                
  22043601.633     -197451.184        1672.788          31.000                  
                                                
  22833395.830     -102461.809         895.122          33.000                  
                                                
  20691154.493     -196751.089        1644.592          38.000                  
                                                
  23036427.233     -823133.384        6826.450          36.000                  
                                                
  22940713.626     -145677.421        1217.697          41.000                  
                                                
 18  5 21 13 21 41.5000000  0  7R16R18G 3G22G26G27G31
  21614071.431      -93696.667         789.099          33.000                  
                                                
  22767905.486     -313801.839        4717.135          36.000                  
                                                
  22043442.974     -198287.615        1672.919          31.000                  
                                                
  22833310.621     -102909.476         895.146          33.000                  
                                                
  20690997.934     -197573.399        1644.621          38.000                  
                                                
  23035777.703     -826546.635        6826.470          36.000                  
                                                
  22940597.790     -146286.286        1217.763          41.000                  
                                                
 18  5 21 13 21 42.0000000  0  7R16R18G 3G22G26G27G31
  21613997.766      -94091.201         789.490          34.000                  
                                                
  22767463.961     -316160.366        4716.991          35.000                  
                                                
  22043284.288     -199123.925        1672.365          31.000                  
                                                
  22833225.413     -103357.112         895.363          32.000                  
                                                
  20690841.383     -198395.668        1644.755          38.000                  
                                                
  23035128.155     -829959.926        6826.771          36.000                  
                                                
  22940481.945     -146895.209        1218.115          41.000                  
                                                
 18  5 21 13 21 42.5000000  0  7R16R18G 3G22G26G27G31
  21613925.584      -94485.873         789.521          34.000                  
                                                
  22767023.900     -318518.907        4717.112          35.000                  
                                                
  22043125.647     -199960.377        1672.912          31.000                  
                                                
  22833140.177     -103804.885         895.697          32.000                  
                                                
  20690684.824     -199217.982        1644.706          38.000                  
                                                
  23034478.581     -833373.339        6826.935          36.000                  
                                                
  22940366.073     -147504.284        1218.381          41.000                  
                                                
 18  5 21 13 21 43.0000000  0  7R16R18G 3G22G26G27G31
  21613851.874      -94880.759         789.901          33.000                  
                                                
  22766582.348     -320877.442        4717.227          35.000                  
                                                
  22042967.148     -200796.852        1673.082          31.000                  
                                                
  22833054.906     -104252.784         896.199          32.000                  
                                                
  20690528.247     -200040.378        1644.911          38.000                  
                                                
  23033828.970     -836786.925        6827.400          36.000                  
                                                
  22940250.166     -148113.539        1218.839          41.000                  
                                                
 18  5 21 13 21 43.5000000  0  7R16R18G 3G22G26G27G31
  21613774.573      -95275.772         790.392          33.000                  
                                                
  22766137.239     -323235.931        4716.981          35.000                  
                                                
  22042808.471     -201633.315        1673.171          31.000                  
                                                
  22832969.627     -104700.729         896.121          32.000                  
                                                
  20690371.678     -200862.791        1644.790          38.000                  
                                                
  23033179.342     -840200.589        6827.405          36.000                  
                                                
  22940134.249     -148722.910        1218.925          41.000                  
                                                
 18  5 21 13 21 44.0000000  0  7R16R18G 3G22G26G27G31
  21613700.783      -95670.885         790.439          33.000                  
                                                
  22765695.597     -325594.410        4716.990          35.000                  
                                                
  22042649.687     -202469.826        1673.056          31.000                  
                                                
  22832884.320     -105148.780         896.368          32.000                  
                                                
  20690215.083     -201685.293        1645.170          38.000                  
                                                
  23032529.678     -843614.398        6827.706          36.000                  
                                                
  22940018.306     -149332.424        1219.257          42.000                  
                                                
 18  5 21 13 21 44.5000000  0  7R16R18G 3G22G26G27G31
  21613630.236      -96066.063         790.147          33.000                  
                                                
  22765257.217     -327952.749        4716.571          35.000                  
                                                
  22042497.434                        1673.445          31.000                  
                                                
  22832799.022     -105596.782         895.769          32.000                  
                                                
  20690058.524     -202507.669        1644.655          38.000                  
                                                
  23031880.014     -847028.191        6827.326          36.000                  
                                                
  22939902.363     -149941.942        1218.919          42.000                  
                                                
 18  5 21 13 21 45.0000000  0  7R16R18G 3G22G26G27G31
  21613555.892      -96461.168         790.288          33.000                  
                                                
  22764815.075     -330310.832        4716.243          35.000                  
                                                
  22042338.302     -204142.449        1672.012          30.000                  
                                                
  22832713.742     -106044.678         895.799          32.000                  
                                                
  20689901.991     -203329.886        1644.390          38.000                  
                                                
  23031230.368     -850441.895        6827.527          36.000                  
                                                
  22939786.438     -150551.400        1219.059          42.000                  
                                                
 18  5 21 13 21 45.5000000  0  7R16R18G 3G22G26G27G31
  21613483.487      -96856.299         790.047          33.000                  
                                                
  22764374.916     -332668.792        4715.717          35.000                  
                                                
  22042179.124     -204978.644        1671.882          30.000                  
                                                
  22832628.471     -106492.536         895.525          32.000                  
                                                
  20689745.458     -204152.075        1644.258          38.000                  
                                                
  23030580.712     -853855.637        6827.259          36.000                  
                                                
  22939670.503     -151160.881        1218.779          42.000                  
                                                
 18  5 21 13 21 46.0000000  0  7R16R18G 3G22G26G27G31
  21613409.312      -97251.445         790.570          34.000                  
                                                
  22763933.033     -335026.519        4715.167          35.000                  
                                                
  22042031.821     -205814.662        1672.082          30.000                  
                                                
  22832543.218     -106940.311         894.832          31.000                  
                                                
  20689588.962     -204974.054        1643.317          37.000                  
                                                
  23029931.075     -857269.279        6826.517          35.000                  
                                                
  22939554.596     -151770.323        1218.652          42.000                  
                                                
 18  5 21 13 21 46.5000000  0  7R16R18G 3G22G26G27G31
  21613332.529      -97646.662         791.330          34.000                  
                                                
  22763488.505     -337384.252        4715.857          35.000                  
                                                
  22041870.866     -206650.688        1672.633          30.000                  
                                                
  22832457.938     -107388.198         896.082          31.000                  
                                                
  20689432.438     -205796.145        1644.029          37.000                  
                                                
  23029281.402     -860683.069        6827.941          35.000                  
                                                
  22939438.662     -152379.911        1219.406          42.000                  
                                                
 18  5 21 13 21 47.0000000  0  7R16R18G 3G22G26G27G31
  21613258.694      -98042.065         791.115          34.000                  
                                                
  22763046.997     -339741.920        4714.860          36.000                  
                                                
  22041711.188     -207486.781        1672.530          30.000                  
                                                
  22832372.658     -107836.135         896.192          31.000                  
                                                
  20689275.914     -206618.252        1644.075          37.000                  
                                                
  23028631.720     -864096.934        6827.280          34.000                  
                                                
  22939322.701     -152989.627        1219.414          42.000                  
                                                
 18  5 21 13 21 47.5000000  0  7R16R18G 3G22G26G27G31
  21613182.179      -98437.511         790.572          34.000                  
                                                
  22762602.809     -342099.534        4715.302          36.000                  
                                                
  22041551.582     -208322.724        1672.661          30.000                  
                                                
  22832287.369     -108284.116         895.599          31.000                  
                                                
  20689119.399     -207440.322        1644.410          37.000                  
                                                
  23027982.011     -867510.830        6827.402          34.000                  
                                                
  22939206.740     -153599.396        1219.662          42.000                  
                                                
 18  5 21 13 21 48.0000000  0  7R16R18G 3G22G26G27G31
  21613108.291      -98833.033         791.938          34.000                  
                                                
  22762161.319     -344456.988        4715.390          36.000                  
                                                
  22041391.869     -209158.647        1672.082          29.000                  
                                                
  22832202.089     -108732.065         895.547          32.000                  
                                                
  20688962.885     -208262.288        1643.723          36.000                  
                                                
  23027332.294     -870924.795        6828.017          34.000                  
                                                
  22939090.752     -154209.182        1219.544          42.000                  
                                                
 18  5 21 13 21 48.5000000  0  7R16R18G 3G22G26G27G31
  21613037.672      -99228.428         790.963          34.000                  
                                                
  22761723.117     -346814.160        4714.069          36.000                  
                                                
  22041232.111     -209994.385        1672.089          29.000                  
                                                
  22832116.863     -109179.851         895.015          32.000                  
                                                
  20688806.397     -209084.131        1643.698          36.000                  
                                                
  23026682.594     -874338.610        6827.790          34.000                  
                                                
  22938974.800     -154818.887        1219.248          42.000                  
                                                
 18  5 21 13 21 49.0000000  0  7R16R18G 3G22G26G27G31
  21612963.856      -99623.933         791.499          34.000                  
                                                
  22761281.752     -349171.254        4714.205          36.000                  
                                                
  22041075.632     -210830.0451       1671.245          29.000                  
                                                
  22832031.619     -109627.688         896.015          33.000                  
                                                
  20688649.944     -209905.873        1643.622          36.000                  
                                                
  23026032.894     -877752.424        6827.620          34.000                  
                                                
  22938858.830     -155428.655        1219.971          43.000                  
                                                
 18  5 21 13 21 49.5000000  0  7R16R18G 3G22G26G27G31
  21612884.803     -100019.336         790.155          34.000                  
                                                
  22760835.134     -351528.197        4714.038          36.000                  
                                                
  22040916.553     -211665.642        1671.273          29.000                  
                                                
  22831946.419     -110075.404         895.154          33.000                  
                                                
  20688493.510     -210727.518        1642.801          36.000                  
                                                
  23025383.194     -881166.215        6826.957          34.000                  
                                                
  22938742.860     -156038.380        1218.980          43.000                  
                                                
 18  5 21 13 21 50.0000000  0  7R16R18G 3G22G26G27G31
  21612810.923     -100414.781         790.780          34.000                  
                                                
  22760393.742     -353884.885        4713.701          35.000                  
                                                
  22040757.474     -212500.972        1671.040          29.000                  
                                                
  22831861.211     -110523.087         896.007          33.000                  
                                                
  20688337.094     -211549.003        1643.099          37.000                  
                                                
  23024733.495     -884579.965        6827.522          34.000                  
                                                
  22938626.908     -156648.070        1219.618          42.000                  
                                                
 18  5 21 13 21 50.5000000  0  7R16R18G 3G22G26G27G31
  21612739.313     -100810.296         790.726          34.000                  
                                                
  22759954.665     -356241.508        4712.879          35.000                  
                                                
  22040598.127     -213336.385        1671.464          29.000                  
                                                
  22831776.012     -110970.809         896.088          33.000                  
                                                
  20688180.686     -212370.513        1642.987          37.000                  
                                                
  23024083.777     -887993.803        6827.698          34.000                  
                                                
  22938510.920     -157257.885        1220.333          42.000                  
                                                
 18  5 21 13 21 51.0000000  0  7R16R18G 3G22G26G27G31
  21612665.434     -101205.990         791.140          33.000                  
                                                
  22759513.309     -358598.160        4713.778          34.000                  
                                                
  22040438.744     -214171.737        1671.352          30.000                  
                                                
  22831690.794     -111418.587         895.623          34.000                  
                                                
  20688024.261     -213192.119        1643.194          36.000                  
                                                
  23023434.041     -891407.759        6827.678          35.000                  
                                                
  22938394.905     -157867.820        1220.052          42.000                  
                                                
 18  5 21 13 21 51.5000000  0  7R16R18G 3G22G26G27G31
  21612590.581     -101601.813         791.993          33.000                  
                                                
  22759071.041     -360954.709        4713.058          34.000                  
                                                
  22040277.700     -215007.204        1672.078          30.000                  
                                                
  22831605.559     -111866.477         895.786          34.000                  
                                                
  20687867.844     -214013.731        1643.419          36.000                  
                                                
  23022784.279     -894821.856        6828.788          35.000                  
                                                
  22938278.864     -158477.895        1220.646          42.000                  
                                                
 18  5 21 13 21 52.0000000  0  7R16R18G 3G22G26G27G31
  21612516.621     -101997.762         792.413          33.000                  
                                                
  22758629.676     -363311.229        4712.210          34.000                  
                                                
  22040118.933                        1672.273          29.000                  
                                                
  22831520.297     -112314.485         896.065          34.000                  
                                                
  20687711.419     -214835.390        1643.093          37.000                  
                                                
  23022134.490     -898236.015        6828.273          34.000                  
                                                
  22938162.805     -159088.073        1219.993          41.000                  
                                                
 18  5 21 13 21 52.5000000  0  7R16R18G 3G22G26G27G31
  21612441.830     -102393.761         792.862          33.000                  
                                                
  22758187.525     -365667.584        4712.164          34.000                  
                                                
  22039960.381                        1670.830          29.000                  
                                                
  22831435.080     -112762.350         896.296          34.000                  
                                                
  20687555.029     -215656.936        1643.203          37.000                  
                                                
  23021484.710     -901650.165        6828.005          34.000                  
                                                
  22938046.727     -159698.273        1220.346          41.000                  
                                                
 18  5 21 13 21 53.0000000  0  7R16R18G 3G22G26G27G31
  21612367.897     -102789.588         792.680          33.000                  
                                                
  22757746.259     -368023.669        4711.297          34.000                  
                                                
  22039802.017                        1671.557          27.000                  
                                                
  22831349.862     -113210.144         895.969          35.000                  
                                                
  20687398.675     -216478.314        1643.454          38.000                  
                                                
  23020834.938     -905064.230        6828.509          33.000                  
                                                
  22937930.650     -160308.412        1220.558          41.000                  
                                                
 18  5 21 13 21 53.5000000  0  7R16R18G 3G22G26G27G31
  21612299.021     -103185.372         791.382          33.000                  
                                                
  22757310.058     -370379.599        4710.959          34.000                  
                                                
  22039643.492                        1667.645          27.000                  
                                                
  22831264.689     -113657.755         894.556          35.000                  
                                                
  20687242.366     -217299.503        1642.246          38.000                  
                                                
  23020185.185     -908478.171        6827.074          33.000                  
                                                
  22937814.609     -160918.433        1219.756          41.000                  
                                                
 18  5 21 13 21 54.0000000  0  7R16R18G 3G22G26G27G31
  21612225.043     -103581.225         792.033          34.000                  
                                                
  22756868.818     -372735.310        4711.231          35.000                  
                                                
  22039484.413                        1671.844          27.000                  
                                                
  22831179.517     -114105.391         894.601          34.000                  
                                                
  20687086.074     -218120.603        1642.713          38.000                  
                                                
  23019535.432     -911892.095        6827.787          31.000                  
                                                
  22937698.567     -161528.485        1220.391          42.000                  
                                                
 18  5 21 13 21 54.5000000  0  7R16R18G 3G22G26G27G31
  21612149.725     -103977.252         792.358          34.000                  
                                                
  22756426.247     -375091.077        4711.909          35.000                  
                                                
  22039324.950                        1668.331          27.000                  
                                                
  22831094.308     -114553.175         895.751          34.000                  
                                                
  20686929.783     -218941.788        1642.264          38.000                  
                                                
  23018885.624     -915306.205        6828.157          31.000                  
                                                
  22937582.490     -162138.717        1220.674          42.000                  
                                                
 18  5 21 13 21 55.0000000  0  7R16R18G 3G22G26G27G31
  21612075.703     -104373.388         792.409          34.000                  
                                                
  22755985.025     -377446.765        4711.334          36.000                  
                                                
  22039165.880                        1669.606          26.000                  
                                                
  22831009.091     -115000.993         895.724          34.000                  
                                                
  20686773.483     -219763.024        1642.498          39.000                  
                                                
  23018235.800     -918720.389        6828.492          32.000                  
                                                
  22937466.377     -162749.076        1221.014          43.000                  
                                                
 18  5 21 13 21 55.5000000  0  8R16R18G 3G16G22G26G27G31
  21612000.903     -104769.540         792.123          34.000                  
                                                
  22755543.089     -379802.292        4710.838          36.000                  
                                                
  22039007.775                        1667.861          26.000                  
                                                
  19780399.305     -301040.4831       3664.241          32.000                  
                                                
  22830923.883     -115448.782         895.491          35.000                  
                                                
  20686617.218     -220584.134        1642.173          39.000                  
                                                
  23017585.975     -922134.570        6828.186          32.000                  
                                                
  22937350.264     -163359.420        1220.903          43.000                  
                                                
 18  5 21 13 21 56.0000000  0  8R16R18G 3G16G22G26G27G31
  21611926.898     -105165.879         792.660          35.000                  
                                                
  22755101.965     -382157.889        4711.337          36.000                  
                                                
  22038850.117                        1670.459          27.000                  
                                                
  19780051.574     -302872.780        3664.454          32.000                  
                                                
  22830838.638     -115896.726         896.339          34.000                  
                                                
  20686460.935     -221405.362        1642.504          40.000                  
                                                
  23016936.114     -925548.899        6828.882          32.000                  
                                                
  22937234.107     -163969.956        1221.226          42.000                  
                                                
 18  5 21 13 21 56.5000000  0  8R16R18G 3G16G22G26G27G31
  21611850.490     -105562.263         792.762          35.000                  
                                                
  22754658.492     -384513.308        4710.895          36.000                  
                                                
  22038691.645                        1669.436          27.000                  
                                                
  19779703.691     -304704.921        3664.114          32.000                  
                                                
  22830753.412     -116344.555         895.473          34.000                  
                                                
  20686304.689     -222226.483        1642.055          40.000                  
                                                
  23016286.262     -928963.227        6828.494          32.000                  
                                                
  22937117.958     -164580.503        1221.024          43.000                  
                                                
 18  5 21 13 21 57.0000000  0  8R16R18G 3G16G22G26G27G31
  21611776.432     -105958.618         792.762          34.000                  
                                                
  22754217.395     -386868.513        4710.397          36.000                  
                                                
  22038532.986                        1666.760          26.000                  
                                                
  19779355.745     -306536.868        3663.768          32.000                  
                                                
  22830668.186     -116792.367         895.607          34.000                  
                                                
  20686148.469     -223047.490        1641.784          40.000                  
                                                
  23015636.411     -932377.539        6828.661          33.000                  
                                                
  22937001.801     -165191.018        1221.096          42.000                  
                                                
 18  5 21 13 21 57.5000000  0  8R16R18G 3G16G22G26G27G31
  21611701.883     -106354.812         792.499          34.000                  
                                                
  22753775.851     -389223.397        4709.786          36.000                  
                                                
  22038374.086                        1667.462          25.000                  
                                                
  19779007.746     -308368.517        3663.322          32.000                  
                                                
  22830583.004     -117239.942         895.230          34.000                  
                                                
  20685992.294     -223868.256        1641.597          40.000                  
                                                
  23014986.613     -935791.627        6828.294          33.000                  
                                                
  22936885.679     -165801.371        1220.979          42.000                  
                                                
 18  5 21 13 21 58.0000000  0  8R16R18G 3G16G22G26G27G31
  21611627.869     -106751.066         792.788          34.000                  
                                                
  22753334.853     -391578.216        4709.943          36.000                  
                                                
  22038215.418                        1669.707          27.000                  
                                                
  19778659.756     -310200.092        3663.530          32.000                  
                                                
  22830497.822     -117687.548         895.473          35.000                  
                                                
  20685836.136     -224688.984        1641.802          40.000                  
                                                
  23014336.806     -939205.793        6828.826          33.000                  
                                                
  22936769.539     -166411.780        1221.144          42.000                  
                                                
 18  5 21 13 21 58.5000000  0  8R16R18G 3G16G22G26G27G31
  21611554.910     -107147.444         792.619          34.000                  
                                                
  22752894.971     -393932.906        4709.235          36.000                  
                                                
  22038057.196                        1669.164          27.000                  
                                                
  19778311.622     -312031.575        3662.699          32.000                  
                                                
  22830412.632     -118135.200         895.173          35.000                  
                                                
  20685679.988     -225509.701        1641.366          41.000                  
                                                
  23013686.981     -942620.008        6828.261          33.000                  
                                                
  22936653.364     -167022.300        1221.051          42.000                  
                                                
 18  5 21 13 21 59.0000000  0  8R16R18G 3G16G22G26G27G31
  21611480.807     -107543.861         792.834          34.000                  
                                                
  22752453.963     -396287.486        4709.125          36.000                  
                                                
  22037899.199                        1668.824          27.000                  
                                                
  19777963.498     -313862.983        3662.872          32.000                  
                                                
  22830327.468     -118582.825         895.182          35.000                  
                                                
  20685523.848     -226330.367        1641.446          41.000                  
                                                
  23013037.156     -946034.252        6828.494          33.000                  
                                                
  22936537.188     -167632.837        1221.159          42.000                  
                                                
 18  5 21 13 21 59.5000000  0  8R16R18G 3G16G22G26G27G31
  21611404.033     -107940.337         793.134          34.000                  
                                                
  22752010.302     -398641.972        4709.178          36.000                  
                                                
  22037740.834                        1668.209          27.000                  
                                                
  19777615.186     -315694.277        3662.713          32.000                  
                                                
  22830242.287     -119030.488         895.401          35.000                  
                                                
  20685367.718     -227150.997        1641.425          41.000                  
                                                
  23012387.322     -949448.536        6828.908          33.000                  
                                                
  22936420.995     -168243.463        1221.544          42.000                  
                                                
 18  5 21 13 22  0.0000000  0  8R16R18G 3G16G22G26G27G31
  21611329.885     -108336.850         792.989          34.000                  
                                                
  22751569.331     -400996.314        4708.573          36.000                  
                                                
  22037582.032                        1669.905          27.000                  
                                                
  19777266.838     -317525.468        3662.412          32.000                  
                                                
  22830157.114     -119478.151         895.497          36.000                  
                                                
  20685211.605     -227971.569        1641.220          41.000                  
                                                
  23011737.497     -952862.832        6828.645          33.000                  
                                                
  22936304.793     -168854.114        1221.426          42.000                  
                                                
 18  5 21 13 22  0.5000000  0  8R16R18G 3G16G22G26G27G31
  21611260.268     -108733.276         793.162          34.000                  
                                                
  22751132.898     -403350.391        4708.204          36.000                  
                                                
  22037422.909                        1667.916          27.000                  
                                                
  19776918.473     -319356.407        3662.040          32.000                  
                                                
  22830071.977     -119925.628         895.301          36.000                  
                                                
  20685055.519     -228791.970        1641.080          41.000                  
                                                
  23011087.690     -956277.026        6828.749          33.000                  
                                                
  22936188.617     -169464.674        1221.447          42.000                  
                                                
 18  5 21 13 22  1.0000000  0  8R16R18G 3G16G22G26G27G31
  21611186.093     -109129.648         792.974          35.000                  
                                                
  22750691.944     -405704.264        4707.782          36.000                  
                                                
  22037264.527                        1666.426          28.000                  
                                                
  19776570.107     -321187.155        3661.774          32.000                  
                                                
  22829986.858     -120373.012         894.966          36.000                  
                                                
  20684899.478     -229612.189        1640.603          42.000                  
                                                
  23010437.910     -959691.082        6828.191          33.000                  
                                                
  22936072.460     -170075.154        1221.186          42.000                  
                                                
 18  5 21 13 22  1.5000000  0  8R16R18G 3G16G22G26G27G31
  21611118.218     -109526.145         793.439          35.000                  
                                                
  22750257.342     -408058.076        4707.688          36.000                  
                                                
  22037106.806                        1666.832          28.000                  
                                                
  19776221.724     -323017.830        3661.624          32.000                  
                                                
  22829901.730     -120820.438         895.075          36.000                  
                                                
  20684743.436     -230432.421        1640.639          42.000                  
                                                
  23009788.112     -963105.277        6828.620          32.000                  
                                                
  22935956.275     -170685.745        1221.488          42.000                  
                                                
 18  5 21 13 22  2.0000000  0  8R16R18G 3G16G22G26G27G31
  21611044.133     -109922.826         793.964          34.000                  
                                                
  22749816.558     -410411.939        4707.956          36.000                  
                                                
  22036948.692                        1666.280          28.000                  
                                                
  19775873.323     -324848.574        3661.816          31.000                  
                                                
  22829816.575     -121268.049         895.650          36.000                  
                                                
  20684587.377     -231252.758        1640.922          42.000                  
                                                
  23009138.269     -966519.667        6829.234          33.000                  
                                                
  22935840.046     -171296.536        1221.940          41.000                  
                                                
 18  5 21 13 22  2.5000000  0  8R16R18G 3G16G22G26G27G31
  21610971.727     -110319.596         793.637          34.000                  
                                                
  22749377.481     -412765.707        4707.448          36.000                  
                                                
  22036789.693                        1667.961          28.000                  
                                                
  19775524.904     -326679.198        3661.095          31.000                  
                                                
  22829731.420     -121715.652         895.101          36.000                  
                                                
  20684431.327     -232073.097        1640.620          42.000                  
                                                
  23008488.426     -969934.094        6828.909          32.000                  
                                                
  22935723.808     -171907.414        1221.865          41.000                  
                                                
 18  5 21 13 22  3.0000000  0  8R16R18G 3G16G22G26G27G31
  21610897.419     -110716.408         794.062          35.000                  
                                                
  22748936.545     -415119.324        4707.223          37.000                  
                                                
  22036630.141                        1668.709          28.000                  
                                                
  19775176.502     -328509.708        3660.828          32.000                  
                                                
  22829646.256     -122163.250         895.355          36.000                  
                                                
  20684275.295     -232893.332        1640.520          43.000                  
                                                
  23007838.584     -973348.530        6829.114          33.000                  
                                                
  22935607.570     -172518.295        1222.021          42.000                  
                                                
 18  5 21 13 22  3.5000000  0  8R16R18G 3G16G22G26G27G31
  21610816.821     -111113.306         794.139          35.000                  
                                                
  22748489.354     -417472.878        4707.231          37.000                  
                                                
  22036470.972                        1665.867          28.000                  
                                                
  19774828.029     -330340.222        3661.112          32.000                  
                                                
  22829561.093     -122610.900         895.642          36.000                  
                                                
  20684119.263     -233713.576        1640.540          43.000                  
                                                
  23007188.732     -976763.027        6829.418          33.000                  
                                                
  22935491.305     -173129.275        1222.183          42.000                  
                                                
 18  5 21 13 22  4.0000000  0  8R16R18G 3G16G22G26G27G31
  21610742.495     -111510.192         793.888          35.000                  
                                                
  22748048.481     -419826.242        4706.647          36.000                  
                                                
  22036312.671                        1666.459          28.000                  
                                                
  19774479.521     -332170.513        3660.495          31.000                  
                                                
  22829475.938     -123058.447         895.081          35.000                  
                                                
  20683963.266     -234533.652        1640.302          43.000                  
                                                
  23006538.898     -980177.468        6829.065          32.000                  
                                                
  22935375.049     -173740.235        1221.889          41.000                  
                                                
 18  5 21 13 22  4.5000000  0  8R16R18G 3G16G22G26G27G31
  21610669.518     -111906.994         793.543          35.000                  
                                                
  22747609.001     -422179.323        4705.856          36.000                  
                                                
  22036154.753                        1668.325          28.000                  
                                                
  19774131.021     -334000.536        3659.587          31.000                  
                                                
  22829390.801     -123505.849         894.673          35.000                  
                                                
  20683807.287     -235353.588        1639.733          43.000                  
                                                
  23005889.073     -983591.765        6828.312          32.000                  
                                                
  22935258.811     -174351.104        1221.689          41.000                  
                                                
 18  5 21 13 22  5.0000000  0  8R16R18G 3G16G22G26G27G31
  21610595.218     -112303.728         793.387          35.000                  
                                                
  22747168.208     -424532.206        4705.706          36.000                  
                                                
  22035996.425                        1664.935          28.000                  
                                                
  19773782.477     -335830.397        3659.567          30.000                  
                                                
  22829305.682     -123953.149         894.527          36.000                  
                                                
  20683651.353     -236173.361        1639.580          43.000                  
                                                
  23005239.257     -987006.040        6828.514          32.000                  
                                                
  22935142.582     -174961.901        1221.575          41.000                  
                                                
 18  5 21 13 22  5.5000000  0  8R16R18G 3G16G22G26G27G31
  21610524.037     -112700.416         793.396          35.000                  
                                                
  22746730.587     -426884.853        4705.311          36.000                  
                                                
  22035838.105                        1666.865          28.000                  
                                                
  19773433.960     -337660.041        3659.293          30.000                  
                                                
  22829220.580     -124400.390         894.561          36.000                  
                                                
  20683495.437     -236993.011        1639.355          43.000                  
                                                
  23004589.468     -990420.241        6828.437          32.000                  
                                                
  22935026.362     -175572.674        1221.740          41.000                  
                                                
 18  5 21 13 22  6.0000000  0  8R16R18G 3G16G22G26G27G31
  21610449.872     -113097.280         793.849          35.000                  
                                                
  22746290.017     -429237.477        4705.267          36.000                  
                                                
  22035679.723                        1668.690          27.000                  
                                                
  19773085.460     -339489.657        3659.336          30.000                  
                                                
  22829135.470     -124847.658         894.726          35.000                  
                                                
  20683339.521     -237812.684        1639.516          43.000                  
                                                
  23003939.652     -993834.567        6829.251          32.000                  
                                                
  22934910.124     -176183.563        1222.014          41.000                  
                                                
 18  5 21 13 22  6.5000000  0  8R16R18G 3G16G22G26G27G31
  21610379.905     -113494.112         794.083          35.000                  
                                                
  22745853.674     -431589.914        4705.048          36.000                  
                                                
  22035520.849                        1663.632          27.000                  
                                                
  19772736.970     -341319.138        3659.119          30.000                  
                                                
  22829050.378     -125294.905         894.798          35.000                  
                                                
  20683183.614     -238632.267        1639.431          43.000                  
                                                
  23003289.854     -997248.774        6828.792          32.000                  
                                                
  22934793.886     -176794.455        1222.232          41.000                  
                                                
 18  5 21 13 22  7.0000000  0  8R16R18G 3G16G22G26G27G31
  21610305.526     -113891.085         794.248          35.000                  
                                                
  22745412.952     -433942.326        4704.851          37.000                  
                                                
  22035361.958                        1664.888          27.000                  
                                                
  19772388.506     -343148.589        3659.047          29.000                  
                                                
  22828965.259     -125742.226         894.981          35.000                  
                                                
  20683027.715     -239451.872        1639.428          43.000                  
                                                
  23002640.029    -1000663.159        6829.016          31.000                  
                                                
  22934677.630     -177405.444        1222.273          42.000                  
                                                
 18  5 21 13 22  7.5000000  0  8R16R18G 3G16G22G26G27G31
  21610227.903     -114288.117         794.434          35.000                  
                                                
  22744969.005     -436294.640        4704.846          37.000                  
                                                
  22035202.977                        1666.049          27.000                  
                                                
  19772040.096     -344977.927        3658.888          30.000                  
                                                
  22828880.158     -126189.527         894.819          35.000                  
                                                
  20682871.817     -240271.432        1639.340          43.000                  
                                                
  23001990.204    -1004077.581        6829.168          31.000                  
                                                
  22934561.357     -178016.504        1222.426          42.000                  
                                                
 18  5 21 13 22  8.0000000  0  8R16R18G 3G16G22G26G27G31
  21610153.541     -114685.246         794.466          35.000                  
                                                
  22744528.346     -438646.847        4704.372          37.000                  
                                                
  22035044.131                        1666.953          26.000                  
                                                
  19771683.037     -346807.720        3659.599          30.000                  
                                                
  22828795.030     -126636.911         895.114          36.000                  
                                                
  20682715.910     -241090.991        1639.279          43.000                  
                                                
  23001340.379    -1007492.038        6829.114          32.000                  
                                                
  22934445.074     -178627.650        1222.526          42.000                  
                                                
 18  5 21 13 22  8.5000000  0  8R16R18G 3G16G22G26G27G31
  21610077.302     -115082.299         794.051          35.000                  
                                                
  22744085.855     -440998.801        4703.629          37.000                  
                                                
  22034884.900                        1664.362          27.000                  
                                                
  19771334.537     -348636.809        3659.186          30.000                  
                                                
  22828709.946     -127084.112         894.460          36.000                  
                                                
  20682560.047     -241910.353        1638.641          43.000                  
                                                
  23000690.572    -1010906.380        6828.576          32.000                  
                                                
  22934328.809     -179238.697        1222.146          42.000                  
                                                
 18  5 21 13 22  9.0000000  0  8R16R18G 3G16G22G26G27G31
  21610002.887     -115479.390         794.093          35.000                  
                                                
  22743645.214     -443350.649        4703.675          37.000                  
                                                
  22034725.589                        1664.221          26.000                  
                                                
  19770986.082                        3656.188          30.000                  
                                                
  22828624.854     -127531.334         894.649          36.000                  
                                                
  20682404.194     -242729.674        1638.725          43.000                  
                                                
  23000040.756    -1014320.777        6828.898          32.000                  
                                                
  22934212.527     -179849.783        1222.251          41.000                  
                                                
 18  5 21 13 22  9.5000000  0  8R16R18G 3G16G22G26G27G31
  21609927.176     -115876.583         794.393          35.000                  
                                                
  22743203.313     -445702.400        4703.392          37.000                  
                                                
  22034565.500                        1665.254          27.000                  
                                                
  19770637.806     -352293.987        3656.096          30.000                  
                                                
  22828539.771     -127978.558         894.307          36.000                  
                                                
  20682248.340     -243548.964        1638.499          43.000                  
                                                
  22999390.940    -1017735.204        6828.712          32.000                  
                                                
  22934096.244     -180460.959        1222.412          42.000                  
                                                
 18  5 21 13 22 10.0000000  0  8R16R18G 3G16G22G26G27G31
  21609852.796     -116273.858         794.701          35.000                  
                                                
  22742762.770     -448054.072        4703.296          37.000                  
                                                
  22034405.000                        1663.839          25.000                  
                                                
  19770289.780     -354122.840        3657.507          30.000                  
                                                
  22828454.678     -128425.842         894.766          37.000                  
                                                
  20682092.478     -244368.263        1638.666          42.000                  
                                                
  22998741.115    -1021149.711        6829.208          32.000                  
                                                
  22933979.934     -181072.227        1222.794          41.000                  
                                                
 18  5 21 13 22 10.5000000  0  8R16R18G 3G16G22G26G27G31
  21609776.183     -116671.167         794.927          35.000                  
                                                
  22742320.021     -450405.586        4703.152          37.000                  
                                                
  22034244.340                        1665.619          25.000                  
                                                
  19769944.175     -355951.483        3657.363          30.000                  
                                                
  22828369.586     -128873.108         894.619          37.000                  
                                                
  20681936.624     -245187.471        1638.523          42.000                  
                                                
  22998091.300    -1024564.202        6829.287          32.000                  
                                                
  22933863.616     -181683.523        1222.766          41.000                  
                                                
 18  5 21 13 22 11.0000000  0  8R16R18G 3G16G22G26G27G31
  21609701.794     -117068.555         794.965          33.000                  
                                                
  22741879.531     -452757.035        4702.815          37.000                  
                                                
  22034083.823                        1665.184          26.000                  
                                                
  19769594.711     -357780.073        3657.208          31.000                  
                                                
  22828284.494     -129320.378         894.517          37.000                  
                                                
  20681780.779     -246006.682        1638.437          42.000                  
                                                
  22997441.457    -1027978.795        6829.614          33.000                  
                                                
  22933747.289     -182294.889        1222.973          42.000                  
                                                
 18  5 21 13 22 11.5000000  0  8R16R18G 3G16G22G26G27G31
  21609625.073     -117465.848         794.698          33.000                  
                                                
  22741436.728     -455108.268        4702.471          37.000                  
                                                
  22033923.993                        1665.380          26.000                  
                                                
  19769250.714     -359608.454        3656.850          31.000                  
                                                
  22828199.410     -129767.573         894.567          37.000                  
                                                
  20681624.952     -246825.724        1638.217          42.000                  
                                                
  22996791.641    -1031393.252        6829.383          33.000                  
                                                
  22933630.979     -182906.165        1222.718          42.000                  
                                                
 18  5 21 13 22 12.0000000  0  8R16R18G 3G16G22G26G27G31
  21609550.720     -117863.230         794.517          33.000                  
                                                
  22740996.346     -457459.379        4702.011          37.000                  
                                                
  22033764.128                        1662.292          25.000                  
                                                
  19768901.241     -361436.744        3656.280          31.000                  
                                                
  22828114.336     -130214.758         894.414          37.000                  
                                                
  20681469.126     -247644.756        1638.047          42.000                  
                                                
  22996141.825    -1034807.770        6828.872          32.000                  
                                                
  22933514.652     -183517.518        1222.675          42.000                  
                                                
 18  5 21 13 22 12.5000000  0  8R16R18G 3G16G22G26G27G31
  21609478.109     -118260.596         794.646          33.000                  
                                                
  22740557.742     -459810.275        4701.657          37.000                  
                                                
  22033604.173                        1665.120          25.000                  
                                                
  19768553.608     -363264.836        3656.008          31.000                  
                                                
  22828029.288     -130661.834         894.232          37.000                  
                                                
  20681313.335     -248463.617        1637.805          42.000                  
                                                
  22995492.027    -1038222.216        6828.778          32.000                  
                                                
  22933398.333     -184128.821        1222.734          42.000                  
                                                
 18  5 21 13 22 13.0000000  0  8R16R18G 3G16G22G26G27G31
  21609403.739     -118658.000         795.076          34.000                  
                                                
  22740117.404     -462161.035        4701.590          37.000                  
                                                
  22033443.897                        1663.448          25.000                  
                                                
  19768206.261     -365092.8051       3655.725          31.000                  
                                                
  22827944.241     -131108.895         894.173          37.000                  
                                                
  20681157.552     -249282.403        1637.692          42.000                  
                                                
  22994842.220    -1041636.674        6829.085          32.000                  
                                                
  22933282.006     -184740.143        1222.809          42.000                  
                                                
 18  5 21 13 22 13.5000000  0  8R16R18G 3G16G22G26G27G31
  21609328.921     -119055.383         795.136          34.000                  
                                                
  22739676.656     -464511.615        4701.193          37.000                  
                                                
  22033284.032                        1658.878          25.000                  
                                                
  19767858.869     -366920.626        3655.556          31.000                  
                                                
  22827859.193     -131555.917         894.212          37.000                  
                                                
  20681001.779     -250101.102        1637.517          42.000                  
                                                
  22994192.431    -1045051.118        6829.200          32.000                  
                                                
  22933165.679     -185351.485        1223.038          42.000                  
                                                
 18  5 21 13 22 14.0000000  0  8R16R18G 3G16G22G26G27G31
  21609254.497     -119453.023         795.611          34.000                  
                                                
  22739236.337     -466862.289        4701.682          37.000                  
                                                
  22033123.613                        1662.192          22.000                  
                                                
  19767511.737     -368748.546        3656.127          32.000                  
                                                
  22827774.110     -132003.129         894.729          37.000                  
                                                
  20680845.979     -250919.961        1638.037          42.000                  
                                                
  22993542.606    -1048465.759        6829.735          33.000                  
                                                
  22933049.298     -185963.059        1223.684          42.000                  
                                                
 18  5 21 13 22 14.5000000  0  8R16R18G 3G16G22G26G27G31
  21609179.750     -119850.814         795.408          34.000                  
                                                
  22738795.749     -469212.889        4700.917          37.000                  
                                                
  22032963.774                        1660.924          22.000                  
                                                
  19767164.604     -370576.386        3655.380          32.000                  
                                                
  22827689.026     -132450.384         894.193          37.000                  
                                                
  20680690.179     -251738.822        1637.581          42.000                  
                                                
  22992892.763    -1051880.511        6829.514          33.000                  
                                                
  22932932.908     -186574.729        1223.281          42.000                  
                                                
 18  5 21 13 22 15.0000000  0  8R16R18G 3G16G22G26G27G31
  21609105.281     -120248.641         795.675          34.000                  
                                                
  22738355.483     -471563.369        4700.772          38.000                  
                                                
  22032803.132                        1660.185          19.000                  
                                                
  19766817.570     -372404.157        3655.589          32.000                  
                                                
  22827603.934     -132897.647         894.340          37.000                  
                                                
  20680534.379     -252557.632        1637.639          42.000                  
                                                
  22992242.929    -1055295.259        6829.515          34.000                  
                                                
  22932816.500     -187186.437        1223.393          42.000                  
                                                
 18  5 21 13 22 15.5000000  0  8R16R18G 3G16G22G26G27G31
  21609034.359     -120646.484         795.971          34.000                  
                                                
  22737918.773     -473913.695        4700.743          38.000                  
                                                
  22032643.419                        1658.762          19.000                  
                                                
  19766470.410     -374231.755        3655.224          32.000                  
                                                
  22827518.860     -133344.870         894.640          37.000                  
                                                
  20680378.606     -253376.345        1637.495          42.000                  
                                                
  22991593.104    -1058710.004        6829.549          34.000                  
                                                
  22932700.101     -187798.166        1223.633          42.000                  
                                                
 18  5 21 13 22 16.0000000  0  8R16R18G 3G16G22G26G27G31
  21608959.881     -121044.374         795.874          35.000                  
                                                
  22737478.543     -476263.913        4700.290          38.000                  
                                                
  22032481.347                        1660.570          16.000                  
                                                
  19766123.492     -376059.314        3654.984          32.000                  
                                                
  22827433.776     -133792.101         894.371          37.000                  
                                                
  20680222.833     -254195.033        1637.188          43.000                  
                                                
  22990943.279    -1062124.789        6829.628          34.000                  
                                                
  22932583.685     -188409.944        1223.563          42.000                  
                                                
 18  5 21 13 22 16.5000000  0  8R16R18G 3G16G22G26G27G31
  21608884.563     -121442.195         795.859          35.000                  
                                                
  22737037.509     -478613.909        4700.043          38.000                  
                                                
  22032318.953                        1662.838          16.000                  
                                                
  19765776.512     -377886.608        3654.858          32.000                  
                                                
  22827348.729     -134239.178         894.175          37.000                  
                                                
  20680067.095     -255013.546        1637.113          43.000                  
                                                
  22990293.481    -1065539.454        6829.378          34.000                  
                                                
  22932467.286     -189021.651        1223.617          42.000                  
                                                
 18  5 21 13 22 17.0000000  0  8R16R18G 3G16G22G26G27G31
  21608810.085     -121839.940         795.740          35.000                  
                                                
  22736597.341     -480963.645        4699.419          38.000                  
                                                
  22032156.104                        1667.824          15.000                  
                                                
  19765429.424     -379713.657        3654.267          32.000                  
                                                
  22827263.690     -134686.166         893.981          37.000                  
                                                
  20679911.385     -255831.875        1636.716          42.000                  
                                                
  22989643.701    -1068954.051        6829.327          34.000                  
                                                
  22932350.905     -189633.273        1223.411          42.000                  
                                                
 18  5 21 13 22 17.5000000  0  8R16R18G 3G16G22G26G27G31
  21608734.687     -122237.751         795.862          35.000                  
                                                
  22736156.289     -483313.277        4699.293          38.000                  
                                                
  22031995.273                        1668.499          15.000                  
                                                
  19765082.255     -381540.612        3654.046          32.000                  
                                                
  22827178.660     -135133.124         894.098          37.000                  
                                                
  20679755.692     -256650.137        1636.546          42.000                  
                                                
  22988993.921    -1072368.645        6829.112          34.000                  
                                                
  22932234.515     -190244.925        1223.399          42.000                  
                                                
 18  5 21 13 22 18.0000000  0  8R16R18G 3G16G22G26G27G31
  21608660.191     -122635.612         795.907          35.000                  
                                                
  22735716.175     -485662.793        4698.983          38.000                  
                                                
  22031836.909                        1668.889          20.000                  
                                                
  19764735.034     -383367.478        3653.797          32.000                  
                                                
  22827093.631     -135580.100         894.061          37.000                  
                                                
  20679599.990     -257468.395        1636.609          43.000                  
                                                
  22988344.123    -1075783.298        6829.375          34.000                  
                                                
  22932118.107     -190856.660        1223.609          41.000                  
                                                
 18  5 21 13 22 18.5000000  0  8R16R18G 3G16G22G26G27G31
  21608584.363     -123033.547         796.096          35.000                  
                                                
  22735274.756     -488012.195        4698.763          38.000                  
                                                
  22031682.834                        1669.287          20.000                  
                                                
  19764387.722     -385194.222        3653.270          32.000                  
                                                
  22827008.592     -136027.091         894.069          37.000                  
                                                
  20679444.297     -258286.603        1636.479          43.000                  
                                                
  22987694.325    -1079197.970        6829.388          34.000                  
                                                
  22932001.700     -191468.434        1223.715          41.000                  
                                                
 18  5 21 13 22 19.0000000  0  8R16R18G 3G16G22G26G27G31
  21608509.859     -123431.553         796.047          35.000                  
                                                
  22734834.678     -490361.530        4698.593          38.000                  
                                                
  22031532.814                        1662.114          20.000                  
                                                
  19764040.295     -387020.939        3653.208          31.000                  
                                                
  22826923.553     -136474.119         894.243          37.000                  
                                                
  20679288.604     -259104.801        1636.439          43.000                  
                                                
  22987044.509    -1082612.728        6829.656          35.000                  
                                                
  22931885.265     -192080.299        1223.889          41.000                  
                                                
 18  5 21 13 22 19.5000000  0  8R16R18G 3G16G22G26G27G31
  21608434.871     -123829.566         796.175          35.000                  
                                                
  22734394.135     -492710.649        4698.145          38.000                  
                                                
  22031383.331                        1658.529          20.000                  
                                                
  19763692.769     -388847.490        3653.069          31.000                  
                                                
  22826838.524     -136921.085         894.242          37.000                  
                                                
  20679132.930     -259922.890        1636.276          43.000                  
                                                
  22986394.702    -1086027.441        6829.568          35.000                  
                                                
  22931768.839     -192692.142        1223.838          41.000                  
                                                
 18  5 21 13 22 20.0000000  0  8R16R18G 3G16G22G26G27G31
  21608360.375     -124227.629         796.429          35.000                  
                                                
  22733954.119     -495059.689        4697.948          38.000                  
                                                
  22031233.964                        1658.663          20.000                  
                                                
  19763345.190     -390673.936        3652.879          31.000                  
                                                
  22826753.503     -137368.045         894.178          37.000                  
                                                
  20678977.255     -260740.944        1636.202          42.000                  
                                                
  22985744.886    -1089442.189        6829.699          35.000                  
                                                
  22931652.405     -193304.043        1223.869          42.000                  
                                                
 18  5 21 13 22 20.5000000  0  8R16R18G 3G16G22G26G27G31
  21608285.048     -124625.632         796.019          35.000                  
                                                
  22733513.299     -497408.484        4697.315          38.000                  
                                                
  22031081.612                        1657.290          20.000                  
                                                
  19762997.664     -392500.161        3652.218          31.000                  
                                                
  22826668.509     -137814.886         893.620          38.000                  
                                                
  20678821.624     -261558.821        1635.622          43.000                  
                                                
  22985095.106    -1092856.831        6829.391          35.000                  
                                                
  22931535.988     -193915.883        1223.732          42.000                  
                                                
 18  5 21 13 22 21.0000000  0  8R16R18G 3G16G22G26G27G31
  21608210.570     -125023.584         796.144          35.000                  
                                                
  22733073.355     -499757.058        4697.142          38.000                  
                                                
  22030927.001                        1653.654          20.000                  
                                                
  19762650.219     -394326.218        3652.407          32.000                  
                                                
  22826583.524     -138261.639         893.734          38.000                  
                                                
  20678666.003     -262376.563        1635.681          42.000                  
                                                
  22984445.325    -1096271.406        6829.370          35.000                  
                                                
  22931419.580     -194527.663        1223.830          42.000                  
                                                
 18  5 21 13 22 21.5000000  0  8R16R18G 3G16G22G26G27G31
  21608137.781     -125421.630         796.184          35.000                  
                                                
  22732635.126     -502105.574        4696.915          38.000                  
                                                
  22030769.074                        1661.979           1.000                  
                                                
  19762302.720     -396152.174        3652.007          32.000                  
                                                
  22826498.539     -138708.432         893.729          38.000                  
                                                
  20678510.391     -263194.306        1635.493          42.000                  
                                                
  22983795.545    -1099686.050        6829.392          35.000                  
                                                
  22931303.155     -195139.542        1223.995          42.000                  
                                                
 18  5 21 13 22 22.0000000  0  8R16R18G 3G16G22G26G27G31
  21608063.258     -125819.759         796.633          35.000                  
                                                
  22732195.209     -504453.980        4696.810          38.000                  
                                                
  22030610.942                        1661.979           1.000                  
                                                
  19761955.212     -397978.077        3652.107          32.000                  
                                                
  22826413.553     -139155.223         893.713          38.000                  
                                                
  20678354.787     -264012.012        1635.437          42.000                  
                                                
  22983145.747    -1103100.751        6829.407          36.000                  
                                                
  22931186.711     -195751.469        1223.971          42.000                  
                                                
 18  5 21 13 22 22.5000000  0  8R16R18G 3G16G22G26G27G31
  21607986.832     -126217.921         796.371          35.000                  
                                                
  22731753.406     -506802.267        4696.446          38.000                  
                                                
  22030455.187                        1664.262          30.000                  
                                                
  19761607.749     -399803.821        3651.558          32.000                  
                                                
  22826328.577     -139602.035         893.528          38.000                  
                                                
  20678199.175     -264829.687        1635.374          42.000                  
                                                
  22982495.940    -1106515.491        6829.466          36.000                  
                                                
  22931070.259     -196363.466        1224.087          42.000                  
                                                
 18  5 21 13 22 23.0000000  0  8R16R18G 3G16G22G26G27G31
  21607912.318     -126616.127         796.625          35.000                  
                                                
  22731313.560     -509150.390        4696.245          37.000                  
                                                
  22030299.244                        1665.721          25.000                  
                                                
  19761260.205     -401629.439        3650.649          31.000                  
                                                
  22826243.601     -140048.788         893.085          38.000                  
                                                
  20678043.598     -265647.227        1634.605          42.000                  
                                                
  22981846.142    -1109930.193        6829.371          36.000                  
                                                
  22930953.806     -196975.434        1223.828          42.000                  
                                                
 18  5 21 13 22 23.5000000  0  8R16R18G 3G16G22G26G27G31
  21607836.357     -127014.131         796.243          35.000                  
                                                
  22730872.311     -511498.172        4695.661          37.000                  
                                                
  22030141.988                        1659.818          25.000                  
                                                
  19760912.715     -403454.788        3651.416          31.000                  
                                                
  22826158.670     -140495.342         893.237          38.000                  
                                                
  20677888.057     -266464.555        1634.754          42.000                  
                                                
  22981196.380    -1113344.719        6829.337          36.000                  
                                                
  22930837.381     -197587.259        1223.804          42.000                  
                                                
 18  5 21 13 22 24.0000000  0  8R16R18G 3G16G22G26G27G31
  21607761.826     -127412.197         796.351          35.000                  
                                                
  22730432.519     -513845.811        4695.308          38.000                  
                                                
  22029983.659                        1658.497          25.000                  
                                                
  19760565.270     -405279.903        3649.684          31.000                  
                                                
  22826073.729     -140941.876         893.251          38.000                  
                                                
  20677732.534     -267281.794        1634.716          42.000                  
                                                
  22980546.617    -1116759.233        6829.220          36.000                  
                                                
  22930720.955     -198199.112        1223.983          42.000                  
                                                
 18  5 21 13 22 24.5000000  0  8R16R18G 3G16G22G26G27G31
  21607688.277     -127810.308         796.131          35.000                  
                                                
  22729993.727     -516193.291        4694.647          38.000                  
                                                
  22029826.251                        1660.120          25.000                  
                                                
  19760217.816     -407105.017        3650.315          31.000                  
                                                
  22825988.807     -141388.363         892.858          38.000                  
                                                
  20677577.020     -268098.957        1634.394          42.000                  
                                                
  22979896.864    -1120173.750        6828.976          36.000                  
                                                
  22930604.530     -198810.967        1223.730          42.000                  
                                                
 18  5 21 13 22 25.0000000  0  8R16R18G 3G16G22G26G27G31
  21607614.022     -128208.399         796.141          35.000                  
                                                
  22729554.257     -518540.647        4694.549          37.000                  
                                                
  22029669.602                        1661.517          27.000                  
                                                
  19759870.415     -408929.919        3649.675          31.000                  
                                                
  22825903.884     -141834.832         893.050          38.000                  
                                                
  20677421.533     -268916.031        1634.398          42.000                  
                                                
  22979247.110    -1123588.235        6828.930          35.000                  
                                                
  22930488.095     -199422.818        1223.735          42.000                  
                                                
 18  5 21 13 22 25.5000000  0  8R16R18G 3G16G22G26G27G31
  21607539.955     -128606.598         796.537          35.000                  
                                                
  22729114.991     -520887.893        4694.526          37.000                  
                                                
  22029513.543                        1660.286          27.000                  
                                                
  19759523.051     -410754.708        3649.167          31.000                  
                                                
  22825818.962     -142281.293         893.011          38.000                  
                                                
  20677266.045     -269733.067        1634.148          42.000                  
                                                
  22978597.348    -1127002.774        6829.122          35.000                  
                                                
  22930371.643     -200034.766        1223.986          42.000                  
                                                
 18  5 21 13 22 26.0000000  0  8R16R18G 3G16G22G26G27G31
  21607465.414     -129004.937         796.755          35.000                  
                                                
  22728675.288     -523235.118        4694.400          37.000                  
                                                
  22029356.251                        1660.095          28.000                  
                                                
  19759175.686     -412579.533        3649.216          32.000                  
                                                
  22825734.021     -142727.872         893.169          38.000                  
                                                
  20677110.540     -270550.163        1634.215          42.000                  
                                                
  22977947.550    -1130417.456        6829.493          35.000                  
                                                
  22930255.163     -200646.841        1224.234          41.000                  
                                                
 18  5 21 13 22 26.5000000  0  8R16R18G 3G16G22G26G27G31
  21607393.071     -129403.441         797.142          35.000                  
                                                
  22728237.819     -525582.349        4694.489          37.000                  
                                                
  22029197.958                        1659.451          28.000                  
                                                
  19758828.410     -414404.361        3649.527          32.000                  
                                                
  22825649.063     -143174.563         893.520          39.000                  
                                                
  20676955.026     -271367.315        1634.291          42.000                  
                                                
  22977297.734    -1133832.254        6829.696          35.000                  
                                                
  22930138.657     -201259.070        1224.585          41.000                  
                                                
 18  5 21 13 22 27.0000000  0  8R16R18G 3G16G22G26G27G31
  21607318.531     -129801.928         796.951          35.000                  
                                                
  22727798.160     -527929.370        4693.734          37.000                  
                                                
  22029039.666                        1657.401          28.000                  
                                                
  19758481.233     -416229.065        3649.362          32.000                  
                                                
  22825564.123     -143621.160         893.195          38.000                  
                                                
  20676799.530     -272184.370        1634.091          42.000                  
                                                
  22976647.927    -1137247.036        6829.597          36.000                  
                                                
  22930022.133     -201871.302        1224.568          41.000                  
                                                
 18  5 21 13 22 27.5000000  0  8R16R18G 3G16G22G26G27G31
  21607244.017     -130200.249         796.564          35.000                  
                                                
  22727358.574     -530276.053        4692.973          37.000                  
                                                
  22028881.337                        1659.120          27.000                  
                                                
  19758134.172     -418053.342        3648.312          32.000                  
                                                
  22825479.227     -144067.524         892.612          38.000                  
                                                
  20676644.087     -273001.118        1633.401          42.000                  
                                                
  22975998.165    -1140661.572        6828.978          36.000                  
                                                
  22929905.663     -202483.314        1223.960          41.000                  
                                                
 18  5 21 13 22 28.0000000  0  8R16R18G 3G16G22G26G27G31
  21607169.494     -130598.526         796.683          35.000                  
                                                
  22726918.996     -532622.558        4693.004          37.000                  
                                                
  22028723.393     -275774.482        1655.497          29.000                  
                                                
  19757787.200     -419877.531        3648.382          32.000                  
                                                
  22825394.340     -144513.829         892.759          38.000                  
                                                
  20676488.663     -273817.769        1633.354          41.000                  
                                                
  22975348.402    -1144076.075        6829.051          36.000                  
                                                
  22929789.184     -203095.320        1224.234          41.000                  
                                                
 18  5 21 13 22 28.5000000  0  8R16R18G 3G16G22G26G27G31
  21607092.112     -130996.923         796.918          35.000                  
                                                
  22726476.603     -534968.966        4692.638          37.000                  
                                                
  22028565.681     -276603.970        1657.454          29.000                  
                                                
  19757440.291     -421701.589        3648.016          32.000                  
                                                
  22825309.444     -144960.182         892.642          38.000                  
                                                
  20676333.256     -274634.396        1633.115          41.000                  
                                                
  22974698.640    -1147490.636        6828.962          36.000                  
                                                
  22929672.696     -203707.396        1224.098          41.000                  
                                                
 18  5 21 13 22 29.0000000  0  8R16R18G 3G16G22G26G27G31
  21607017.545     -131395.294         797.238          36.000                  
                                                
  22726037.061     -537315.201        4692.751          37.000                  
                                                
  22028408.139                        1660.430          29.000                  
                                                
  19757093.408     -423525.500        3647.882          32.000                  
                                                
  22825224.567     -145406.480         892.813          38.000                  
                                                
  20676177.858     -275450.956        1633.433          41.000                  
                                                
  22974048.869    -1150905.211        6829.369          36.000                  
                                                
  22929556.190     -204319.500        1224.513          41.000                  
                                                
 18  5 21 13 22 29.5000000  0  8R16R18G 3G16G22G26G27G31
  21606943.773     -131793.767         797.344          36.000                  
                                                
  22725598.350     -539661.341        4692.353          37.000                  
                                                
  22028250.623     -278262.631        1661.679          29.000                  
                                                
  19756746.508     -425349.373        3647.943          32.000                  
                                                
  22825139.671     -145852.806         892.830          38.000                  
                                                
  20676022.460     -276267.471        1633.247          41.000                  
                                                
  22973399.097    -1154319.801        6829.197          36.000                  
                                                
  22929439.675     -204931.672        1224.654          41.000                  
                                                
 18  5 21 13 22 30.0000000  0  8R16R18G 3G16G22G26G27G31
  21606869.170     -132192.363         797.582          35.000                  
                                                
  22725158.834     -542007.427        4692.281          36.000                  
                                                
  22028092.580                        1656.773          29.000                  
                                                
  19756399.572     -427173.181        3647.852          32.000                  
                                                
  22825054.775     -146299.198         893.073          39.000                  
                                                
  20675867.071     -277084.003        1633.208          41.000                  
                                                
  22972749.290    -1157734.521        6829.773          36.000                  
                                                
  22929323.142     -205543.942        1224.864          41.000                  
                                                
 18  5 21 13 22 30.5000000  0  8R16R18G 3G16G22G26G27G31
  21606796.550     -132590.964         797.193          35.000                  
                                                
  22724721.338     -544353.380        4691.952          36.000                  
                                                
  22027934.502     -279920.486        1657.165          29.000                  
                                                
  19756052.627     -428996.866        3647.377          31.000                  
                                                
  22824969.879     -146745.556         892.839          39.000                  
                                                
  20675711.691     -277900.487        1632.966          41.000                  
                                                
  22972099.492    -1161149.215        6829.384          36.000                  
                                                
  22929206.600     -206156.261        1224.810          41.000                  
                                                
 18  5 21 13 22 31.0000000  0  8R16R18G 3G16G22G26G27G31
  21606721.938     -132989.672         797.401          35.000                  
                                                
  22724281.876     -546699.239        4691.707          37.000                  
                                                
  22027776.272     -280749.630        1658.054          30.000                  
                                                
  19755705.664     -430820.483        3647.096          32.000                  
                                                
  22824884.975     -147191.935         892.731          38.000                  
                                                
  20675556.320     -278716.931        1632.759          42.000                  
                                                
  22971449.676    -1164563.988        6829.703          35.000                  
                                                
  22929090.049     -206768.619        1224.825          41.000                  
                                                
 18  5 21 13 22 31.5000000  0  8R16R18G 3G16G22G26G27G31
  21606650.095     -133388.290         797.090          35.000                  
                                                
  22723845.220     -549044.827        4690.892          37.000                  
                                                
  22027618.712     -281578.598        1657.320          30.000                  
                                                
  19755358.755     -432643.839        3646.344          32.000                  
                                                
  22824800.097     -147638.193         892.562          38.000                  
                                                
  20675400.975     -279533.193        1632.445          42.000                  
                                                
  22970799.896    -1167978.605        6829.173          35.000                  
                                                
  22928973.517     -207380.910        1224.570          41.000                  
                                                
 18  5 21 13 22 32.0000000  0  8R16R18G 3G16G22G26G27G31
  21606575.501     -133786.929         797.612          35.000                  
                                                
  22723405.838     -551390.289        4691.062          37.000                  
                                                
  22027461.357     -282407.472        1659.585          30.000                  
                                                
  19755011.864     -434467.131        3646.963          31.000                  
                                                
  22824715.237     -148084.388         892.652          38.000                  
                                                
  20675245.649     -280349.369        1632.697          41.000                  
                                                
  22970150.116    -1171393.246        6829.686          35.000                  
                                                
  22928856.984     -207993.197        1225.012          41.000                  
                                                
 18  5 21 13 22 32.5000000  0  8R16R18G 3G16G22G26G27G31
  21606498.441     -134185.598         797.379          35.000                  
                                                
  22722964.027     -553735.609        4690.589          37.000                  
                                                
  22027303.199     -283236.214        1658.752          30.000                  
                                                
  19754664.919     -436290.189        3645.835          31.000                  
                                                
  22824630.368     -148530.568         892.294          38.000                  
                                                
  20675090.340     -281165.481        1632.319          41.000                  
                                                
  22969500.327    -1174807.873        6829.254          35.000                  
                                                
  22928740.442     -208605.509        1224.726          41.000                  
                                                
 18  5 21 13 22 33.0000000  0  8R16R18G 3G16G22G26G27G31
  21606423.784     -134584.365         797.850          35.000                  
                                                
  22722524.637     -556080.877        4690.584          36.000                  
                                                
  22027144.754                        1657.510          29.000                  
                                                
  19754317.956     -438113.265        3646.198          31.000                  
                                                
  22824545.490     -148976.826         892.696          38.000                  
                                                
  20674935.031     -281981.601        1632.496          42.000                  
                                                
  22968850.511    -1178222.604        6829.642          35.000                  
                                                
  22928623.891     -209217.936        1225.174          41.000                  
                                                
 18  5 21 13 22 33.5000000  0  8R16R18G 3G16G22G26G27G31
  21606349.878     -134983.176         797.986          35.000                  
                                                
  22722086.041     -558425.975        4690.216          36.000                  
                                                
  22026986.819     -284893.593        1657.991          30.000                  
                                                
  19753970.975     -439936.174        3645.883          31.000                  
                                                
  22824460.630     -149423.034         892.725          38.000                  
                                                
  20674779.732     -282797.613        1632.236          42.000                  
                                                
  22968200.713    -1181637.278        6829.306          35.000                  
                                                
  22928507.323     -209830.347        1224.921          42.000                  
                                                
 18  5 21 13 22 34.0000000  0  8R16R18G 3G16G22G26G27G31
  21606280.484     -135382.110         798.066          35.000                  
                                                
  22721651.985     -560771.070        4690.291          36.000                  
                                                
  22026829.705     -285722.341        1658.570          30.000                  
                                                
  19753624.004     -441759.106        3646.051          31.000                  
                                                
  22824375.743     -149869.330         892.853          38.000                  
                                                
  20674624.432     -283613.711        1632.434          42.000                  
                                                
  22967550.861    -1185052.130        6829.915          35.000                  
                                                
  22928390.727     -210442.937        1225.377          41.000                  
                                                
 18  5 21 13 22 34.5000000  0  8R16R18G 3G16G22G26G27G31
  21606204.058     -135781.213         798.254          35.000                  
                                                
  22721210.924     -563116.122        4690.084          36.000                  
                                                
  22026672.726     -286551.053        1658.159          30.000                  
                                                
  19753273.431     -443582.046        3645.855          31.000                  
                                                
  22824290.839     -150315.739         892.954          38.000                  
                                                
  20674469.115     -284429.842        1632.242          42.000                  
                                                
  22966901.000    -1188467.072        6829.735          35.000                  
                                                
  22928274.105     -211055.673        1225.647          41.000                  
                                                
 18  5 21 13 22 35.0000000  0  8R16R18G 3G16G22G26G27G31
  21606129.446     -136180.280         798.014          34.000                  
                                                
  22720771.721     -565460.999        4689.728          36.000                  
                                                
  22026513.012     -287379.658        1657.330          30.000                  
                                                
  19752926.710     -445404.747        3644.717          31.000                  
                                                
  22824205.943     -150762.052         892.582          38.000                  
                                                
  20674313.815     -285245.860        1632.010          41.000                  
                                                
  22966251.131    -1191881.985        6829.852          35.000                  
                                                
  22928157.501     -211668.350        1225.413          41.000                  
                                                
 18  5 21 13 22 35.5000000  0  8R16R18G 3G16G22G26G27G31
  21606059.220     -136579.164         798.419          34.000                  
                                                
  22720336.950     -567805.449        4688.703          36.000                  
                                                
  22026350.878     -288207.903        1656.394          30.000                  
                                                
  19752579.577     -447227.106        3644.021          31.000                  
                                                
  22824121.110     -151208.098         891.894          38.000                  
                                                
  20674158.578     -286061.555        1631.207          41.000                  
                                                
  22965601.315    -1195296.640        6829.209          35.000                  
                                                
  22928040.932     -212280.814        1224.753          41.000                  
                                                
 18  5 21 13 22 36.0000000  0  8R16R18G 3G16G22G26G27G31
  21605983.885     -136978.094         798.133          34.000                  
                                                
  22719897.095     -570149.816        4688.784          36.000                  
                                                
  22026197.052     -289036.117        1656.984          30.000                  
                                                
  19752241.942     -449049.373        3644.552          30.000                  
                                                
  22824036.268     -151654.170         892.556          38.000                  
                                                
  20674003.341     -286877.229        1631.806          42.000                  
                                                
  22964951.490    -1198711.359        6829.955          35.000                  
                                                
  22927924.346     -212893.363        1225.593          41.000                  
                                                
 18  5 21 13 22 36.5000000  0  8R16R18G 3G16G22G26G27G31
  21605898.176     -137377.208         798.340          34.000                  
                                                
  22719446.912     -572494.172        4688.688          36.000                  
                                                
  22026041.342     -289864.434        1657.633          30.000                  
                                                
  19751893.701     -450871.711        3645.126          30.000                  
                                                
  22823951.399     -152100.358         892.680          38.000                  
                                                
  20673848.103     -287692.944        1631.624          42.000                  
                                                
  22964301.629    -1202126.205        6829.648          35.000                  
                                                
  22927807.733     -213506.058        1225.592          41.000                  
                                                
 18  5 21 13 22 37.0000000  0  8R16R18G 3G16G22G26G27G31
  21605823.456     -137776.384         798.566          33.000                  
                                                
  22719007.736     -574838.431        4688.569          35.000                  
                                                
  22025883.916     -290692.643        1656.710          30.000                  
                                                
  19751543.978     -452693.9041       3644.907          30.000                  
                                                
  22823866.530     -152546.580         892.595          38.000                  
                                                
  20673692.857     -288508.671        1631.531          41.000                  
                                                
  22963651.760    -1205541.098        6829.871          34.000                  
                                                
  22927691.110     -214118.814        1225.669          41.000                  
                                                
 18  5 21 13 22 37.5000000  0  8R16R18G 3G16G22G26G27G31
  21605745.914     -138175.726         799.537          33.000                  
                                                
  22718565.781     -577182.674        4688.432          35.000                  
                                                
  22025726.275                        1655.950          30.000                  
                                                
  19751196.809     -454516.068        3644.555          30.000                  
                                                
  22823781.643     -152992.889         893.297          38.000                  
                                                
  20673537.602     -289324.457        1632.162          41.000                  
                                                
  22963001.872    -1208956.107        6830.115          34.000                  
                                                
  22927574.470     -214731.702        1226.362          41.000                  
                                                
 18  5 21 13 22 38.0000000  0  8R16R18G 3G16G22G26G27G31
  21605671.150     -138575.261         799.151          34.000                  
                                                
  22718126.641     -579526.959        4689.271          36.000                  
                                                
  22025568.760     -292349.235        1656.382          30.000                  
                                                
  19750849.686     -456338.387        3645.545          30.000                  
                                                
  22823696.738     -153439.323         892.865          38.000                  
                                                
  20673382.347     -290140.256        1631.701          42.000                  
                                                
  22962351.931    -1212371.346        6831.293          34.000                  
                                                
  22927457.777     -215344.844        1225.403          41.000                  
                                                
 18  5 21 13 22 38.5000000  0  8R16R18G 3G16G22G26G27G31
  21605597.324     -138974.820         798.258          34.000                  
                                                
  22717688.475     -581871.045        4687.719          36.000                  
                                                
  22025411.137     -293177.569        1657.102          30.000                  
                                                
  19750503.751                        3643.170          30.000                  
                                                
  22823611.825     -153885.775         892.622          38.000                  
                                                
  20673227.083     -290956.101        1631.183          42.000                  
                                                
  22961702.017    -1215786.496        6829.756          34.000                  
                                                
  22927341.092     -215957.934        1226.026          41.000                  
                                                
 18  5 21 13 22 39.0000000  0  8R16R18G 3G16G22G26G27G31
  21605522.524     -139374.479         800.036          35.000                  
                                                
  22717249.361     -584215.066        4688.191          36.000                  
                                                
  22025251.522     -294005.694        1656.427          31.000                  
                                                
  19750157.154     -459981.406        3643.471          29.000                  
                                                
  22823526.938     -154332.128         892.708          39.000                  
                                                
  20673071.846     -291771.794        1631.397          42.000                  
                                                
  22961052.103    -1219201.652        6830.386          34.000                  
                                                
  22927224.425     -216570.969        1226.286          40.000                  
                                                
 18  5 21 13 22 39.5000000  0  8R16R18G 3G16G22G26G27G31
  21605448.216     -139773.970         800.083          35.000                  
                                                
  22716810.775     -586558.763        4687.323          36.000                  
                                                
  22025092.613     -294833.640        1656.012          31.000                  
                                                
  19749810.361                        3643.430          29.000                  
                                                
  22823442.078     -154778.350         892.471          39.000                  
                                                
  20672916.663     -292587.260        1630.964          42.000                  
                                                
  22960402.189    -1222616.699        6830.580          34.000                  
                                                
  22927107.732     -217184.068        1226.298          40.000                  
                                                
 18  5 21 13 22 40.0000000  0  8R16R18G 3G16G22G26G27G31
  21605373.461     -140173.352         798.061          33.000                  
                                                
  22716371.751     -588902.283        4686.101          35.000                  
                                                
  22024934.937     -295661.513        1655.487          30.000                  
                                                
  19749463.648                        3642.920          29.000                  
                                                
  22823357.227     -155224.531         892.730          39.000                  
                                                
  20672761.488     -293402.632        1630.439          41.000                  
                                                
  22959752.301    -1226031.660        6829.465          33.000                  
                                                
  22926991.074     -217797.078        1225.758          39.000                  
                                                
 18  5 21 13 22 40.5000000  0  8R16R18G 3G16G22G26G27G31
  21605299.135     -140572.808         799.030          33.000                  
                                                
  22715933.192     -591245.677        4686.564          35.000                  
                                                
  22024777.618                        1654.359          30.000                  
                                                
  19749116.793                        3644.192          29.000                  
                                                
  22823272.385     -155670.657         892.627          39.000                  
                                                
  20672606.322     -294217.953        1630.729          41.000                  
                                                
  22959102.387    -1229446.719        6830.131          33.000                  
                                                
  22926874.407     -218410.079        1226.288          39.000                  
                                                
 18  5 21 13 22 41.0000000  0  8R16R18G 3G16G22G26G27G31
  21605224.406     -140972.279         798.686          33.000                  
                                                
  22715494.275     -593588.796        4686.083          35.000                  
                                                
  22024620.719                        1653.906          29.000                  
                                                
  19748769.946                        3640.369          29.000                  
                                                
  22823187.569     -156116.652         892.128          38.000                  
                                                
  20672451.202     -295033.040        1629.825          40.000                  
                                                
  22958452.499    -1232861.655        6829.848          34.000                  
                                                
  22926757.767     -219022.983        1225.901          41.000                  
                                                
 18  5 21 13 22 41.5000000  0  8R16R18G 3G16G22G26G27G31
  21605153.529     -141371.852         799.011          33.000                  
                                                
  22715059.227     -595931.969        4686.729          35.000                  
                                                
  22024463.346     -298142.258        1652.618          29.000                  
                                                
  19748423.135     -469088.007        3641.091          29.000                  
                                                
  22823102.736     -156562.788         892.691          38.000                  
                                                
  20672296.054     -295848.283        1630.558          40.000                  
                                                
  22957802.585    -1236276.691        6830.073          34.000                  
                                                
  22926641.082     -219636.115        1226.467          41.000                  
                                                
 18  5 21 13 22 42.0000000  0  8R16R18G 3G16G22G26G27G31
  21605078.747     -141771.640         799.462          32.000                  
                                                
  22714620.328     -598275.033        4685.357          34.000                  
                                                
  22024305.018                        1655.615          29.000                  
                                                
  19748076.655                        3640.667          29.000                  
                                                
  22823017.876     -157009.011         892.678          38.000                  
                                                
  20672140.897     -296663.547        1630.590          40.000                  
                                                
  22957152.644    -1239691.848        6830.482          34.000                  
                                                
  22926524.370     -220249.359        1226.608          42.000                  
                                                
 18  5 21 13 22 42.5000000  0  8R16R18G 3G16G22G26G27G31
  21605001.642     -142171.363         799.360          32.000                  
                                                
  22714179.124     -600617.948        4686.186          34.000                  
                                                
  22024146.368     -299797.866        1654.443          29.000                  
                                                
  19747730.014                        3643.657          29.000                  
                                                
  22822933.052     -157455.087         892.025          38.000                  
                                                
  20671985.776     -297478.617        1629.893          40.000                  
                                                
  22956502.730    -1243106.880        6829.425          34.000                  
                                                
  22926407.677     -220862.516        1226.045          42.000                  
                                                
 18  5 21 13 22 43.0000000  0  8R16R18G 3G16G22G26G27G31
  21604926.860     -142570.965         799.638          32.000                  
                                                
  22713740.278     -602960.551        4685.141          34.000                  
                                                
  22023987.994                        1654.049          29.000                  
                                                
  19747383.497                        3639.572          29.000                  
                                                
  22822848.228     -157901.126         892.128          37.000                  
                                                
  20671830.673     -298293.581        1629.742          40.000                  
                                                
  22955852.798    -1246521.925        6830.167          34.000                  
                                                
  22926290.992     -221475.645        1226.023          42.000                  
                                                
 18  5 21 13 22 43.5000000  0  9R16R18G 3G16G22G26G27G31G14
  21604853.990     -142970.716         800.151          32.000                  
                                                
  22713303.390     -605303.114        4685.010          34.000                  
                                                
  22023830.023                        1652.735          29.000                  
                                                
  19747037.312                        3642.704          29.000                  
                                                
  22822763.404     -158347.156         892.580          37.000                  
                                                
  20671675.579     -299108.490        1629.802          40.000                  
                                                
  22955202.893    -1249936.919        6830.117          34.000                  
                                                
  22926174.307     -222088.808        1226.052          42.000                  
                                                
  22652902.705      -98466.3131        662.803          30.000                  
                                                
 18  5 21 13 22 44.0000000  0  9R16R18G 3G16G22G26G27G31G14
  21604779.173     -143370.566         799.868          34.000                  
                                                
  22712864.589     -607645.565        4684.646          35.000                  
                                                
  22023672.276                        1654.094          28.000                  
                                                
  19746690.903                        3642.625          28.000                  
                                                
  22822678.561     -158793.251         891.972          38.000                  
                                                
  20671520.485     -299923.426        1629.728          40.000                  
                                                
  22954552.960    -1253352.068        6830.128          35.000                  
                                                
  22926057.587     -222702.164        1226.447          41.000                  
                                                
  22652839.261      -98797.830         662.159          31.000                  
                                                
 18  5 21 13 22 44.5000000  0  9R16R18G 3G16G22G26G27G31G14
  21604703.310     -143770.424         799.588          34.000                  
                                                
  22712424.770     -609987.910        4684.661          35.000                  
                                                
  22023514.716                        1655.080          28.000                  
                                                
  19746344.789                        3638.743          28.000                  
                                                
  22822593.719     -159239.344         892.293          38.000                  
                                                
  20671365.390     -300738.318        1629.744          40.000                  
                                                
  22953903.028    -1256767.248        6830.430          35.000                  
                                                
  22925940.875     -223315.489        1226.431          41.000                  
                                                
  22652774.986      -99129.882         662.572          31.000                  
                                                
 18  5 21 13 22 45.0000000  0  9R16R18G 3G16G22G26G27G31G14
  21604628.483     -144170.280         799.825          35.000                  
                                                
  22711986.023     -612330.033        4684.156          36.000                  
                                                
  22023357.432                        1655.247          29.000                  
                                                
  19745999.229                        3640.296          27.000                  
                                                
  22822508.895     -159685.316         891.890          37.000                  
                                                
  20671210.341     -301553.018        1629.479          41.000                  
                                                
  22953253.123    -1260182.298        6830.259          35.000                  
                                                
  22925824.173     -223928.809        1226.795          44.000                  
                                                
  22652711.765      -99461.250         662.922          31.000                  
                                                
 18  5 21 13 22 45.5000000  0  9R16R18G 3G16G22G26G27G31G14
  21604556.132     -144570.153         800.126          35.000                  
                                                
  22711549.769     -614672.074        4684.260          36.000                  
                                                
  22023200.283                        1652.841          29.000                  
                                                
  19745653.490                        3641.305          27.000                  
                                                
  22822424.080     -160131.303         892.317          37.000                  
                                                
  20671055.291     -302367.728        1629.724          40.000                  
                                                
  22952603.227    -1263597.402        6830.463          35.000                  
                                                
  22925707.470     -224542.154        1227.051          44.000                  
                                                
  22652650.287      -99792.623         663.075          31.000                  
                                                
 18  5 21 13 22 46.0000000  0  9R16R18G 3G16G22G26G27G31G14
  21604481.314     -144970.191         800.350          37.000                  
                                                
  22711111.093     -617014.061        4684.028          37.000                  
                                                
  22023043.000                        1652.611          29.000                  
                                                
  19745307.984                        3642.685          28.000                  
                                                
  22822339.238     -160577.383         892.383          37.000                  
                                                
  20670900.233     -303182.463        1629.640          41.000                  
                                                
  22951953.304    -1267012.619        6830.642          35.000                  
                                                
  22925590.741     -225155.614        1227.204          43.000                  
                                                
  22652585.101     -100124.072         663.136          31.000                  
                                                
 18  5 21 13 22 46.5000000  0  9R16R18G 3G16G22G26G27G31G14
  21604406.059     -145370.196         799.973          37.000                  
                                                
  22710672.015     -619355.842        4683.364          37.000                  
                                                
  22022885.395     -306413.833        1653.884          29.000                  
                                                
  19744962.602                        3641.029          28.000                  
                                                
  22822254.404     -161023.384         891.894          37.000                  
                                                
  20670745.201     -303997.081        1629.043          41.000                  
                                                
  22951303.380    -1270427.806        6830.199          35.000                  
                                                
  22925474.020     -225769.092        1227.100          43.000                  
                                                
  22652522.640     -100455.396         662.487          31.000                  
                                                
 18  5 21 13 22 47.0000000  0  9R16R18G 3G16G22G26G27G31G14
  21604331.277     -145770.112         799.826          36.000                  
                                                
  22710233.429     -621697.420        4682.771          36.000                  
                                                
  22022727.371                        1650.447          28.000                  
                                                
  19744618.213                        3639.916          26.000                  
                                                
  22822169.598     -161469.237         891.848          36.000                  
                                                
  20670590.205     -304811.496        1628.725          40.000                  
                                                
  22950653.484    -1273842.845        6830.102          34.000                  
                                                
  22925357.327     -226382.383        1226.071          43.000                  
                                                
  22652459.321     -100786.575         662.266          30.000                  
                                                
 18  5 21 13 22 47.5000000  0  9R16R18G 3G16G22G26G27G31G14
  21604256.683     -146169.982         799.934          36.000                  
                                                
  22709795.066     -624038.815        4682.818          36.000                  
                                                
  22022568.855                        1653.240          28.000                  
                                                
  19744273.662                        3639.371          26.000                  
                                                
  22822084.809     -161915.000         891.600          36.000                  
                                                
  20670435.236     -305625.808        1628.555          40.000                  
                                                
  22950003.597    -1277257.838        6829.868          34.000                  
                                                
  22925240.624     -226995.729        1226.712          43.000                  
                                                
  22652395.895                         661.614          30.000                  
                                                
 18  5 21 13 22 48.0000000  0  9R16R18G 3G16G22G26G27G31G14
  21604181.811     -146569.928         799.922          35.000                  
                                                
  22709356.462     -626380.037        4682.379          36.000                  
                                                
  22022410.374     -308892.476        1651.788          29.000                  
                                                
  19743929.156                        3637.266          25.000                  
                                                
  22822000.012     -162360.799         891.640          37.000                  
                                                
  20670280.276     -306440.069        1628.694          39.000                  
                                                
  22949353.709    -1280672.890        6830.112          34.000                  
                                                
  22925123.913     -227609.113        1226.855          43.000                  
                                                
  22652332.647     -101448.141         658.350          29.000                  
                                                
 18  5 21 13 22 48.5000000  0  9R16R18G 3G16G22G26G27G31G14
  21604105.332     -146969.709         799.317          35.000                  
                                                
  22708916.294     -628720.930        4681.512          36.000                  
                                                
  22022251.867     -309718.666        1651.866          29.000                  
                                                
  19743584.373                        3636.790          25.000                  
                                                
  22821915.250     -162806.362         891.079          37.000                  
                                                
  20670125.378     -307254.043        1627.704          39.000                  
                                                
  22948703.857    -1284087.707        6829.566          34.000                  
                                                
  22925007.237     -228222.310        1226.245          43.000                  
                                                
  22652269.704     -101779.029         663.100          29.000                  
                                                
 18  5 21 13 22 49.0000000  0  9R16R18G 3G16G22G26G27G31G14
  21604030.523     -147369.520         799.823          36.000                  
                                                
  22708477.824     -631061.630        4681.492          37.000                  
                                                
  22022093.699                        1651.786          30.000                  
                                                
  19743238.456                        3641.060          25.000                  
                                                
  22821830.498     -163251.861         891.097          39.000                  
                                                
  20669970.490     -308067.924        1627.740          41.000                  
                                                
  22948054.015    -1287502.528        6829.858          36.000                  
                                                
  22924890.552     -228835.508        1226.533          44.000                  
                                                
  22652206.796     -102109.7741        662.131          31.000                  
                                                
 18  5 21 13 22 49.5000000  0  9R16R18G 3G16G22G26G27G31G14
  21603956.492     -147769.472         800.140          36.000                  
                                                
  22708040.167     -633402.329        4681.407          37.000                  
                                                
  22021935.550     -311370.885        1652.941          30.000                  
                                                
  19742892.208                        3641.428          25.000                  
                                                
  22821745.736     -163697.458         891.283          39.000                  
                                                
  20669815.601     -308881.859        1627.845          41.000                  
                                                
  22947404.163    -1290917.465        6830.031          36.000                  
                                                
  22924773.841     -229448.846        1226.866          44.000                  
                                                
  22652140.287     -102440.517         661.491          31.000                  
                                                
 18  5 21 13 22 50.0000000  0  9R16R18G 3G16G22G26G27G31G14
  21603881.612     -148169.457         800.085          35.000                  
                                                
  22707601.697     -635742.891        4681.184          37.000                  
                                                
  22021777.739     -312196.937        1653.245          30.000                  
                                                
  19742545.102                        3642.117          24.000                  
                                                
  22821660.965     -164143.059         891.334          38.000                  
                                                
  20669660.721     -309695.735        1627.801          41.000                  
                                                
  22946754.293    -1294332.410        6829.982          36.000                  
                                                
  22924657.129     -230062.209        1226.860          44.000                  
                                                
  22652079.336     -102771.310         661.544          30.000                  
                                                
 18  5 21 13 22 50.5000000  0  9R16R18G 3G16G22G26G27G31G14
  21603810.663     -148569.557         800.330          35.000                  
                                                
  22707167.185     -638083.398        4681.040          37.000                  
                                                
  22021624.655     -313022.941        1651.969          30.000                  
                                                
  19742197.737                        3636.528          24.000                  
                                                
  22821576.177     -164588.713         891.489          38.000                  
                                                
  20669505.850     -310509.640        1628.005          41.000                  
                                                
  22946104.424    -1297747.428        6830.222          36.000                  
                                                
  22924540.391     -230675.694        1227.114          45.000                  
                                                
  22652018.009     -103102.137         662.709          31.000                  
                                                
 18  5 21 13 22 51.0000000  0  9R16R18G 3G16G22G26G27G31G14
  21603736.381     -148969.745         800.759          36.000                  
                                                
  22706729.376     -640423.804        4681.021          38.000                  
                                                
  22021463.593     -313848.924        1652.572          30.000                  
                                                
  19741850.926                        3637.110          23.000                  
                                                
  22821491.406     -165034.359         891.312          38.000                  
                                                
  20669350.980     -311323.484        1627.779          41.000                  
                                                
  22945454.545    -1301162.487        6830.305          36.000                  
                                                
  22924423.643     -231289.234        1227.523          44.000                  
                                                
  22651955.084     -103432.926         662.292          31.000                  
                                                
 18  5 21 13 22 51.5000000  0  9R16R18G 3G16G22G26G27G31G14
  21603655.328     -149369.951         800.562          36.000                  
                                                
  22706284.813     -642764.139        4680.446          38.000                  
                                                
  22021305.461     -314674.883        1651.849          30.000                  
                                                
  19741504.062                        3637.281          22.000                  
                                                
  22821406.626     -165480.046         891.512          38.000                  
                                                
  20669196.118     -312137.298        1627.481          41.000                  
                                                
  22944804.667    -1304577.601        6830.553          36.000                  
                                                
  22924306.887     -231902.803        1227.386          44.000                  
                                                
  22651893.328     -103763.729         661.915          31.000                  
                                                
 18  5 21 13 22 52.0000000  0  9R16R18G 3G16G22G26G27G31G14
  21603580.394     -149770.206         800.664          34.000                  
                                                
  22705846.432     -645104.296        4680.409          37.000                  
                                                
  22021148.169     -315500.714        1651.787          30.000                  
                                                
  19741156.581                        3637.604          22.000                  
                                                
  22821321.856     -165925.689         891.796          36.000                  
                                                
  20669041.265     -312951.039        1627.571          41.000                  
                                                
  22944154.797    -1307992.672        6830.352          35.000                  
                                                
  22924190.122     -232516.400        1227.482          42.000                  
                                                
  22651831.100     -104094.446         661.588          30.000                  
                                                
 18  5 21 13 22 52.5000000  0  9R16R18G 3G16G22G26G27G31G14
  21603506.452     -150170.359         800.222          34.000                  
                                                
  22705409.061     -647444.168        4679.476          37.000                  
                                                
  22020990.966     -316326.367        1651.033          30.000                  
                                                
  19740808.796                        3631.627          22.000                  
                                                
  22821237.112     -166371.154         890.660          36.000                  
                                                
  20668886.457     -313764.591        1626.949          41.000                  
                                                
  22943504.955    -1311407.631        6829.771          35.000                  
                                                
  22924073.375     -233129.885        1226.836          42.000                  
                                                
  22651768.165     -104425.004         660.938          30.000                  
                                                
 18  5 21 13 22 53.0000000  0  9R16R18G 3G16G22G26G27G31G14
  21603431.536     -150570.518         800.911          35.000                  
                                                
  22704970.752     -649783.898        4679.533          37.000                  
                                                
  22020834.103     -317151.848        1650.958          31.000                  
                                                
  19740461.744                        3636.041          24.000                  
                                                
  22821152.368     -166816.592         890.621          35.000                  
                                                
  20668731.657     -314578.019        1626.712          41.000                  
                                                
  22942855.112    -1314822.580        6829.828          36.000                  
                                                
  22923956.628     -233743.370        1226.907          41.000                  
                                                
  22651705.632     -104755.502         660.663          32.000                  
                                                
 18  5 21 13 22 53.5000000  0  9R16R18G 3G16G22G26G27G31G14
  21603355.950     -150970.715         800.202          35.000                  
                                                
  22704531.817     -652123.493        4679.869          37.000                  
                                                
  22020677.383     -317977.299        1650.853          31.000                  
                                                
  19740114.290                        3639.891          24.000                  
                                                
  22821067.642     -167261.946         889.859          35.000                  
                                                
  20668576.876     -315391.395        1626.619          41.000                  
                                                
  22942205.287    -1318237.519        6829.901          36.000                  
                                                
  22923839.880     -234356.887        1226.892          41.000                  
                                                
  22651642.840     -105085.913         660.050          32.000                  
                                                
 18  5 21 13 22 54.0000000  0  9R16R18G 3G16G22G26G27G31G14
  21603280.963     -151371.019         800.408          35.000                  
                                                
  22704093.526     -654462.981        4678.831          35.000                  
                                                
  22020520.162                        1649.968          30.000                  
                                                
  19739766.666                        3637.529          22.000                  
                                                
  22820982.863     -167707.538         891.246          34.000                  
                                                
  20668422.085     -316204.822        1627.071          41.000                  
                                                
  22941555.435    -1321652.592        6830.549          37.000                  
                                                
  22923723.088     -234970.588        1227.686          41.000                  
                                                
  22651580.004     -105416.458         661.326          31.000                  
                                                
 18  5 21 13 22 54.5000000  0  9R16R18G 3G16G22G26G27G31G14
  21603210.326     -151771.427         801.168          35.000                  
                                                
  22703659.621     -656802.411        4679.031          35.000                  
                                                
  22020363.478                        1649.337          30.000                  
                                                
  19739420.784                        3634.575          22.000                  
                                                
  22820898.110     -168152.969         889.433          33.000                  
                                                
  20668267.313     -317018.159        1626.370          41.000                  
                                                
  22940905.584    -1325067.623        6829.880          37.000                  
                                                
  22923606.305     -235584.262        1227.532          41.000                  
                                                
  22651517.328     -105746.942         660.034          31.000                  
                                                
 18  5 21 13 22 55.0000000  0  9R16R18G 3G16G22G26G27G31G14
  21603140.807     -152171.971         801.413          33.000                  
                                                
  22703226.887     -659141.700        4678.139          34.000                  
                                                
  22020206.320                        1653.002          28.000                  
                                                
  19739074.786                        3637.893          21.000                  
                                                
  22820813.330     -168598.618         890.847          29.000                  
                                                
  20668112.531     -317831.529        1626.673          38.000                  
                                                
  22940255.714    -1328482.773        6830.121          34.000                  
                                                
  22923489.505     -236198.058        1227.957          38.000                  
                                                
  22651454.930     -106077.4001        659.726          29.000                  
                                                
 18  5 21 13 22 55.5000000  0  9R16R18G 3G16G22G26G27G31G14
  21603066.624     -152572.415         801.229          33.000                  
                                                
  22702789.489     -661480.853        4677.892          34.000                  
                                                
  22020049.465     -321278.886        1652.886          28.000                  
                                                
  19738728.940                        3639.943          21.000                  
                                                
  22820728.586     -169044.115         892.041          29.000                  
                                                
  20667957.768     -318644.799        1626.514          38.000                  
                                                
  22939605.853    -1331897.896        6830.156          35.000                  
                                                
  22923372.713     -236811.843        1227.429          38.000                  
                                                
  22651392.415     -106407.885         660.853          29.000                  
                                                
 18  5 21 13 22 56.0000000  0  9R16R18G 3G16G22G26G27G31G14
  21602991.672     -152972.940         800.086          31.000                  
                                                
  22702351.367     -663819.909        4677.576          34.000                  
                                                
  22019893.156                        1649.663          29.000                  
                                                
  19738382.719                        3637.551          20.000                  
                                                
  22820650.070                         890.871          30.000                  
                                                
  20667803.013     -319458.036        1626.137          39.000                  
                                                
  22938955.975    -1335313.080        6830.557          36.000                  
                                                
  22923255.903     -237425.703        1227.467          40.000                  
                                                
  22651330.141     -106738.321         660.060          31.000                  
                                                
 18  5 21 13 22 56.5000000  0  9R16R18G 3G16G22G26G27G31G14
  21602915.264     -153373.616         801.424          31.000                  
                                                
  22701911.807     -666158.946        4678.980          34.000                  
                                                
  22019737.115                        1648.791          29.000                  
                                                
  19738036.748                        3634.190          20.000                  
                                                
  22820566.032     -169934.598         893.649          30.000                  
                                                
  20667648.276     -320271.218        1626.434          39.000                  
                                                
  22938306.087    -1338728.280        6829.938          36.000                  
                                                
  22923139.084     -238039.649        1227.728          40.000                  
                                                
  22651270.423                         660.526          31.000                  
                                                
 18  5 21 13 22 57.0000000  0  9R16R18G 3G16G22G26G27G31G14
  21602842.895                         798.695          30.000                  
                                                
  22701481.173                        4676.828          31.000                  
                                                
  22019580.466                        1650.016          27.000                  
                                                
  19737690.928                        3635.316          19.000                  
                                                
  22820481.645                         892.853          29.000                  
                                                
  20667493.548     -321084.291        1625.750          36.000                  
                                                
  22937656.209    -1342143.450        6830.793          34.000                  
                                                
  22923022.274     -238653.511        1227.409          39.000                  
                                                
  22651207.381                         663.651          28.000                  
                                                
 18  5 21 13 22 57.5000000  0  9R16R18G 3G16G22G26G27G31G14
  21602760.143                         800.352          30.000                  
                                                
  22701035.171                        4676.030          31.000                  
                                                
  22019423.692                        1650.260          27.000                  
                                                
  19737344.600                        3635.568          19.000                  
                                                
  22820397.134                         889.067          29.000                  
                                                
  20667338.820     -321897.368        1626.112          36.000                  
                                                
  22937006.321    -1345558.636        6830.155          33.000                  
                                                
  22922905.447     -239267.470        1227.534          39.000                  
                                                
  22651144.321                         656.540          28.000                  
                                                
 18  5 21 13 22 58.0000000  0  9R16R18G 3G16G22G26G27G31G14
  21602685.057                         799.556          28.000                  
                                                
  22700597.112                        4675.317          28.000                  
                                                
  22019266.793                        1648.223          27.000                  
                                                
  19736997.655                        3631.543          16.000                  
                                                
  22820312.819                         891.538          27.000                  
                                                
  20667184.110     -322710.396        1626.484          36.000                  
                                                
  22936356.425    -1348973.887        6830.871          32.000                  
                                                
  22922788.601     -239881.510        1228.303          38.000                  
                                                
  22651081.905                         660.287          27.000                  
                                                
 18  5 21 13 22 58.5000000  0  9R16R18G 3G16G22G26G27G31G14
  21602613.018                         801.454          28.000                  
                                                
  22700161.715                        4678.164          28.000                  
                                                
  22019110.028                        1649.097          27.000                  
                                                
  19736650.102                        3627.076          16.000                  
                                                
  22820228.120                         893.385          27.000                  
                                                
  20667029.400     -323523.397        1625.784          36.000                  
                                                
  22935706.538    -1352389.149        6830.593          32.000                  
                                                
  22922671.747     -240495.591        1228.186          38.000                  
                                                
  22651019.095                         661.901          27.000                  
                                                
 18  5 21 13 22 59.0000000  0  9R16R18G 3G16G22G26G27G31G14
  21602538.112                         802.256          28.000                  
                                                
  22699723.477                        4675.166          28.000                  
                                                
  22018953.183                        1649.283          28.000                  
                                                
  19736303.095                        3631.070          13.000                  
                                                
  22820143.680                         891.412          25.000                  
                                                
  20666874.717     -324336.262        1626.035          36.000                  
                                                
  22935056.641    -1355804.446        6831.335          33.000                  
                                                
  22922554.901     -241109.625        1228.350          37.000                  
                                                
  22650955.884                         660.591          27.000                  
                                                
 18  5 21 13 22 59.5000000  0  9R16R18G 3G16G22G26G27G31G14
  21602465.340                         800.886          28.000                  
                                                
  22699288.036                        4673.921          28.000                  
                                                
  22018796.614                        1646.858          28.000                  
                                                
  19735955.480                        3630.950          13.000                  
                                                
  22820058.775                         892.288          25.000                  
                                                
  20666720.070     -325149.006        1625.428          36.000                  
                                                
  22934406.781    -1359219.570        6829.765          33.000                  
                                                
  22922438.056     -241723.665        1228.016          37.000                  
                                                
  22650893.074                         661.004          27.000                  
                                                
 18  5 21 13 23  0.0000000  0  9R16R18G 3G16G22G26G27G31G14
  21602390.737                         801.043          28.000                  
                                                
  22698849.771                        4675.624          28.000                  
                                                
  22018639.671                        1649.418          28.000                  
                                                
  19735610.527                        3631.191          17.000                  
                                                
  22819973.701                         890.858          26.000                  
                                                
  20666565.431     -325961.687        1625.481          36.000                  
                                                
  22933756.902    -1362634.791        6830.674          33.000                  
                                                
  22922321.210     -242337.701        1228.375          37.000                  
                                                
  22650830.354                         658.354          27.000                  
                                                
 18  5 21 13 23  0.5000000  0  9R16R18G 3G16G22G26G27G31G14
  21602315.687                         801.576          28.000                  
                                                
  22698410.989                        4675.729          28.000                  
                                                
  22018482.263                        1650.188          28.000                  
                                                
  19735266.039                        3627.539          17.000                  
                                                
  22819888.617                         889.284          26.000                  
                                                
  20666410.784     -326774.412        1625.385          36.000                  
                                                
  22933106.997    -1366050.069        6830.532          33.000                  
                                                
  22922204.338     -242951.869        1228.263          37.000                  
                                                
  22650767.428                         659.938          27.000                  
                                                
 18  5 21 13 23  1.0000000  0  9R16R18G 3G16G22G26G27G31G14
  21602240.342                         802.396          29.000                  
                                                
  22697972.340                        4672.910          28.000                  
                                                
  22018324.658                        1652.146          28.000                  
                                                
  19734919.470                        3630.361          18.000                  
                                                
  22819803.695                         889.508          25.000                  
                                                
  20666256.154     -327587.016        1625.436          36.000                  
                                                
  22932457.101    -1369465.351        6830.914          33.000                  
                                                
  22922087.465     -243566.032        1228.533          38.000                  
                                                
  22650704.493                         661.010          27.000                  
                                                
 18  5 21 13 23  1.5000000  0  9R16R18G 3G16G22G26G27G31G14
  21602165.015                         803.434          29.000                  
                                                
  22697534.370                        4672.836          28.000                  
                                                
  22018167.116                        1647.424          28.000                  
                                                
  19734572.203                        3636.394          18.000                  
                                                
  22819718.191                         889.668          25.000                  
                                                
  20666101.560     -328399.492        1624.904          36.000                  
                                                
  22931807.213    -1372880.552        6830.594          33.000                  
                                                
  22921970.602     -244180.182        1228.327          38.000                  
                                                
  22650641.040                         663.112          27.000                  
                                                
 18  5 21 13 23  2.0000000  0  9R16R18G 3G16G22G26G27G31G14
  21602090.001                         802.939          28.000                  
                                                
  22697096.257                        4672.727          28.000                  
                                                
  22018010.252                        1649.037          27.000                  
                                                
  19734225.196                        3641.618          19.000                  
                                                
  22819632.920                         891.869          27.000                  
                                                
  20665946.949     -329212.067        1625.234          36.000                  
                                                
  22931157.299    -1376295.866        6830.832          33.000                  
                                                
  22921853.694     -244794.471        1228.647          38.000                  
                                                
  22650577.775                         661.482          27.000                  
                                                
 18  5 21 13 23  2.5000000  0  9R16R18G 3G16G22G26G27G31G14
  21602013.039     -158181.592         803.751          28.000                  
                                                
  22696656.492                        4673.488          28.000                  
                                                
  22017853.237                        1647.276          27.000                  
                                                
  19733878.108                        3636.168          19.000                  
                                                
  22819547.480                         890.781          27.000                  
                                                
  20665792.337     -330024.585        1624.860          36.000                  
                                                
  22930507.376    -1379711.272        6830.576          33.000                  
                                                
  22921736.786     -245408.837        1228.620          38.000                  
                                                
  22650514.769                         658.661          27.000                  
                                                
 18  5 21 13 23  3.0000000  0  9R16R18G 3G16G22G26G27G31G14
  21601937.793                         801.609          29.000                  
                                                
  22696218.692                        4673.648          28.000                  
                                                
  22017696.026                        1646.781          28.000                  
                                                
  19733530.850                        3634.484          20.000                  
                                                
  22819462.137                         890.246          27.000                  
                                                
  20665637.788     -330836.861        1624.146          36.000                  
                                                
  22929857.488    -1383126.509        6830.436          33.000                  
                                                
  22921619.904     -246023.055        1228.399          38.000                  
                                                
  22650451.727                         659.277          27.000                  
                                                
 18  5 21 13 23  3.5000000  0  9R16R18G 3G16G22G26G27G31G14
  21601862.966                         800.408          29.000                  
                                                
  22695781.517                        4672.527          28.000                  
                                                
  22017538.501                        1645.866          28.000                  
                                                
  19733182.628                        3633.677          20.000                  
                                                
  22819376.804                         890.526          27.000                  
                                                
  20665483.247     -331649.029        1624.238          36.000                  
                                                
  22929207.601    -1386541.676        6831.020          33.000                  
                                                
  22921503.032     -246637.223        1228.434          38.000                  
                                                
  22650388.560                         661.025          27.000                  
                                                
 18  5 21 13 23  4.0000000  0  9R16R18G 3G16G22G26G27G31G14
  21601787.282                         802.990          29.000                  
                                                
  22695343.422                        4673.067          27.000                  
                                                
  22017381.021     -335295.143        1648.121          28.000                  
                                                
  19732836.335                        3634.078          22.000                  
                                                
  22819291.470                         892.090          25.000                  
                                                
  20665328.716     -332461.153        1624.326          36.000                  
                                                
  22928557.722    -1389956.842        6830.766          33.000                  
                                                
  22921386.151     -247251.452        1228.617          38.000                  
                                                
  22650324.929                         659.653          27.000                  
                                                
 18  5 21 13 23  4.5000000  0  9R16R18G 3G16G22G26G27G31G14
  21601712.643                         803.804          29.000                  
                                                
  22694906.614                        4671.953          27.000                  
                                                
  22017223.283                        1648.036          28.000                  
                                                
  19732491.329                        3630.722          22.000                  
                                                
  22819205.422                         895.641          25.000                  
                                                
  20665174.185     -333273.240        1624.220          36.000                  
                                                
  22927907.835    -1393372.089        6830.785          33.000                  
                                                
  22921269.252     -247865.752        1228.882          38.000                  
                                                
  22650261.672                         660.315          27.000                  
                                                
 18  5 21 13 23  5.0000000  0  9R16R18G 3G16G22G26G27G31G14
  21601637.423                         802.227          29.000                  
                                                
  22694469.252                        4674.921          27.000                  
                                                
  22017065.455                        1648.049          28.000                  
                                                
  19732145.438                        3628.727          22.000                  
                                                
  22819119.115                         891.112          24.000                  
                                                
  20665019.662     -334085.341        1624.289          36.000                  
                                                
  22927257.930    -1396787.401        6831.042          34.000                  
                                                
  22921152.335     -248480.145        1229.096          38.000                  
                                                
  22650198.505                         657.670          26.000                  
                                                
 18  5 21 13 23  5.5000000  0  9R16R18G 3G16G22G26G27G31G14
  21601562.213     -160588.809         802.376          29.000                  
                                                
  22694031.827                        4671.909          27.000                  
                                                
  22016907.671                        1647.810          28.000                  
                                                
  19731798.788                        3631.386          22.000                  
                                                
  22819033.433                         890.963          24.000                  
                                                
  20664865.140     -334897.426        1623.989          36.000                  
                                                
  22926608.006    -1400202.775        6830.719          34.000                  
                                                
  22921035.418     -249094.553        1229.178          38.000                  
                                                
  22650135.320                         655.028          26.000                  
                                                
 18  5 21 13 23  6.0000000  0  9R16R18G 3G16G22G26G27G31G14
  21601486.296     -160990.223         803.362          31.000                  
                                                
  22693594.054     -710567.777        4674.280          29.000                  
                                                
  22016750.352                        1648.988          28.000                  
                                                
  19731452.710                        3632.026          23.000                  
                                                
  22818947.634                         892.422          27.000                  
                                                
  20664710.636     -335709.457        1624.170          38.000                  
                                                
  22925958.083    -1403618.142        6830.846          35.000                  
                                                
  22920918.483     -249709.052        1228.832          39.000                  
                                                
  22650071.349                         659.804          28.000                  
                                                
 18  5 21 13 23  6.5000000  0  9R16R18G 3G16G22G26G27G31G14
  21601410.844     -161391.428         802.073          31.000                  
                                                
  22693156.183     -712903.773        4669.554          29.000                  
                                                
  22016592.962                        1647.109          28.000                  
                                                
  19731107.668                        3627.746          23.000                  
                                                
  22818861.676                         892.005          27.000                  
                                                
  20664556.185     -336521.217        1623.088          38.000                  
                                                
  22925308.187    -1407033.344        6830.109          35.000                  
                                                
  22920801.575     -250323.427        1228.348          39.000                  
                                                
  22650007.539                         663.069          28.000                  
                                                
 18  5 21 13 23  7.0000000  0  9R16R18G 3G16G22G26G27G31G14
  21601332.417     -161792.669         802.880          31.000                  
                                                
  22692718.633     -715239.830        4673.235          29.000                  
                                                
  22016436.090                        1646.869          28.000                  
                                                
  19730763.305                        3622.637          24.000                  
                                                
  22818776.056                         888.916          28.000                  
                                                
  20664401.761     -337332.868        1623.077          39.000                  
                                                
  22924658.308    -1410448.502        6830.303          35.000                  
                                                
  22920684.667     -250937.763        1228.795          39.000                  
                                                
  22649943.818                         657.847          28.000                  
                                                
 18  5 21 13 23  7.5000000  0  9R16R18G 3G16G22G26G27G31G14
  21601255.419                         802.164          31.000                  
                                                
  22692281.556                        4671.256          29.000                  
                                                
  22016279.075                        1645.955          28.000                  
                                                
  19730418.593                        3626.176          24.000                  
                                                
  22818690.526                         889.012          28.000                  
                                                
  20664247.354     -338144.412        1623.335          39.000                  
                                                
  22924008.421    -1413863.629        6830.545          35.000                  
                                                
  22920567.767     -251552.067        1228.893          39.000                  
                                                
  22649880.410                         656.208          28.000                  
                                                
 18  5 21 13 23  8.0000000  0  9R16R18G 3G16G22G26G27G31G14
  21601180.977     -162595.067         803.231          30.000                  
                                                
  22691844.954                        4672.376          27.000                  
                                                
  22016122.176                        1644.782          26.000                  
                                                
  19730074.231                        3630.029          25.000                  
                                                
  22818604.826                         890.228          27.000                  
                                                
  20664092.966     -338955.879        1623.058          37.000                  
                                                
  22923358.542    -1417278.739        6830.355          35.000                  
                                                
  22920450.868     -252166.386        1228.725          38.000                  
                                                
  22649817.180                         659.597          26.000                  
                                                
 18  5 21 13 23  8.5000000  0  9R16R18G 3G16G22G26G27G31G14
  21601103.872     -162996.174         801.367          30.000                  
                                                
  22691406.010                        4671.916          27.000                  
                                                
  22015964.651                        1644.889          26.000                  
                                                
  19729729.930                        3630.378          25.000                  
                                                
  22818519.377                         888.323          27.000                  
                                                
  20663938.604     -339767.177        1622.615          37.000                  
                                                
  22922708.673    -1420693.740        6829.861          35.000                  
                                                
  22920333.978     -252780.636        1228.579          38.000                  
                                                
  22649753.647                         659.596          26.000                  
                                                
 18  5 21 13 23  9.0000000  0  9R16R18G 3G16G22G26G27G31G14
  21601028.313     -163397.469         803.223          31.000                  
                                                
  22690968.371                        4670.404          27.000                  
                                                
  22015807.288                        1645.260          25.000                  
                                                
  19729385.532                        3629.529          24.000                  
                                                
  22818434.052                         888.040          25.000                  
                                                
  20663784.243     -340578.499        1622.947          37.000                  
                                                
  22922058.777    -1424108.868        6830.519          34.000                  
                                                
  22920217.070     -253395.009        1229.189          37.000                  
                                                
  22649690.542                         660.677          26.000                  
                                                
 18  5 21 13 23  9.5000000  0  9R16R18G 3G16G22G26G27G31G14
  21600950.878     -163798.884         804.405          31.000                  
                                                
  22690528.587                        4670.644          27.000                  
                                                
  22015649.603                        1644.124          25.000                  
                                                
  19729041.312                        3628.633          24.000                  
                                                
  22818349.380                         886.544          25.000                  
                                                
  20663629.890     -341389.781        1622.721          37.000                  
                                                
  22921408.880    -1427524.011        6830.588          34.000                  
                                                
  22920100.135     -254009.441        1229.150          37.000                  
                                                
  22649628.063                         657.023          26.000                  
                                                
 18  5 21 13 23 10.0000000  0  9R16R18G 3G16G22G26G27G31G14
  21600877.293     -164200.330         803.847          31.000                  
                                                
  22690090.233                        4670.619          27.000                  
                                                
  22015491.658                        1645.384          25.000                  
                                                
  19728696.743                        3627.709          25.000                  
                                                
  22818264.663                         889.928          25.000                  
                                                
  20663475.520     -342201.068        1622.650          38.000                  
                                                
  22920758.966    -1430939.239        6830.705          35.000                  
                                                
  22919983.191     -254623.922        1229.242          37.000                  
                                                
  22649565.531                         658.241          25.000                  
                                                
 18  5 21 13 23 10.5000000  0  9R16R18G 3G16G22G26G27G31G14
  21600795.453     -164601.819         803.587          31.000                  
                                                
  22689646.823                        4669.199          27.000                  
                                                
  22015334.116                        1646.420          26.000                  
                                                
  19728352.497                        3626.139          25.000                  
                                                
  22818179.195                         892.179          25.000                  
                                                
  20663321.176     -343012.304        1621.822          38.000                  
                                                
  22920109.061    -1434354.477        6830.482          35.000                  
                                                
  22919866.239     -255238.489        1229.155          37.000                  
                                                
  22649502.828                         656.783          25.000                  
                                                
 18  5 21 13 23 11.0000000  0  9R16R18G 3G16G22G26G27G31G14
  21600721.734     -165003.547         804.301          31.000                  
                                                
  22689210.032                        4667.243          26.000                  
                                                
  22015176.681                        1643.256          27.000                  
                                                
  19728008.286                        3622.531          25.000                  
                                                
  22818093.245                         890.145          26.000                  
                                                
  20663166.806     -343823.677        1623.017          38.000                  
                                                
  22919459.120    -1437769.871        6830.645          35.000                  
                                                
  22919749.241     -255853.259        1229.492          38.000                  
                                                
  22649440.340                         655.775          25.000                  
                                                
 18  5 21 13 23 11.5000000  0  9R16R18G 3G16G22G26G27G31G14
  21600654.886     -165405.151         803.776          31.000                  
                                                
  22688781.033                        4669.099          26.000                  
                                                
  22015020.059                        1645.501          27.000                  
                                                
  19727664.057                        3626.985          25.000                  
                                                
  22818007.286                         891.680          26.000                  
                                                
  20663012.462     -344634.863        1622.258          38.000                  
                                                
  22918809.188    -1441185.235        6830.850          35.000                  
                                                
  22919632.253     -256467.965        1229.667          38.000                  
                                                
  22649377.942                         659.199          25.000                  
                                                
 18  5 21 13 23 12.0000000  0  9R16R18G 3G16G22G26G27G31G14
  21600579.220     -165806.731         802.892          31.000                  
                                                
  22688343.349                        4668.312          27.000                  
                                                
  22014863.339                        1646.474          27.000                  
                                                
  19727319.622                        3627.290          26.000                  
                                                
  22817921.827                         889.985          27.000                  
                                                
  20662858.154     -345445.892        1621.898          38.000                  
                                                
  22918159.291    -1444600.470        6830.613          36.000                  
                                                
  22919515.282     -257082.604        1229.204          38.000                  
                                                
  22649315.230                         658.170          25.000                  
                                                
 18  5 21 13 23 12.5000000  0  9R16R18G 3G16G22G26G27G31G14
  21600503.071                         802.833          31.000                  
                                                
  22687905.191                        4667.423          27.000                  
                                                
  22014706.922                        1641.789          27.000                  
                                                
  19726974.920                        3625.921          26.000                  
                                                
  22817836.548                         889.944          27.000                  
                                                
  20662703.873     -346256.821        1622.156          38.000                  
                                                
  22917509.404    -1448015.653        6829.940          36.000                  
                                                
  22919398.320     -257697.196        1229.032          38.000                  
                                                
  22649252.734                         657.423          25.000                  
                                                
