     2.10           OBSERVATION DATA    M (MIXED)           RINEX VERSION / TYPE
CONVBIN 2.4.3                           20180516 195031 UTC PGM / RUN BY / DATE 
log: 2018-05-08.ubx                                         COMMENT             
format: u-blox                                              COMMENT             
                                                            MARKER NAME         
                                                            MARKER NUMBER       
                                                            OBSERVER / AGENCY   
                                                            REC # / TYPE / VERS 
                                                            ANT # / TYPE        
   654647.3767 -5210281.4233  3608450.9628                  APPROX POSITION XYZ 
        0.0000        0.0000        0.0000                  ANTENNA: DELTA H/E/N
     1     1                                                WAVELENGTH FACT L1/2
     8    C1    L1    D1    S1    C2    L2    D2    S2      # / TYPES OF OBSERV 
  2018     5     8    13    44    3.0030000     GPS         TIME OF FIRST OBS   
  2018     5     8    13    47   18.0030000     GPS         TIME OF LAST OBS    
                                                            END OF HEADER       
 18  5  8 13 44  3.0030000  0 16G 4G14G 3G29G26R11R 1G31G32G16R 2G23
                                R12R21G27G22
  21630676.980   113669972.000       -2366.510          44.000                  
                                                
  22958737.449   120648997.300       -2668.768          41.000                  
                                                
  22728276.987                       -1301.658          23.000                  
                                                
  25335062.093   133136738.774       -1613.616          32.000                  
                                                
  21354107.284   112216581.359       -1404.264          42.000                  
                                                
  21761646.851   116287563.448       -2980.462          27.000                  
                                                
  21052904.117   112539808.561       -3339.658          43.000                  
                                                
  23307335.955   122480843.515       -2658.777          36.000                  
                                                
  25466643.602   133827989.704       -3765.573          30.000                  
                                                
  21228519.620   111556532.551         915.300          34.000                  
                                                
  21018362.307   112157797.231        1451.207          28.000                  
                                                
  23537827.279   123691873.427        2283.000          28.000                  
                                                
  20855706.618                        -414.221          26.000                  
                                                
  24638691.942                        1905.347          23.000                  
                                                
  25374555.252                        2876.107          22.000                  
                                                
  23178588.406   121804556.116       -2499.362          24.000                  
                                                
 18  5  8 13 44  4.0030000  0 16G 4G14G 3G29G26R11R 1G31G32G16R 2G23
                                R12R21G27G22
  21631127.422   113672338.102       -2366.162          46.000                  
                                                
  22959245.460   120651665.448       -2667.971          43.000                  
                                                
  22728523.637                       -1305.997          23.000                  
                                                
  25335368.580   133138351.808       -1612.935          33.000                  
                                                
  21354374.289   112217985.477       -1404.209          43.000                  
                                                
  21762201.497   116290543.582       -2979.216          27.000                  
                                                
  21053528.687   112543147.887       -3339.325          43.000                  
                                                
  23307841.698   122483501.650       -2657.936          37.000                  
                                                
  25467359.418   133831754.838       -3764.802          31.000                  
                                                
  21228345.728   111555616.532         916.066          36.000                  
                                                
  21018090.721   112156346.474        1450.580          28.000                  
                                                
  23537394.583   123689590.054        2283.532          29.000                  
                                                
  20855784.987   111407795.6142       -414.006          26.000                  
                                                
  24638335.495                        1907.967          22.000                  
                                                
  25374011.232                        2879.775          21.000                  
                                                
  23179065.678   121807055.181       -2498.775          24.000                  
                                                
 18  5  8 13 44  5.0030000  0 16G 4G14G 3G29G26R11R 1G31G32G16R 2G23
                                R12R21G27G22
  21631578.179   113674704.573       -2366.608          46.000                  
                                                
  22959753.706   120654333.808       -2668.286          43.000                  
                                                
  22728768.446                       -1317.567          22.000                  
                                                
  25335675.381   133139965.288       -1613.890          34.000                  
                                                
  21354641.121   112219389.963       -1404.757          44.000                  
                                                
  21762760.672   116293523.701       -2979.463          27.000                  
                                                
  21054153.195   112546487.721       -3340.028          43.000                  
                                                
  23308347.981   122486159.667       -2657.681          40.000                  
                                                
  25468071.091   133835519.989       -3764.918          32.000                  
                                                
  21228171.811   111554701.019         915.633          36.000                  
                                                
  21017818.183   112154896.216        1450.539          28.000                  
                                                
  23536961.137   123687306.571        2283.695          29.000                  
                                                
  20855864.002   111408209.7692       -413.607          26.000                  
                                                
  24637979.511                        1901.450          21.000                  
                                                
  25373466.236                        2873.087          22.000                  
                                                
  23179541.842   121809554.719       -2499.785          25.000                  
                                                
 18  5  8 13 44  6.0030000  0 16G 4G14G 3G29G26R11R 1G31G32G16R 2G23
                                R12R21G27G22
  21632028.953   113677071.309       -2366.986          47.000                  
                                                
  22960262.031   120657002.260       -2668.552          42.000                  
                                                
  22729010.428                       -1312.134          22.000                  
                                                
  25335982.427   133141579.019       -1613.518          35.000                  
                                                
  21354908.571   112220794.728       -1405.043          44.000                  
                                                
  21763316.636   116296503.764       -2980.157          28.000                  
                                                
  21054777.721   112549827.944       -3340.563          43.000                  
                                                
  23308854.046   122488817.472       -2657.887          40.000                  
                                                
  25468790.345   133839285.108       -3764.739          33.000                  
                                                
  21227997.762   111553785.854         914.919          36.000                  
                                                
  21017545.855   112153446.431        1449.252          28.000                  
                                                
  23536520.955   123685022.947        2284.097          31.000                  
                                                
  20855941.428   111408624.1352       -414.257          27.000                  
                                                
  24637625.507                        1899.604          19.000                  
                                                
  25372918.133                        2880.624          23.000                  
                                                
  23180019.429                       -2508.520          22.000                  
                                                
 18  5  8 13 44  7.0030000  0 16G 4G14G 3G29G26R11R 1G31G32G16R 2G23
                                R12R21G27G22
  21632479.867   113679437.881       -2366.492          46.000                  
                                                
  22960769.256   120659670.343       -2667.920          42.000                  
                                                
  22729260.507                       -1316.687          19.000                  
                                                
  25336289.734   133143192.646       -1613.688          35.000                  
                                                
  21355175.481   112222199.349       -1404.391          44.000                  
                                                
  21763873.847   116299483.219       -2979.026          28.000                  
                                                
  21055402.779   112553168.144       -3340.124          42.000                  
                                                
  23309361.393   122491474.594       -2657.110          36.000                  
                                                
  25469516.379   133843049.746       -3764.243          34.000                  
                                                
  21227823.696   111552870.626         914.938          35.000                  
                                                
  21017277.366   112151996.587        1450.662          29.000                  
                                                
  23536094.550   123682738.896        2284.727          30.000                  
                                                
  20856019.413   111409038.2182       -413.495          27.000                  
                                                
  24637271.974                        1899.604          16.000                  
                                                
  25372372.500                        2886.536          21.000                  
                                                
  23180494.101                       -2502.680          21.000                  
                                                
 18  5  8 13 44  8.0030000  0 16G 4G14G 3G29G26R11R 1G31G32G16R 2G23
                                R12R21G27G22
  21632930.283   113681804.805       -2367.346          47.000                  
                                                
  22961276.822   120662338.624       -2668.705          42.000                  
                                                
  22729507.340                       -1307.229          19.000                  
                                                
  25336597.006   133144806.652       -1614.282          34.000                  
                                                
  21355442.583   112223604.333       -1405.341          44.000                  
                                                
  21764429.549   116302462.650       -2979.330          28.000                  
                                                
  21056027.794   112556508.827       -3341.153          42.000                  
                                                
  23309868.968   122494131.652       -2657.986          36.000                  
                                                
  25470231.061   133846814.336       -3765.504          35.000                  
                                                
  21227649.744   111551955.834         914.240          35.000                  
                                                
  21017009.383   112150547.388        1448.772          30.000                  
                                                
  23535664.813   123680454.740        2283.866          30.000                  
                                                
  20856097.041   111409452.5012       -414.534          28.000                  
                                                
  24636916.836                        1899.604          15.000                  
                                                
  25371825.811                        2886.536          19.000                  
                                                
  23180969.924                       -2502.508          18.000                  
                                                
 18  5  8 13 44  9.0030000  0 16G 4G14G 3G29G26R11R 1G31G32G16R 2G23
                                R12R21G27G22
  21633380.647   113684172.556       -2368.030          47.000                  
                                                
  22961784.484   120665007.555       -2669.252          42.000                  
                                                
  22729749.165                       -1307.824          20.000                  
                                                
  25336904.243   133146421.545       -1615.331          35.000                  
                                                
  21355709.484   112225010.188       -1406.098          44.000                  
                                                
  21764987.826   116305442.588       -2979.755          27.000                  
                                                
  21056652.895   112559850.474       -3341.902          43.000                  
                                                
  23310375.652   122496789.073       -2657.510          36.000                  
                                                
  25470946.136   133850579.333       -3765.200          34.000                  
                                                
  21227476.079   111551041.971         913.484          36.000                  
                                                
  21016741.269   112149099.156        1448.316          30.000                  
                                                
  23535236.253   123678171.002        2284.301          30.000                  
                                                
  20856173.132   111409867.4542       -414.584          28.000                  
                                                
  24636560.634                        1899.604          12.000                  
                                                
  25371274.550                        2886.536          14.000                  
                                                
  23181446.359                       -2502.508          16.000                  
                                                
 18  5  8 13 44 10.0030000  0 16G 4G14G 3G29G26R11R 1G31G32G16R 2G23
                                R12R21G27G22
  21633831.499   113686540.848       -2368.457          47.000                  
                                                
  22962292.329   120667676.835       -2669.264          42.000                  
                                                
  22729995.528                       -1310.227          19.000                  
                                                
  25337211.733   133148036.973       -1615.521          34.000                  
                                                
  21355977.022   112226416.575       -1406.731          44.000                  
                                                
  21765545.255   116308422.623       -2979.762          27.000                  
                                                
  21057278.102   112563192.794       -3342.521          43.000                  
                                                
  23310881.726   122499446.483       -2657.131          36.000                  
                                                
  25471660.478   133854344.547       -3765.282          34.000                  
                                                
  21227302.240   111550128.746         913.063          36.000                  
                                                
  21016479.420   112147651.655        1447.781          29.000                  
                                                
  23534797.275   123675887.388        2284.108          30.000                  
                                                
  20856248.003   111410282.8942       -415.446          28.000                  
                                                
  24636205.042                        1899.604          13.000                  
                                                
  25370724.728                        2886.536          10.000                  
                                                
  23181920.630                       -2502.508          15.000                  
                                                
 18  5  8 13 44 11.0030000  0 15G 4G14G 3G29G26R11R 1G31G32G16R 2G23
                                R12R21G22
  21634281.663   113688908.974       -2368.640          46.000                  
                                                
  22962800.322   120670345.813       -2669.622          43.000                  
                                                
  22730242.466                       -1310.773          18.000                  
                                                
  25337519.189   133149652.283       -1615.669          35.000                  
                                                
  21356244.377   112227822.813       -1406.659          43.000                  
                                                
  21766101.525   116311402.142       -2979.745          27.000                  
                                                
  21057903.535   112566535.097       -3342.926          43.000                  
                                                
  23311387.564   122502103.304       -2657.517          36.000                  
                                                
  25472376.644   133858109.258       -3764.937          35.000                  
                                                
  21227128.227   111549215.448         913.122          36.000                  
                                                
  21016200.792   112146204.301        1446.830          29.000                  
                                                
  23534348.325   123673603.245        2283.906          29.000                  
                                                
  20856323.449   111410698.085        -415.683          28.000                  
                                                
  24635850.340                        1909.170          17.000                  
                                                
  23182398.164                       -2502.508          13.000                  
                                                
 18  5  8 13 44 12.0030000  0 16G 4G14G 3G29G26R11R 1G31G32G16R 2G23
                                R12R 8R21G22
  21634732.096   113691278.057       -2369.342          47.000                  
                                                
  22963308.411   120673015.538       -2669.911          43.000                  
                                                
  22730490.747                       -1313.018          17.000                  
                                                
  25337826.662   133151268.565       -1616.453          35.000                  
                                                
  21356511.365   112229230.027       -1407.562          43.000                  
                                                
  21766656.189   116314382.191       -2979.703          27.000                  
                                                
  21058529.117   112569878.478       -3343.911          44.000                  
                                                
  23311893.629   122504760.552       -2657.076          36.000                  
                                                
  25473093.089   133861874.570       -3765.423          35.000                  
                                                
  21226954.466   111548303.207         912.035          36.000                  
                                                
  21015924.006   112144758.072        1445.438          28.000                  
                                                
  23533909.146   123671319.695        2283.162          30.000                  
                                                
  20856398.502   111411114.026        -416.251          30.000                  
                                                
  24538370.154                       -5007.390          25.000                  
                                                
  24635495.542                        1899.776          20.000                  
                                                
  23182874.406                       -2502.508          11.000                  
                                                
 18  5  8 13 44 13.0030000  0 17G 4G14G 3G29G26R11R 1G31G32G16R 2G23
                                R12R 8R21G27G22
  21635182.565   113693647.426       -2369.177          46.000                  
                                                
  22963816.352   120675685.397       -2669.469          43.000                  
                                                
  22730740.696                       -1313.018          16.000                  
                                                
  25338134.370   133152885.182       -1616.278          35.000                  
                                                
  21356778.860   112230637.535       -1407.146          43.000                  
                                                
  21767212.624   116317362.243       -2980.103          27.000                  
                                                
  21059154.358   112573222.275       -3343.517          42.000                  
                                                
  23312399.345   122507417.638       -2656.136          36.000                  
                                                
  25473809.682   133865639.783       -3763.966          35.000                  
                                                
  21226780.854   111547391.332         912.604          35.000                  
                                                
  21015646.792   112143312.307        1445.696          28.000                  
                                                
  23533476.459   123669036.029        2283.821          29.000                  
                                                
  20856474.096   111411530.194        -415.844          29.000                  
                                                
  24539304.630                       -5005.600          25.000                  
                                                
  24635140.753                        1901.018          22.000                  
                                                
  25369085.847                        2886.536          11.000                  
                                                
  23183350.221                       -2502.508          11.000                  
                                                
 18  5  8 13 44 14.0030000  0 17G 4G14G 3G29G26R11R 1G31G32G16R 2G23
                                R12R 8R21G27G22
  21635633.339   113696016.863       -2370.081          46.000                  
                                                
  22964324.529   120678355.141       -2670.482          43.000                  
                                                
  22730991.900                       -1312.222          15.000                  
                                                
  25338441.860   133154501.889       -1616.967          35.000                  
                                                
  21357046.389   112232045.127       -1408.161          43.000                  
                                                
  21767767.846   116320341.852       -2980.192          28.000                  
                                                
  21059779.782   112576566.259       -3344.739          44.000                  
                                                
  23312904.808   122510074.300       -2656.996          36.000                  
                                                
  25474526.205   133869404.757       -3765.335          35.000                  
                                                
  21226606.875   111546479.637         910.907          35.000                  
                                                
  21015375.231   112141866.658        1444.979          27.000                  
                                                
  23533041.408   123666752.013        2283.690          29.000                  
                                                
  20856553.242   111411946.306        -416.738          30.000                  
                                                
  24540238.854                       -5006.596          25.000                  
                                                
  24634785.981                        1897.721          23.000                  
                                                
  25368539.708                        2886.536          14.000                  
                                                
  23183824.736                       -2500.645          13.000                  
                                                
 18  5  8 13 44 15.0030000  0 17G 4G14G 3G29G26R11R 1G31G32G16R 2G23
                                R12R 8R21G27G22
  21636084.008   113698387.373       -2370.734          46.000                  
                                                
  22964832.513   120681025.801       -2670.711          43.000                  
                                                
  22731243.759                       -1312.871          16.000                  
                                                
  25338749.996   133156119.702       -1617.606          35.000                  
                                                
  21357314.128   112233453.809       -1408.845          43.000                  
                                                
  21768326.148   116323322.220       -2980.086          28.000                  
                                                
  21060405.591   112579911.449       -3345.408          44.000                  
                                                
  23313410.647   122512731.546       -2656.834          36.000                  
                                                
  25475243.165   133873170.417       -3765.132          36.000                  
                                                
  21226433.080   111545569.065         910.714          35.000                  
                                                
  21015103.863   112140422.381        1444.028          27.000                  
                                                
  23532605.903   123664468.667        2283.889          29.000                  
                                                
  20856628.426   111412363.372        -417.328          30.000                  
                                                
  24541173.112                       -5006.169          26.000                  
                                                
  24634428.217                        1899.906          24.000                  
                                                
  25367994.485                        2882.863          18.000                  
                                                
  23184300.927                       -2500.119          15.000                  
                                                
 18  5  8 13 44 16.0030000  0 17G 4G14G 3G29G26R11R 1G31G32G16R 2G23
                                R12R 8R21G27G22
  21636534.852   113700758.003       -2370.319          46.000                  
                                                
  22965340.734   120683696.405       -2670.312          43.000                  
                                                
  22731499.274                       -1309.006          18.000                  
                                                
  25339058.289   133157737.674       -1617.705          35.000                  
                                                
  21357581.639   112234862.622       -1408.416          43.000                  
                                                
  21768886.387   116326302.295       -2979.077          29.000                  
                                                
  21061031.329   112583256.873       -3345.289          44.000                  
                                                
  23313915.961   122515388.489       -2656.824          36.000                  
                                                
  25475959.811   133876935.885       -3765.244          36.000                  
                                                
  21226259.467   111544658.754         910.719          35.000                  
                                                
  21014835.121   112138978.366        1443.948          27.000                  
                                                
  23532172.143   123662185.081        2283.885          29.000                  
                                                
  20856702.511   111412780.400        -415.721          30.000                  
                                                
  24542107.894                       -5005.395          25.000                  
                                                
  24634073.227                        1902.087          26.000                  
                                                
  25367449.532                        2884.155          19.000                  
                                                
  23184778.618                       -2503.165          18.000                  
                                                
 18  5  8 13 44 17.0030000  0 17G 4G14G 3G29G26R11R 1G31G32G16R 2G23
                                R12R 8R21G27G22
  21636985.792   113703128.537       -2370.947          46.000                  
                                                
  22965848.509   120686366.741       -2670.993          42.000                  
                                                
  22731754.693                       -1307.408          19.000                  
                                                
  25339366.259   133159355.598       -1618.540          35.000                  
                                                
  21357849.605   112236271.357       -1409.187          43.000                  
                                                
  21769449.489   116329281.919       -2980.122          30.000                  
                                                
  21061657.208   112586602.306       -3346.023          44.000                  
                                                
  23314420.971   122518044.806       -2657.053          36.000                  
                                                
  25476675.924   133880700.854       -3764.946          35.000                  
                                                
  21226085.454   111543748.461         909.415          34.000                  
                                                
  21014564.232                        1443.005          26.000                  
                                                
  23531733.497   123659900.990        2284.175          28.000                  
                                                
  20856779.013   111413197.303        -417.460          29.000                  
                                                
  24543044.683                       -5005.706          26.000                  
                                                
  24633717.601                        1901.733          26.000                  
                                                
  25366902.118                        2878.928          21.000                  
                                                
  23185260.130                       -2500.204          18.000                  
                                                
 18  5  8 13 44 18.0030000  0 17G 4G14G 3G29G26R11R 1G31G32G16R 2G23
                                R12R 8R21G27G22
  21637436.784   113705500.130       -2372.095          46.000                  
                                                
  22966356.694   120689037.960       -2671.661          43.000                  
                                                
  22732003.123                       -1323.423          22.000                  
                                                
  25339673.924   133160974.585       -1619.049          34.000                  
                                                
  21358117.152   112237681.181       -1410.365          43.000                  
                                                
  21770008.279   116332262.245       -2981.195          30.000                  
                                                
  21062283.156   112589948.927       -3347.095          44.000                  
                                                
  23314925.945   122520701.672       -2656.749          37.000                  
                                                
  25477392.665   133884466.549       -3765.823          36.000                  
                                                
  21225912.391   111542839.267         908.855          34.000                  
                                                
  21014290.351                        1441.985          25.000                  
                                                
  23531305.513   123657617.613        2282.639          27.000                  
                                                
  20856856.928   111413615.101        -418.664          29.000                  
                                                
  24543979.692                       -5007.240          26.000                  
                                                
  24633362.672   131818070.6162       1900.061          26.000                  
                                                
  25366355.211                        2887.807          22.000                  
                                                
  23185733.363                       -2500.653          17.000                  
                                                
 18  5  8 13 44 19.0030000  0 17G 4G14G 3G29G26R11R 1G31G32G16R 2G23
                                R12R 8R21G27G22
  21637888.309   113707872.406       -2371.771          46.000                  
                                                
  22966864.818   120691709.683       -2671.201          42.000                  
                                                
  22732256.657                       -1310.110          23.000                  
                                                
  25339981.859   133162594.317       -1619.454          34.000                  
                                                
  21358385.274   112239091.696       -1409.948          43.000                  
                                                
  21770573.108   116335242.838       -2980.646          30.000                  
                                                
  21062909.104   112593296.397       -3347.160          44.000                  
                                                
  23315431.076   122523358.760       -2656.097          38.000                  
                                                
  25478109.730   133888232.613       -3765.889          35.000                  
                                                
  21225739.643   111541930.925         908.500          35.000                  
                                                
  21014015.414                        1433.802          23.000                  
                                                
  23530874.562   123655334.405        2282.894          27.000                  
                                                
  20856929.442   111414033.438        -418.392          28.000                  
                                                
  24544913.296                       -5011.771          26.000                  
                                                
  24633008.398                        1900.446          27.000                  
                                                
  25365803.069                        2884.250          23.000                  
                                                
  23186207.049                       -2506.517          18.000                  
                                                
 18  5  8 13 44 20.0030000  0 17G 4G14G 3G29G26R11R 1G31G32G16R 2G23
                                R12R 8R21G27G22
  21638339.615   113710244.929       -2373.053          46.000                  
                                                
  22967373.187   120694381.471       -2672.066          42.000                  
                                                
  22732512.032                       -1313.686          25.000                  
                                                
  25340289.603   133164214.262       -1619.983          33.000                  
                                                
  21358653.484   112240502.484       -1411.190          43.000                  
                                                
  21771137.544   116338223.351       -2981.531          30.000                  
                                                
  21063535.479   112596644.230       -3348.448          44.000                  
                                                
  23315936.173   122526015.642       -2657.430          37.000                  
                                                
  25478826.602   133891998.500       -3766.146          35.000                  
                                                
  21225566.484   111541022.842         907.405          33.000                  
                                                
  21013740.853                        1441.559          23.000                  
                                                
  23530439.912   123653296.2863       2282.268          25.000                  
                                                
  20857004.574   111414451.864        -418.587          28.000                  
                                                
  24545848.654                       -5010.735          25.000                  
                                                
  24632655.144                        1899.597          27.000                  
                                                
  25365253.300                        2880.049          23.000                  
                                                
  23186682.942                       -2502.576          20.000                  
                                                
 18  5  8 13 44 21.0030000  0 17G 4G14G 3G29G26R11R 1G31G32G16R 2G23
                                R12R 8R21G27G22
  21638791.052   113712618.281       -2373.993          46.000                  
                                                
  22967882.244   120697053.922       -2672.995          42.000                  
                                                
  22732761.274                       -1316.108          26.000                  
                                                
  25340597.782   133165835.185       -1621.478          32.000                  
                                                
  21358922.261   112241914.120       -1412.376          43.000                  
                                                
  21771695.733   116341204.280       -2981.387          29.000                  
                                                
  21064162.300   112599993.040       -3349.683          43.000                  
                                                
  23316441.627   122528672.821       -2657.792          38.000                  
                                                
  25479543.527   133895764.838       -3766.797          35.000                  
                                                
  21225393.509   111540115.731         906.466          33.000                  
                                                
  21013464.511                        1440.089          24.000                  
                                                
  23530008.316                        2282.622          23.000                  
                                                
  20857084.016   111414870.985        -419.244          28.000                  
                                                
  24546784.954                       -5006.461          26.000                  
                                                
  24632300.957   131812386.2503       1899.048          27.000                  
                                                
  25364704.543                        2887.121          24.000                  
                                                
  23187159.866                       -2508.135          20.000                  
                                                
 18  5  8 13 44 22.0030000  0 17G 4G14G 3G29G26R11R 1G31G32G16R 2G23
                                R12R 8R21G27G22
  21639242.620   113714992.591       -2374.347          45.000                  
                                                
  22968390.814   120699727.159       -2672.889          42.000                  
                                                
  22733014.956   119462798.9912      -1316.733          27.000                  
                                                
  25340906.206   133167457.021       -1621.853          32.000                  
                                                
  21359190.698   112243326.703       -1412.429          43.000                  
                                                
  21772254.611   116344185.839       -2981.480          29.000                  
                                                
  21064789.086   112603342.950       -3350.048          43.000                  
                                                
  23316946.637   122531330.518       -2657.645          38.000                  
                                                
  25480260.652   133899531.846       -3767.295          35.000                  
                                                
  21225220.752   111539209.684         905.840          34.000                  
                                                
  21013194.600                        1440.761          23.000                  
                                                
  23529576.554                        2263.531          21.000                  
                                                
  20857164.907   111415291.044        -419.537          27.000                  
                                                
  24547720.443                       -5008.477          25.000                  
                                                
  24631945.156   131810487.5032       1898.810          28.000                  
                                                
  25364154.337                        2881.968          23.000                  
                                                
  23187636.021                       -2517.634          21.000                  
                                                
 18  5  8 13 44 23.0030000  0 17G 4G14G 3G29G26R11R 1G31G32G16R 2G23
                                R12R 8R21G27G22
  21639694.118   113717367.117       -2374.762          45.000                  
                                                
  22968899.505   120702400.471       -2673.467          42.000                  
                                                
  22733265.454   119464115.8282      -1316.563          28.000                  
                                                
  25341214.944   133169079.106       -1622.749          33.000                  
                                                
  21359459.065   112244739.544       -1413.033          43.000                  
                                                
  21772812.861   116347167.125       -2981.018          28.000                  
                                                
  21065416.098   112606693.208       -3350.691          44.000                  
                                                
  23317452.222   122533987.917       -2657.141          39.000                  
                                                
  25480977.717   133903298.699       -3767.120          36.000                  
                                                
  21225048.291   111538303.925         905.459          34.000                  
                                                
  21012923.990                        1437.330          23.000                  
                                                
  23529142.576                        2287.982          20.000                  
                                                
  20857245.998   111415711.154        -419.805          27.000                  
                                                
  24548655.696                       -5006.665          25.000                  
                                                
  24631590.375   131808588.8222       1898.724          28.000                  
                                                
  25363601.645                        2883.195          24.000                  
                                                
  23188110.344                       -2502.165          21.000                  
                                                
 18  5  8 13 44 24.0030000  0 17G 4G14G 3G29G26R11R 1G31G32G16R 2G23
                                R12R 8R21G27G22
  21640146.192   113719742.514       -2376.056          45.000                  
                                                
  22969408.266   120705074.470       -2674.703          42.000                  
                                                
  22733521.841   119465433.6582      -1317.805          30.000                  
                                                
  25341524.014   133170702.093       -1623.296          33.000                  
                                                
  21359728.130   112246153.277       -1414.487          43.000                  
                                                
  21773370.727   116350148.978       -2982.085          28.000                  
                                                
  21066043.154   112610044.481       -3352.099          45.000                  
                                                
  23317958.400   122536645.761       -2658.542          39.000                  
                                                
  25481694.545   133907066.106       -3768.130          36.000                  
                                                
  21224876.381   111537399.107         904.419          34.000                  
                                                
  21012653.948                        1437.275          24.000                  
                                                
  23528704.785                        2291.556          19.000                  
                                                
  20857323.198   111416132.144        -421.757          27.000                  
                                                
  24549589.850                       -5009.597          26.000                  
                                                
  24631237.183   131806690.9802       1897.003          29.000                  
                                                
  25363050.977                        2881.175          26.000                  
                                                
  23188586.098                       -2499.190          21.000                  
                                                
 18  5  8 13 44 25.0030000  0 17G 4G14G 3G29G26R11R 1G31G32G16R 2G23
                                R12R 8R21G27G22
  21640598.066   113722119.021       -2377.100          45.000                  
                                                
  22969917.620   120707749.370       -2675.554          42.000                  
                                                
  22733780.846   119466752.6872      -1319.329          31.000                  
                                                
  25341833.232   133172326.273       -1625.140          33.000                  
                                                
  21359997.544   112247568.135       -1415.321          43.000                  
                                                
  21773923.567   116353131.524       -2982.714          27.000                  
                                                
  21066670.681   112613396.990       -3353.008          45.000                  
                                                
  23318464.928   122539304.189       -2658.454          38.000                  
                                                
  25482411.723   133910834.242       -3768.749          36.000                  
                                                
  21224704.077   111536495.582         902.773          33.000                  
                                                
  21012386.149                        1436.329          25.000                  
                                                
  23528268.267                        2283.701          18.000                  
                                                
  20857402.430   111416554.028        -421.816          27.000                  
                                                
  24550524.527                       -5008.650          26.000                  
                                                
  24630886.137   131804794.0822       1896.191          29.000                  
                                                
  25362501.671   133280850.4972       2881.036          27.000                  
                                                
  23189062.131                       -2510.448          22.000                  
                                                
 18  5  8 13 44 26.0030000  0 17G 4G14G 3G29G26R11R 1G31G32G16R 2G23
                                R12R 8R21G27G22
  21641050.445   113724496.142       -2377.350          45.000                  
                                                
  22970426.512   120710424.733       -2675.480          42.000                  
                                                
  22734035.742   119468072.3772      -1320.054          33.000                  
                                                
  25342142.833   133173951.040       -1624.355          33.000                  
                                                
  21360266.905   112248983.619       -1415.729          43.000                  
                                                
  21774479.967   116356114.398       -2982.902          28.000                  
                                                
  21067297.877   112616750.243       -3353.424          45.000                  
                                                
  23318971.063   122541962.763       -2658.273          38.000                  
                                                
  25483129.093   133914602.618       -3768.518          35.000                  
                                                
  21224531.983   111535592.718         902.195          33.000                  
                                                
  21012116.726                        1435.721          25.000                  
                                                
  23527828.845                        2289.827          17.000                  
                                                
  20857482.754   111416976.497        -422.706          28.000                  
                                                
  24551461.647                       -5009.185          26.000                  
                                                
  24630528.207   131802897.7412       1895.319          28.000                  
                                                
  25361953.141   133277969.1252       2881.801          27.000                  
                                                
  23189539.002                       -2501.193          23.000                  
                                                
 18  5  8 13 44 27.0030000  0 17G 4G14G 3G29G26R11R 1G31G32G16R 2G23
                                R12R 8R21G27G22
  21641502.572   113726873.122       -2376.947          45.000                  
                                                
  22970935.657   120713099.775       -2674.705          42.000                  
                                                
  22734283.395   119469391.9722      -1319.949          33.000                  
                                                
  25342452.487   133175575.751       -1624.292          33.000                  
                                                
  21360536.284   112250398.988       -1415.443          43.000                  
                                                
  21775041.402   116359096.688       -2982.368          28.000                  
                                                
  21067925.343   112620103.483       -3353.143          45.000                  
                                                
  23319477.232   122544620.709       -2657.624          38.000                  
                                                
  25483846.236   133918370.505       -3767.945          35.000                  
                                                
  21224360.352   111534689.810         902.275          33.000                  
                                                
  21011843.168                        1434.153          25.000                  
                                                
  23527392.834                        2279.209          19.000                  
                                                
  20857564.211   111417398.635        -422.245          30.000                  
                                                
  24552397.189                       -5009.978          25.000                  
                                                
  24630175.852   131801001.021        1896.313          27.000                  
                                                
  25361401.784   133275086.9902       2882.511          27.000                  
                                                
  23190019.398                       -2507.179          25.000                  
                                                
 18  5  8 13 44 28.0030000  0 17G 4G14G 3G29G26R11R 1G31G32G16R 2G23
                                R12R 8R21G27G22
  21641955.047   113729250.718       -2377.899          45.000                  
                                                
  22971445.073   120715775.279       -2675.783          42.000                  
                                                
  22734531.075   119470712.2232      -1320.784          32.000                  
                                                
  25342762.176   133177201.083       -1625.582          34.000                  
                                                
  21360805.925   112251814.980       -1416.516          43.000                  
                                                
  21775601.109   116362079.177       -2982.712          27.000                  
                                                
  21068552.888   112623457.462       -3354.326          43.000                  
                                                
  23319983.812   122547278.801       -2658.492          39.000                  
                                                
  25484563.623   133922138.650       -3768.462          35.000                  
                                                
  21224188.615   111533787.619         901.670          33.000                  
                                                
  21011574.661                        1434.322          24.000                  
                                                
  23526958.655                        2281.563          20.000                  
                                                
  20857645.503   111417821.217        -422.813          30.000                  
                                                
  24553330.653                       -5006.363          25.000                  
                                                
  24629823.506                        1895.939          25.000                  
                                                
  25360853.035   133272204.8702       2881.698          28.000                  
                                                
  23190500.684                       -2508.809          26.000                  
                                                
 18  5  8 13 44 29.0030000  0 17G 4G14G 3G29G26R11R 1G31G32G16R 2G23
                                R12R 8R21G27G22
  21642407.348   113731629.370       -2378.986          45.000                  
                                                
  22971954.645   120718451.665       -2676.702          42.000                  
                                                
  22734782.131   119472033.6332      -1321.294          32.000                  
                                                
  25343072.529   133178827.528       -1627.173          35.000                  
                                                
  21361075.871   112253232.039       -1417.459          44.000                  
                                                
  21776159.725   116365062.333       -2983.057          29.000                  
                                                
  21069180.642   112626812.651       -3355.550          45.000                  
                                                
  23320490.418   122549937.459       -2658.746          39.000                  
                                                
  25485280.644   133925907.525       -3769.460          35.000                  
                                                
  21224017.053   111532886.564         900.843          34.000                  
                                                
  21011306.748                        1432.885          24.000                  
                                                
  23526523.123                        2288.660          20.000                  
                                                
  20857727.816   111418244.867        -424.934          29.000                  
                                                
  24554265.095                       -5009.099          25.000                  
                                                
  24629474.641                        1895.388          24.000                  
                                                
  25360308.222   133269323.1172       2882.207          29.000                  
                                                
  23190979.090                       -2509.054          26.000                  
                                                
 18  5  8 13 44 30.0030000  0 17G 4G14G 3G29G26R11R 1G31G32G16R 2G23
                                R12R 8R21G27G22
  21642860.207   113734008.332       -2379.321          45.000                  
                                                
  22972464.174   120721128.160       -2676.809          43.000                  
                                                
  22735033.571   119473355.4162      -1322.833          32.000                  
                                                
  25343382.924   133180454.295       -1627.097          35.000                  
                                                
  21361346.463   112254649.418       -1417.679          44.000                  
                                                
  21776724.476   116368045.506       -2983.667          30.000                  
                                                
  21069808.580   112630168.252       -3356.006          45.000                  
                                                
  23320996.989   122552595.938       -2658.663          40.000                  
                                                
  25485997.778   133929676.334       -3769.297          34.000                  
                                                
  21223846.146   111531985.935         899.908          34.000                  
                                                
  21011038.870                        1432.272          24.000                  
                                                
  23526087.418                        2267.863          20.000                  
                                                
  20857806.621   111418668.559        -425.226          30.000                  
                                                
  24555201.404                       -5008.592          25.000                  
                                                
  24629118.064                        1894.209          25.000                  
                                                
  25359759.133   133266441.0502       2882.210          29.000                  
                                                
  23191463.822                       -2509.147          27.000                  
                                                
 18  5  8 13 44 31.0030000  0 17G 4G14G 3G29G26R11R 1G31G32G16R 2G23
                                R12R 8R21G27G22
  21643313.014   113736387.823       -2379.889          45.000                  
                                                
  22972974.288   120723805.034       -2676.997          43.000                  
                                                
  22735284.610   119474677.207       -1321.521          32.000                  
                                                
  25343693.678   133182081.637       -1627.803          34.000                  
                                                
  21361616.592   112256067.356       -1418.269          44.000                  
                                                
  21777282.211   116371028.733       -2983.521          31.000                  
                                                
  21070436.308   112633524.503       -3356.537          45.000                  
                                                
  23321503.604   122555254.479       -2658.449          40.000                  
                                                
  25486714.895   133933445.315       -3769.569          34.000                  
                                                
  21223675.291   111531085.899         899.954          35.000                  
                                                
  21010775.101                        1436.152          22.000                  
                                                
  23525649.409                        2276.700          20.000                  
                                                
  20857888.044   111419092.650        -424.111          30.000                  
                                                
  24556137.529                       -5009.192          26.000                  
                                                
  24628761.573                        1894.531          26.000                  
                                                
  25359210.211   133263558.366        2882.815          29.000                  
                                                
  23191949.959   121874473.9343      -2509.054          28.000                  
                                                
 18  5  8 13 44 32.0030000  0 17G 4G14G 3G29G26R11R 1G31G32G16R 2G23
                                R12R 8R21G27G22
  21643766.214   113738767.874       -2380.414          45.000                  
                                                
  22973484.349   120726482.310       -2677.474          43.000                  
                                                
  22735533.956   119476000.281       -1323.054          32.000                  
                                                
  25344004.562   133183709.608       -1628.615          34.000                  
                                                
  21361887.036   112257485.881       -1418.937          44.000                  
                                                
  21777842.991   116374012.192       -2983.069          31.000                  
                                                
  21071064.419   112636881.471       -3357.411          45.000                  
                                                
  23322010.166   122557913.113       -2658.792          40.000                  
                                                
  25487432.212   133937214.500       -3769.254          34.000                  
                                                
  21223504.340   111530186.559         898.720          35.000                  
                                                
  21010512.658                        1433.979          22.000                  
                                                
  23525215.500                        2287.462          21.000                  
                                                
  20857970.845   111419517.309        -424.728          29.000                  
                                                
  24557073.681                       -5008.537          26.000                  
                                                
  24628406.819   131791556.7283       1894.312          26.000                  
                                                
  25358657.728   133260676.134        2882.096          30.000                  
                                                
  23192433.950   121876983.4912      -2509.593          29.000                  
                                                
 18  5  8 13 44 33.0030000  0 17G 4G14G 3G29G26R11R 1G31G32G16R 2G23
                                R12R 8R21G27G22
  21644219.248   113741148.280       -2380.707          45.000                  
                                                
  22973994.401   120729159.759       -2677.640          43.000                  
                                                
  22735781.217   119477323.707       -1324.061          33.000                  
                                                
  25344315.412   133185337.911       -1628.706          34.000                  
                                                
  21362157.217   112258904.783       -1419.248          44.000                  
                                                
  21778405.612   116376995.670       -2983.801          31.000                  
                                                
  21071692.418   112640238.905       -3357.539          45.000                  
                                                
  23322516.545   122560571.595       -2658.444          40.000                  
                                                
  25488149.285   133940983.717       -3769.236          34.000                  
                                                
  21223333.389   111529287.620         898.597          35.000                  
                                                
  21010250.844                        1436.307          22.000                  
                                                
  23524782.159                        2278.969          21.000                  
                                                
  20858052.006   111419942.143        -424.869          29.000                  
                                                
  24558009.877   131506981.5642      -5008.961          27.000                  
                                                
  24628051.637   131789662.8742       1893.518          27.000                  
                                                
  25358113.674   133257793.764        2882.184          31.000                  
                                                
  23192924.903   121879493.2662      -2510.542          30.000                  
                                                
 18  5  8 13 44 34.0030000  0 17G 4G14G 3G29G26R11R 1G31G32G16R 2G23
                                R12R 8R21G27G22
  21644672.735   113743529.274       -2381.348          45.000                  
                                                
  22974504.550   120731837.621       -2678.048          43.000                  
                                                
  22736030.319   119478647.772       -1324.723          33.000                  
                                                
  25344626.244   133186966.854       -1629.185          34.000                  
                                                
  21362427.425   112260324.250       -1419.759          45.000                  
                                                
  21778972.003   116379979.353       -2983.878          29.000                  
                                                
  21072320.373   112643597.076       -3358.488          45.000                  
                                                
  23323022.645   122563230.196       -2658.338          40.000                  
                                                
  25488866.245   133944753.130       -3769.620          33.000                  
                                                
  21223162.952   111528389.414         897.699          35.000                  
                                                
  21009985.182                        1429.902          24.000                  
                                                
  23524350.877                        2280.854          21.000                  
                                                
  20858126.379   111420367.491        -425.635          30.000                  
                                                
  24558945.871   131511990.8162      -5009.001          27.000                  
                                                
  24627696.281   131787769.3862       1893.323          28.000                  
                                                
  25357566.077   133254911.162        2883.239          30.000                  
                                                
  23193404.880   121882003.4062      -2510.148          30.000                  
                                                
 18  5  8 13 44 35.0030000  0 17G 4G14G 3G29G26R11R 1G31G32G16R 2G23
                                R12R 8R21G27G22
  21645126.179   113745910.797       -2382.007          45.000                  
                                                
  22975014.532   120734515.842       -2678.575          43.000                  
                                                
  22736287.518   119479972.421       -1325.237          32.000                  
                                                
  25344937.564   133188596.382       -1630.270          33.000                  
                                                
  21362698.375   112261744.282       -1420.517          45.000                  
                                                
  21779534.083   116382963.066       -2983.802          28.000                  
                                                
  21072948.615   112646955.904       -3359.320          45.000                  
                                                
  23323528.833   122565888.850       -2658.771          40.000                  
                                                
  25489583.178   133948522.683       -3769.544          33.000                  
                                                
  21222992.586   111527491.825         896.775          34.000                  
                                                
  21009718.874                        1435.538          24.000                  
                                                
  23523917.605                        2279.732          22.000                  
                                                
  20858204.739   111420793.223        -425.631          30.000                  
                                                
  24559881.491   131517000.1462      -5009.444          27.000                  
                                                
  24627339.904   131785876.2992       1892.963          28.000                  
                                                
  25357014.432   133252028.562        2882.238          31.000                  
                                                
  23193881.733   121884513.9562      -2510.907          30.000                  
                                                
 18  5  8 13 44 36.0030000  0 17G 4G14G 3G29G26R11R 1G31G32G16R 2G23
                                R12R 8R21G27G22
  21645579.291   113748293.099       -2382.965          45.000                  
                                                
  22975524.681   120737194.673       -2679.372          43.000                  
                                                
  22736539.071   119481297.924       -1326.360          32.000                  
                                                
  25345249.007   133190226.703       -1630.748          33.000                  
                                                
  21362968.967   112263165.121       -1421.452          45.000                  
                                                
  21780093.493   116385947.373       -2984.122          27.000                  
                                                
  21073577.181   112650315.656       -3360.409          45.000                  
                                                
  23324035.107   122568547.826       -2659.705          40.000                  
                                                
  25490300.260   133952292.733       -3770.689          34.000                  
                                                
  21222821.914   111526595.128         896.061          34.000                  
                                                
  21009449.600                        1436.762          23.000                  
                                                
  23523484.866                        2278.238          23.000                  
                                                
  20858280.901   111421219.689        -426.936          29.000                  
                                                
  24560818.917   131522009.8312      -5010.117          27.000                  
                                                
  24626986.240   131783983.9482       1891.974          28.000                  
                                                
  25356464.995   133249146.082        2882.213          31.000                  
                                                
  23194364.616   121887025.2272      -2512.030          31.000                  
                                                
 18  5  8 13 44 37.0030000  0 17G 4G14G 3G29G26R11R 1G31G32G16R 2G23
                                R12R 8R21G27G22
  21646032.465   113750676.229       -2383.246          45.000                  
                                                
  22976034.471   120739874.139       -2679.479          44.000                  
                                                
  22736788.784   119482624.281       -1325.928          31.000                  
                                                
  25345560.458   133191857.863       -1631.252          33.000                  
                                                
  21363239.646   112264586.797       -1421.432          45.000                  
                                                
  21780651.647   116388932.077       -2984.432          26.000                  
                                                
  21074206.401   112653676.366       -3360.614          45.000                  
                                                
  23324541.355   122571207.108       -2658.933          40.000                  
                                                
  25491017.473   133956063.266       -3770.240          34.000                  
                                                
  21222651.748   111525699.356         895.425          34.000                  
                                                
  21009179.880                        1430.957          23.000                  
                                                
  23523049.352                        2276.182          23.000                  
                                                
  20858358.685   111421646.840        -427.176          28.000                  
                                                
  24561754.449   131527019.8162      -5009.391          28.000                  
                                                
  24626631.434   131782092.3302       1891.620          28.000                  
                                                
  25355914.737   133246263.798        2883.128          31.000                  
                                                
  23194842.464   121889536.685       -2511.352          31.000                  
                                                
 18  5  8 13 44 38.0030000  0 17G 4G14G 3G29G26R11R 1G31G32G16R 2G23
                                R12R 8R21G27G22
  21646486.232   113753059.451       -2383.459          45.000                  
                                                
  22976544.471   120742553.510       -2679.572          42.000                  
                                                
  22737039.360   119483950.831       -1326.011          31.000                  
                                                
  25345871.892   133193489.195       -1631.694          32.000                  
                                                
  21363510.456   112266008.581       -1421.879          45.000                  
                                                
  21781208.004   116391916.412       -2984.113          27.000                  
                                                
  21074835.001   112657037.265       -3361.250          45.000                  
                                                
  23325047.455   122573866.030       -2659.028          39.000                  
                                                
  25491734.790   133959833.480       -3770.280          34.000                  
                                                
  21222481.583   111524803.747         895.522          34.000                  
                                                
  21008912.962                        1422.679          22.000                  
                                                
  23522616.395                        2275.798          23.000                  
                                                
  20858431.592   111422073.906        -426.717          26.000                  
                                                
  24562689.501   131532029.6582      -5010.672          27.000                  
                                                
  24626277.857   131780200.6272       1891.382          28.000                  
                                                
  25355368.641   133243380.982        2883.483          31.000                  
                                                
  23195327.021   121892048.601       -2512.234          32.000                  
                                                
 18  5  8 13 44 39.0030000  0 17G 4G14G 3G29G26R11R 1G31G32G16R 2G23
                                R12R 8R21G27G22
  21646940.007   113755443.098       -2383.685          45.000                  
                                                
  22977054.306   120745233.176       -2679.354          42.000                  
                                                
  22737284.152   119485277.901       -1326.531          30.000                  
                                                
  25346183.658   133195121.006       -1632.319          31.000                  
                                                
  21363781.632   112267430.811       -1422.150          44.000                  
                                                
  21781762.257   116394900.852       -2984.331          27.000                  
                                                
  21075464.256   112660398.729       -3361.671          44.000                  
                                                
  23325553.154   122576524.894       -2658.314          38.000                  
                                                
  25492451.793   133963603.798       -3770.562          33.000                  
                                                
  21222311.539   111523908.722         894.976          34.000                  
                                                
  21008645.651                        1422.679          19.000                  
                                                
  23522181.335                        2280.977          25.000                  
                                                
  20858510.685   111422354.8611       -427.400          26.000                  
                                                
  24563626.622   131537038.750       -5008.657          26.000                  
                                                
  24625926.096   131778309.254        1892.126          27.000                  
                                                
  25354817.241   133240497.975        2883.199          31.000                  
                                                
  23195801.859   121894560.801       -2511.580          32.000                  
                                                
 18  5  8 13 44 40.0030000  0 17G 4G14G 3G29G26R11R 1G31G32G16R 2G23
                                R12R 8R21G27G22
  21647393.364   113757826.594       -2383.185          45.000                  
                                                
  22977564.524   120747912.527       -2678.752          43.000                  
                                                
  22737535.749   119486604.864       -1326.021          31.000                  
                                                
  25346495.005   133196752.634       -1631.483          33.000                  
                                                
  21364052.311   112268852.915       -1421.671          45.000                  
                                                
  21782315.656   116397884.674       -2983.196          28.000                  
                                                
  21076093.232   112663760.149       -3361.105          45.000                  
                                                
  23326058.608   122579183.134       -2657.394          39.000                  
                                                
  25493168.666   133967373.606       -3769.341          33.000                  
                                                
  21222141.286   111523013.615         895.250          35.000                  
                                                
  21008377.162                        1420.431          18.000                  
                                                
  23521752.033                        2280.555          26.000                  
                                                
  20858590.380   111422781.955        -426.730          26.000                  
                                                
  24564563.419   131542047.978       -5008.892          26.000                  
                                                
  24625571.403   131776417.662        1892.120          27.000                  
                                                
  25354268.719   133237614.240        2884.229          31.000                  
                                                
  23196274.620   121897072.773       -2511.668          33.000                  
                                                
 18  5  8 13 44 41.0030000  0 17G 4G14G 3G29G26R11R 1G31G32G16R 2G23
                                R12R 8R21G27G22
  21647846.912   113760210.026       -2383.325          44.000                  
                                                
  22978074.175   120750591.637       -2678.999          43.000                  
                                                
  22737792.250   119487931.911       -1327.524          31.000                  
                                                
  25346807.006   133198384.201       -1630.841          32.000                  
                                                
  21364323.304   112270274.955       -1422.140          44.000                  
                                                
  21782860.435   116400868.076       -2982.819          30.000                  
                                                
  21076721.928   112667121.611       -3361.278          44.000                  
                                                
  23326564.254   122581840.840       -2657.552          39.000                  
                                                
  25493885.643   133971142.951       -3769.054          32.000                  
                                                
  21221971.495   111522118.528         895.295          35.000                  
                                                
  21008108.551                        1420.191          18.000                  
                                                
  23521321.100                        2280.900          26.000                  
                                                
  20858666.262                        -425.357          25.000                  
                                                
  24565501.107   131547056.636       -5008.115          26.000                  
                                                
  24625220.182   131774525.824        1892.096          27.000                  
                                                
  25353721.253   133234729.736        2884.896          31.000                  
                                                
  23196747.521   121899584.509       -2511.556          32.000                  
                                                
 18  5  8 13 44 42.0030000  0 17G 4G14G 3G29G26R11R 1G31G32G16R 2G23
                                R12R 8R21G27G22
  21648300.330   113762594.081       -2384.650          44.000                  
                                                
  22978584.952   120753271.223       -2679.718          46.000                  
                                                
  22738046.892   119489259.501       -1328.799          32.000                  
                                                
  25347118.658   133200016.548       -1633.009          32.000                  
                                                
  21364594.446   112271697.652       -1423.392          44.000                  
                                                
  21783419.470   116403851.780       -2984.308          30.000                  
                                                
  21077350.956   112670483.878       -3362.976          43.000                  
                                                
  23327069.630   122584498.684       -2657.851          40.000                  
                                                
  25494602.419   133974912.582       -3769.410          32.000                  
                                                
  21221801.199   111521224.211         893.610          34.000                  
                                                
  21007839.189                        1428.640          18.000                  
                                                
  23520890.621   123603079.4362       2278.354          25.000                  
                                                
  20858745.931                        -414.244          23.000                  
                                                
  24566439.004   131552065.507       -5008.778          25.000                  
                                                
  24624867.539   131772634.544        1890.222          27.000                  
                                                
  25353171.205   133231845.230        2883.851          29.000                  
                                                
  23197224.828   121902096.725       -2513.385          30.000                  
                                                
 18  5  8 13 44 43.0030000  0 17G 4G14G 3G29G26R11R 1G31G32G16R 2G23
                                R12R 8R21G27G22
  21648754.228   113764979.465       -2385.400          42.000                  
                                                
  22979096.112   120755951.895       -2680.627          45.000                  
                                                
  22738301.953   119490588.486       -1328.167          31.000                  
                                                
  25347431.087   133201650.083       -1634.520          32.000                  
                                                
  21364865.779   112273121.664       -1423.789          45.000                  
                                                
  21783977.877   116406836.332       -2983.935          30.000                  
                                                
  21077980.290   112673847.584       -3363.720          43.000                  
                                                
  23327573.933   122587157.332       -2658.217          41.000                  
                                                
  25495312.329   133978683.302       -3770.536          32.000                  
                                                
  21221631.495   111520331.253         892.834          35.000                  
                                                
  21007569.182                        1428.640          16.000                  
                                                
  23520458.030                        2291.899          24.000                  
                                                
  20858823.969                        -427.041          21.000                  
                                                
  24567374.431   131557075.229       -5009.849          25.000                  
                                                
  24624513.745   131770744.353        1890.155          26.000                  
                                                
  25352624.943   133228961.517        2884.387          29.000                  
                                                
  23197704.055   121904610.102       -2513.090          32.000                  
                                                
 18  5  8 13 44 44.0030000  0 17G 4G14G 3G29G26R11R 1G31G32G16R 2G23
                                R12R 8R21G27G22
  21649207.689   113767365.032       -2386.523          44.000                  
                                                
  22979607.133   120758632.588       -2681.520          47.000                  
                                                
  22738555.086   119491917.839       -1331.709          31.000                  
                                                
  25347743.402   133203283.894       -1634.237          31.000                  
                                                
  21365137.025   112274545.871       -1424.958          45.000                  
                                                
  21784537.767   116409820.716       -2985.309          31.000                  
                                                
  21078609.920   112677211.576       -3364.985          44.000                  
                                                
  23328077.590   122589815.663       -2659.171          42.000                  
                                                
  25496034.061   133982453.695       -3770.404          33.000                  
                                                
  21221462.184   111519438.496         892.106          36.000                  
                                                
  21007301.103                        1428.640          15.000                  
                                                
  23520025.544                        2279.682          25.000                  
                                                
  20858903.690                        -427.723          18.000                  
                                                
  24568309.335   131562084.701       -5010.079          25.000                  
                                                
  24624160.841   131768854.424        1888.977          25.000                  
                                                
  25352077.452   133226077.225        2883.812          31.000                  
                                                
  23198184.590   121907123.608       -2515.361          26.000                  
                                                
 18  5  8 13 44 45.0030000  0 17G 4G14G 3G29G26R11R 1G31G32G16R 2G23
                                R12R 8R21G27G22
  21649661.491   113769751.854       -2387.695          42.000                  
                                                
  22980117.691   120761314.449       -2682.586          45.000                  
                                                
  22738805.139   119493248.502       -1331.765          30.000                  
                                                
  25348059.949   133204919.177       -1637.167          30.000                  
                                                
  21365408.385   112275971.458       -1426.493          44.000                  
                                                
  21785095.336   116412805.972       -2985.382          31.000                  
                                                
  21079239.698   112680577.063       -3366.234          43.000                  
                                                
  23328582.224   122592474.950       -2659.885          40.000                  
                                                
  25496746.937   133986224.973       -3770.572          31.000                  
                                                
  21221292.926   111518547.278         890.852          33.000                  
                                                
  21007034.943                        1421.442          17.000                  
                                                
  23519594.419                        2278.221          24.000                  
                                                
  20858983.848                        -435.555          17.000                  
                                                
  24569245.784   131567157.5331      -5010.315          25.000                  
                                                
  24623807.796                        1887.325          24.000                  
                                                
  25351524.637   133223193.611        2884.664          30.000                  
                                                
  23198659.271   121909638.366       -2516.491          26.000                  
                                                
 18  5  8 13 44 46.0030000  0 17G 4G14G 3G29G26R11R 1G31G32G16R 2G23
                                R12R 8R21G27G22
  21650116.453   113772139.539       -2387.335          44.000                  
                                                
  22980627.901   120763996.925       -2682.244          45.000                  
                                                
  22739058.560   119494580.049       -1331.552          31.000                  
                                                
  25348374.559   133206555.271       -1636.614          32.000                  
                                                
  21365680.041   112277397.798       -1426.121          44.000                  
                                                
  21785657.294   116415791.790       -2985.772          32.000                  
                                                
  21079868.979   112683943.481       -3365.957          43.000                  
                                                
  23329088.446   122595134.471       -2659.065          40.000                  
                                                
  25497465.145                       -3769.885          32.000                  
                                                
  21221123.816   111517656.929         890.497          35.000                  
                                                
  21006768.993                        1412.288          20.000                  
                                                
  23519160.772                        2279.255          24.000                  
                                                
  20859064.642                        -433.508          17.000                  
                                                
  24570182.067                       -5010.113          24.000                  
                                                
  24623452.772                        1888.107          24.000                  
                                                
  25350973.403   133220310.341        2884.240          29.000                  
                                                
  23199130.732                       -2514.693          26.000                  
                                                
 18  5  8 13 44 47.0030000  0 16G 4G14G 3G29G26R11R 1G31G32G16R 2R12
                                R 8R21G27G22
  21650571.057   113774526.904       -2388.098          44.000                  
                                                
  22981138.712   120766678.927       -2682.446          46.000                  
                                                
  22739313.246   119495911.321       -1332.118          32.000                  
                                                
  25348684.327   133208191.021       -1637.524          32.000                  
                                                
  21365951.331   112278823.878       -1426.712          44.000                  
                                                
  21786215.230   116418776.824       -2985.541          33.000                  
                                                
  21080498.496   112687309.721       -3366.768          44.000                  
                                                
  23329594.144   122597793.194       -2659.044          39.000                  
                                                
  25498179.749   133993838.1283      -3771.873          30.000                  
                                                
  21220954.715   111516766.366         890.035          36.000                  
                                                
  21006504.282                        1421.143          22.000                  
                                                
  20859146.292                        -433.508          16.000                  
                                                
  24571117.957                       -5010.382          24.000                  
                                                
  24623102.494                        1886.458          25.000                  
                                                
  25350421.155   133217426.020        2884.007          28.000                  
                                                
  23199605.230   121914668.484       -2515.746          26.000                  
                                                
 18  5  8 13 44 48.0030000  0 16G 4G14G 3G29G26R11R 1G31G32G16R 2R12
                                R 8R21G27G22
  21651025.164   113776915.252       -2388.617          43.000                  
                                                
  22981649.463   120769361.790       -2683.226          46.000                  
                                                
  22739564.869   119497243.686       -1332.733          31.000                  
                                                
  25348998.012   133209827.748       -1637.120          32.000                  
                                                
  21366223.092   112280250.981       -1427.381          44.000                  
                                                
  21786773.506   116421762.514       -2986.133          33.000                  
                                                
  21081128.414   112690677.060       -3367.572          43.000                  
                                                
  23330100.820   122600452.475       -2659.473          38.000                  
                                                
  25498896.150   133997609.8942      -3771.739          29.000                  
                                                
  21220785.744   111515876.912         889.027          36.000                  
                                                
  21006239.135                        1426.738          22.000                  
                                                
  20859229.198                        -433.085          16.000                  
                                                
  24572054.370                       -5011.753          24.000                  
                                                
  24622750.697                        1887.088          25.000                  
                                                
  25349873.035   133214542.091        2883.876          28.000                  
                                                
  23200073.559   121917208.7673      -2516.520          25.000                  
                                                
 18  5  8 13 44 49.0030000  0 16G 4G14G 3G29G26R11R 1G31G32G16R 2R12
                                R 8R21G27G22
  21651480.074   113779304.264       -2389.490          44.000                  
                                                
  22982160.292   120772045.145       -2683.532          45.000                  
                                                
  22739824.118   119498582.2753      -1333.568          31.000                  
                                                
  25349308.137   133211465.256       -1637.479          32.000                  
                                                
  21366494.827   112281678.762       -1427.998          45.000                  
                                                
  21787333.859   116424748.474       -2986.200          34.000                  
                                                
  21081758.262   112694045.205       -3368.494          44.000                  
                                                
  23330607.051   122603111.932       -2659.377          39.000                  
                                                
  25499605.449   134001382.0542      -3772.317          29.000                  
                                                
  21220616.660   111514988.191         888.596          37.000                  
                                                
  21005973.237                        1421.605          21.000                  
                                                
  20859310.699                        -433.085          14.000                  
                                                
  24572992.319                       -5011.375          23.000                  
                                                
  24622398.613                        1886.421          26.000                  
                                                
  25349324.209   133211658.209        2883.682          28.000                  
                                                
  23200551.503                       -2516.541          25.000                  
                                                
 18  5  8 13 44 50.0030000  0 16G 4G14G 3G29G26R11R 1G31G32G16R 2R12
                                R 8R21G27G22
  21651935.114   113781693.711       -2389.813          44.000                  
                                                
  22982670.196   120774728.775       -2684.125          45.000                  
                                                
  22740077.749   119499915.8672      -1334.229          31.000                  
                                                
  25349623.288   133213103.225       -1638.390          32.000                  
                                                
  21366766.745   112283106.986       -1428.658          45.000                  
                                                
  21787892.624   116427734.468       -2986.261          35.000                  
                                                
  21082388.485   112697413.908       -3369.321          44.000                  
                                                
  23331112.654   122605771.329       -2659.596          39.000                  
                                                
  25500336.569   134005154.2322      -3772.392          31.000                  
                                                
  21220447.437   111514100.026         887.987          36.000                  
                                                
  21005708.674                        1419.792          20.000                  
                                                
  20859394.198                        -434.970          16.000                  
                                                
  24573926.717                       -5010.871          25.000                  
                                                
  24622045.682                        1886.143          26.000                  
                                                
  25348774.666   133208774.146        2883.729          28.000                  
                                                
  23201036.427                       -2516.990          26.000                  
                                                
 18  5  8 13 44 51.0030000  0 17G 4G14G 3G29G26R11R 1G31G32G16R 2G23
                                R12R 8R21G27G22
  21652390.251   113784083.614       -2389.624          44.000                  
                                                
  22983180.484   120777412.667       -2683.798          45.000                  
                                                
  22740327.723   119501249.9532      -1333.718          31.000                  
                                                
  25349937.828   133214741.662       -1638.784          31.000                  
                                                
  21367039.116   112284535.692       -1428.682          45.000                  
                                                
  21788451.955   116430720.580       -2986.359          35.000                  
                                                
  21083018.805   112700783.205       -3369.181          44.000                  
                                                
  23331618.501   122608430.718       -2659.128          39.000                  
                                                
  25501052.848   134008926.5102      -3771.526          31.000                  
                                                
  21220278.318   111513212.399         888.098          36.000                  
                                                
  21005441.564                        1419.285          19.000                  
                                                
  23516951.932                        2269.432          28.000                  
                                                
  20859478.902                        -441.815          18.000                  
                                                
  24574862.416                       -5010.543          26.000                  
                                                
  24621697.254                        1886.255          27.000                  
                                                
  25348224.304   133205889.889        2884.533          28.000                  
                                                
  23201519.964   121924785.6482      -2516.830          27.000                  
                                                
 18  5  8 13 44 52.0030000  0 17G 4G14G 3G29G26R11R 1G31G32G16R 2G23
                                R12R 8R21G27G22
  21652845.379   113786473.379       -2389.941          44.000                  
                                                
  22983690.702   120780096.219       -2683.667          45.000                  
                                                
  22740588.272   119502583.9672      -1334.363          32.000                  
                                                
  25350248.686   133216379.951       -1638.588          31.000                  
                                                
  21367311.314   112285964.243       -1428.699          45.000                  
                                                
  21789010.485   116433706.134       -2986.011          35.000                  
                                                
  21083649.045   112704152.466       -3369.503          44.000                  
                                                
  23332124.609   122611089.477       -2658.688          40.000                  
                                                
  25501768.543   134012698.3582      -3772.693          31.000                  
                                                
  21220109.191   111512324.731         887.582          36.000                  
                                                
  21005174.078                        1423.746          19.000                  
                                                
  23516521.592                        2278.842          28.000                  
                                                
  20859560.621                        -429.210          18.000                  
                                                
  24575797.581                       -5009.794          26.000                  
                                                
  24621344.559   131753761.2543       1887.103          27.000                  
                                                
  25347673.008   133203004.825        2885.145          28.000                  
                                                
  23202002.166   121927302.2772      -2516.612          27.000                  
                                                
 18  5  8 13 44 53.0030000  0 17G 4G14G 3G29G26R11R 1G31G32G16R 2G23
                                R12R 8R21G27G22
  21653300.489   113788864.069       -2390.973          44.000                  
                                                
  22984201.531   120782780.542       -2684.585          45.000                  
                                                
  22740845.576   119503919.0352      -1335.858          32.000                  
                                                
  25350557.695   133218019.242       -1639.492          30.000                  
                                                
  21367583.877   112287393.771       -1429.903          45.000                  
                                                
  21789569.101   116436692.246       -2986.035          35.000                  
                                                
  21084279.260   112707522.807       -3370.636          43.000                  
                                                
  23332630.831   122613748.703       -2659.647          40.000                  
                                                
  25502481.899   134016470.7632      -3773.389          30.000                  
                                                
  21219940.403   111511438.104         886.310          36.000                  
                                                
  21004908.233                        1415.077          19.000                  
                                                
  23516092.230   123577876.4613       2277.969          28.000                  
                                                
  20859642.428                        -431.854          17.000                  
                                                
  24576732.538                       -5011.366          25.000                  
                                                
  24620989.359   131751875.4242       1885.870          27.000                  
                                                
  25347122.803   133200120.161        2884.494          27.000                  
                                                
  23202485.327   121929819.7672      -2517.786          26.000                  
                                                
 18  5  8 13 44 54.0030000  0 17G 4G14G 3G29G26R11R 1G31G32G16R 2G23
                                R12R 8R21G27G22
  21653755.739   113791255.620       -2392.023          43.000                  
                                                
  22984712.351   120785465.557       -2685.325          44.000                  
                                                
  22741099.974   119505254.9742      -1336.454          31.000                  
                                                
  25350863.693   133219659.431       -1640.371          29.000                  
                                                
  21367856.258   112288824.163       -1430.811          45.000                  
                                                
  21790127.857   116439678.838       -2986.938          35.000                  
                                                
  21084909.745   112710894.144       -3371.822          43.000                  
                                                
  23333137.001   122616408.288       -2659.981          39.000                  
                                                
  25503204.626   134020243.5872      -3772.618          31.000                  
                                                
  21219771.590   111510552.437         885.327          36.000                  
                                                
  21004642.047                        1417.257          19.000                  
                                                
  23515653.330   123575599.0592       2277.316          28.000                  
                                                
  20859724.679                        -429.656          16.000                  
                                                
  24577668.655                       -5010.901          25.000                  
                                                
  24620636.717   131749990.3212       1885.156          28.000                  
                                                
  25346571.384   133197235.711        2884.025          27.000                  
                                                
  23202967.215                       -2517.579          26.000                  
                                                
 18  5  8 13 44 55.0030000  0 17G 4G14G 3G29G26R11R 1G31G32G16R 2G23
                                R12R 8R21G27G22
  21654210.431   113793647.432       -2391.968          43.000                  
                                                
  22985223.346   120788150.661       -2685.385          45.000                  
                                                
  22741348.273   119506591.2242      -1335.862          31.000                  
                                                
  25351182.395   133221299.956       -1640.581          28.000                  
                                                
  21368128.822   112290254.829       -1430.832          45.000                  
                                                
  21790686.342   116442665.254       -2986.322          35.000                  
                                                
  21085540.099   112714265.841       -3371.744          43.000                  
                                                
  23333643.241   122619067.656       -2659.314          39.000                  
                                                
  25503919.701   134024016.341       -3771.341          30.000                  
                                                
  21219603.073   111509667.124         884.756          36.000                  
                                                
  21004378.680                        1420.304          21.000                  
                                                
  23515214.998   123573321.5282       2277.146          27.000                  
                                                
  20859807.254                        -452.859          17.000                  
                                                
  24578605.540                       -5008.741          25.000                  
                                                
  24620286.412   131748105.3882       1885.327          28.000                  
                                                
  25346021.755   133194350.828        2885.397          26.000                  
                                                
  23203451.049                       -2517.800          26.000                  
                                                
 18  5  8 13 44 56.0030000  0 17G 4G14G 3G29G26R11R 1G31G32G16R 2G23
                                R12R 8R21G27G22
  21654665.733   113796039.838       -2392.987          43.000                  
                                                
  22985734.358   120790836.174       -2685.812          44.000                  
                                                
  22741598.753   119507928.1652      -1337.465          30.000                  
                                                
  25351487.390   133222941.077       -1641.637          28.000                  
                                                
  21368401.385   112291686.099       -1431.721          45.000                  
                                                
  21791244.985   116445651.939       -2987.256          36.000                  
                                                
  21086171.047   112717638.267       -3372.965          43.000                  
                                                
  23334149.471   122621727.142       -2659.561          39.000                  
                                                
  25504632.272   134027789.412       -3772.764          30.000                  
                                                
  21219434.626   111508782.470         884.324          36.000                  
                                                
  21004115.356                        1421.489          22.000                  
                                                
  23514782.835   123571044.1102       2276.746          27.000                  
                                                
  20859890.107                        -438.787          16.000                  
                                                
  24579542.965                       -5011.270          24.000                  
                                                
  24619933.621   131746220.8962       1884.369          29.000                  
                                                
  25345468.627   133191466.022        2884.074          26.000                  
                                                
  23203934.769   121937477.0973      -2518.841          27.000                  
                                                
 18  5  8 13 44 57.0030000  0 17G 4G14G 3G29G26R11R 1G31G32G16R 2G23
                                R12R 8R21G27G22
  21655120.948   113798433.099       -2393.652          43.000                  
                                                
  22986246.426   120793522.310       -2686.246          44.000                  
                                                
  22741844.208   119509266.1032      -1338.909          28.000                  
                                                
  25351797.882   133224583.092       -1642.672          28.000                  
                                                
  21368673.600   112293118.237       -1432.465          45.000                  
                                                
  21791804.055   116448639.112       -2987.482          35.000                  
                                                
  21086802.073   112721011.664       -3373.931          42.000                  
                                                
  23334655.868   122624387.000       -2660.094          39.000                  
                                                
  25505352.469   134031562.982       -3772.877          29.000                  
                                                
  21219266.380   111507898.810         882.787          36.000                  
                                                
  21003852.312                        1411.992          21.000                  
                                                
  23514344.922   123568767.1772       2277.102          26.000                  
                                                
  20859971.600                        -438.787          15.000                  
                                                
  24580477.608                       -5009.948          23.000                  
                                                
  24619577.358   131744337.0982       1883.649          30.000                  
                                                
  25344918.849                        2886.471          25.000                  
                                                
  23204414.781   121939996.6182      -2520.198          29.000                  
                                                
 18  5  8 13 44 58.0030000  0 17G 4G14G 3G29G26R11R 1G31G32G16R 2G23
                                R12R 8R21G27G22
  21655576.390   113800826.419       -2393.433          43.000                  
                                                
  22986757.691   120796208.461       -2686.120          45.000                  
                                                
  22742093.406   119510603.9932      -1337.463          28.000                  
                                                
  25352106.079   133226225.231       -1642.358          29.000                  
                                                
  21368946.338   112294550.472       -1432.374          45.000                  
                                                
  21792363.090   116451625.976       -2987.201          36.000                  
                                                
  21087432.680   112724385.273       -3373.937          42.000                  
                                                
  23335162.439   122627046.472       -2659.312          38.000                  
                                                
  25506066.968                       -3773.140          27.000                  
                                                
  21219097.776   111507015.295         883.442          36.000                  
                                                
  21003584.302                        1413.137          20.000                  
                                                
  23513912.261   123566489.9842       2277.388          26.000                  
                                                
  20860052.735                        -438.787          13.000                  
                                                
  24581413.149                       -5011.238          23.000                  
                                                
  24619224.226   131742453.3982       1883.209          30.000                  
                                                
  25344367.404                        2885.176          25.000                  
                                                
  23204899.347   121942516.0672      -2519.924          31.000                  
                                                
 18  5  8 13 44 59.0030000  0 17G 4G14G 3G29G26R11R 1G31G32G16R 2G23
                                R12R 8R21G27G22
  21656031.649   113803220.110       -2393.927          43.000                  
                                                
  22987268.808   120798894.775       -2686.571          44.000                  
                                                
  22742337.822   119511942.5052      -1338.907          27.000                  
                                                
  25352412.321   133227867.713       -1642.561          30.000                  
                                                
  21369218.884   112295983.089       -1432.788          45.000                  
                                                
  21792922.125   116454612.797       -2986.932          36.000                  
                                                
  21088063.532   112727759.369       -3374.495          41.000                  
                                                
  23335669.010   122629705.813       -2659.391          38.000                  
                                                
  25506785.585   134039062.4603      -3772.971          28.000                  
                                                
  21218929.399   111506132.260         882.607          36.000                  
                                                
  21003317.201                        1411.104          20.000                  
                                                
  23513477.053   123564212.7492       2277.405          25.000                  
                                                
  20860135.623                        -438.787          13.000                  
                                                
  24582349.301                       -5010.553          24.000                  
                                                
  24618867.806   131740569.922        1882.953          30.000                  
                                                
  25343817.714                        2885.712          25.000                  
                                                
  23205381.627   121945035.7062      -2519.624          30.000                  
                                                
 18  5  8 13 45  0.0030000  0 17G 4G14G 3G29G26R11R 1G31G32G16R 2G23
                                R12R 8R21G27G22
  21656487.231   113805614.549       -2394.958          44.000                  
                                                
  22987780.256   120801581.635       -2687.485          45.000                  
                                                
  22742592.630   119513281.7492      -1340.013          26.000                  
                                                
  25352726.242   133229511.012       -1644.248          31.000                  
                                                
  21369491.500   112297416.471       -1434.036          45.000                  
                                                
  21793480.916   116457599.936       -2987.573          36.000                  
                                                
  21088694.374   112731134.315       -3375.228          41.000                  
                                                
  23336175.642   122632365.426       -2660.040          38.000                  
                                                
  25507493.706   134042836.1162      -3773.840          28.000                  
                                                
  21218761.144   111505250.048         881.897          37.000                  
                                                
  21003050.640                        1409.354          20.000                  
                                                
  23513044.034   123561935.8672       2277.045          26.000                  
                                                
  20860216.610                        -438.787          11.000                  
                                                
  24583284.248                       -5009.831          24.000                  
                                                
  24618514.299   131738687.042        1881.824          30.000                  
                                                
  25343266.270                        2886.323          24.000                  
                                                
  23205857.704   121947555.9852      -2520.438          31.000                  
                                                
 18  5  8 13 45  1.0030000  0 16G 4G14G 3G29G26R11R 1G31G32G16R 2G23
                                R 8R21G27G22
  21656942.873   113808009.259       -2394.617          44.000                  
                                                
  22988291.635   120804268.594       -2686.716          45.000                  
                                                
  22742848.843   119514620.808       -1339.686          26.000                  
                                                
  25353034.648   133231154.617       -1643.772          31.000                  
                                                
  21369764.683   112298850.133       -1433.371          45.000                  
                                                
  21794040.100   116460586.991       -2986.792          36.000                  
                                                
  21089325.566   112734509.682       -3375.256          41.000                  
                                                
  23336682.091   122635024.829       -2659.103          39.000                  
                                                
  25508210.361   134046609.7222      -3773.202          28.000                  
                                                
  21218593.456   111504368.228         882.023          37.000                  
                                                
  21002783.564                        1410.674          22.000                  
                                                
  23512605.275                        2277.838          25.000                  
                                                
  24584220.487                       -5012.783          24.000                  
                                                
  24618162.267   131736804.224        1883.038          29.000                  
                                                
  25342714.878                        2885.983          24.000                  
                                                
  23206335.395   121950076.4262      -2519.907          32.000                  
                                                
 18  5  8 13 45  2.0030000  0 16G 4G14G 3G29G26R11R 1G31G32G16R 2G23
                                R 8R21G27G22
  21657398.734   113810404.348       -2395.184          44.000                  
                                                
  22988803.145   120806955.801       -2687.225          45.000                  
                                                
  22743101.749   119515960.827       -1339.930          26.000                  
                                                
  25353346.091   133232798.663       -1643.954          31.000                  
                                                
  21370037.648   112300284.224       -1434.105          45.000                  
                                                
  21794599.152   116463574.102       -2986.597          36.000                  
                                                
  21089956.933   112737885.590       -3375.876          42.000                  
                                                
  23337188.645   122637684.161       -2659.269          39.000                  
                                                
  25508935.077   134050383.3572      -3773.669          28.000                  
                                                
  21218425.759   111503486.900         881.264          38.000                  
                                                
  21002520.633                        1408.076          22.000                  
                                                
  23512172.248                        2276.772          26.000                  
                                                
  24585156.412                       -5011.112          24.000                  
                                                
  24617811.954   131734921.804        1882.465          29.000                  
                                                
  25342161.680                        2886.764          24.000                  
                                                
  23206821.340   121952597.1362      -2520.752          33.000                  
                                                
 18  5  8 13 45  3.0030000  0 17G 4G14G 3G29G26R11R 1G31G32G16R 2G23
                                R12R 8R21G27G22
  21657854.647   113812799.837       -2395.691          44.000                  
                                                
  22989314.611   120809643.238       -2687.407          45.000                  
                                                
  22743356.758                       -1339.361          26.000                  
                                                
  25353659.061   133234443.089       -1644.846          31.000                  
                                                
  21370310.814   112301718.728       -1434.557          45.000                  
                                                
  21795158.205   116466561.225       -2986.969          36.000                  
                                                
  21090588.360   112741262.039       -3376.578          41.000                  
                                                
  23337695.085   122640343.435       -2659.540          39.000                  
                                                
  25509655.090   134054156.9982      -3773.763          28.000                  
                                                
  21218258.176   111502606.054         880.817          37.000                  
                                                
  21002256.472                        1410.415          23.000                  
                                                
  23511739.945                        2276.662          25.000                  
                                                
  20860460.599                        -438.787          10.000                  
                                                
  24586091.107                       -5010.490          24.000                  
                                                
  24617456.956   131733039.687        1882.184          28.000                  
                                                
  25341611.300                        2886.568          24.000                  
                                                
  23207303.053   121955118.1042      -2521.247          33.000                  
                                                
 18  5  8 13 45  4.0030000  0 17G 4G14G 3G29G26R11R 1G31G32G16R 2G23
                                R12R 8R21G27G22
  21658310.726   113815195.905       -2395.850          44.000                  
                                                
  22989826.722   120812331.060       -2687.526          44.000                  
                                                
  22743614.088                       -1342.845          25.000                  
                                                
  25353965.792   133236088.190       -1645.048          31.000                  
                                                
  21370583.989   112303153.820       -1434.990          44.000                  
                                                
  21795717.136   116469548.523       -2987.262          35.000                  
                                                
  21091219.979   112744639.178       -3377.229          42.000                  
                                                
  23338201.630   122643002.766       -2659.636          37.000                  
                                                
  25510376.011   134057930.8662      -3773.616          29.000                  
                                                
  21218090.759   111501725.925         880.178          37.000                  
                                                
  21001990.295                        1408.821          24.000                  
                                                
  23511306.769                        2276.216          26.000                  
                                                
  20860543.888                        -440.096          11.000                  
                                                
  24587026.578                       -5011.094          23.000                  
                                                
  24617107.995   131731158.061        1881.647          28.000                  
                                                
  25341061.661                        2886.840          25.000                  
                                                
  23207780.901   121957639.5072      -2521.031          32.000                  
                                                
 18  5  8 13 45  5.0030000  0 17G 4G14G 3G29G26R11R 1G31G32G16R 2G23
                                R12R 8R21G27G22
  21658766.491   113817592.307       -2396.997          43.000                  
                                                
  22990338.223   120815019.055       -2688.413          44.000                  
                                                
  22743869.524                       -1341.932          24.000                  
                                                
  25354280.393   133237733.598       -1646.250          32.000                  
                                                
  21370856.613   112304589.251       -1436.124          44.000                  
                                                
  21796275.839   116472535.760       -2988.049          35.000                  
                                                
  21091851.616   112748016.770       -3378.562          42.000                  
                                                
  23338707.774   122645661.910       -2659.222          37.000                  
                                                
  25511098.415   134061704.7022      -3774.736          29.000                  
                                                
  21217923.603   111500846.199         879.039          37.000                  
                                                
  21001729.370                        1406.218          26.000                  
                                                
  23510871.718                        2274.412          25.000                  
                                                
  20860627.388                        -440.096          11.000                  
                                                
  24587964.118                       -5017.285          23.000                  
                                                
  24616753.284   131729276.547        1881.036          28.000                  
                                                
  25340514.440                        2887.536          25.000                  
                                                
  23208262.414   121960161.1182      -2522.100          33.000                  
                                                
 18  5  8 13 45  6.0030000  0 16G 4G14G29G26R11R 1G31G32G16R 2G23R12
                                R 8R21G27G22
  21659222.622   113819989.744       -2397.577          43.000                  
                                                
  22990849.340   120817707.877       -2688.526          44.000                  
                                                
  25354589.978   133239380.043       -1645.634          31.000                  
                                                
  21371129.893   112306025.738       -1436.552          45.000                  
                                                
  21796834.604   116475523.685       -2987.592          35.000                  
                                                
  21092483.436   112751395.519       -3379.027          42.000                  
                                                
  23339214.048   122648321.673       -2659.324          39.000                  
                                                
  25511818.437   134065479.3162      -3774.937          29.000                  
                                                
  21217756.360   111499967.610         878.464          37.000                  
                                                
  21001465.541                        1407.692          26.000                  
                                                
  23510436.091                        2275.607          25.000                  
                                                
  20860707.667                        -440.096          13.000                  
                                                
  24588898.961                       -5012.893          23.000                  
                                                
  24616401.601   131727396.072        1880.042          29.000                  
                                                
  25339966.416                        2887.686          25.000                  
                                                
  23208744.319   121962683.6872      -2523.082          33.000                  
                                                
 18  5  8 13 45  7.0030000  0 16G 4G14G29G26R11R 1G31G32G16R 2G23R12
                                R 8R21G27G22
  21659678.579   113822387.680       -2398.077          44.000                  
                                                
  22991361.207   120820397.154       -2689.366          44.000                  
                                                
  25354909.256   133241027.145       -1647.789          32.000                  
                                                
  21371403.268   112307462.777       -1437.073          45.000                  
                                                
  21797393.971   116478511.766       -2987.891          33.000                  
                                                
  21093115.457   112754774.928       -3379.460          41.000                  
                                                
  23339720.698   122650981.442       -2659.856          39.000                  
                                                
  25512538.189   134069254.028       -3774.931          30.000                  
                                                
  21217589.475   111499089.649         877.687          38.000                  
                                                
  21001201.292                        1406.826          24.000                  
                                                
  23510005.437                        2276.896          25.000                  
                                                
  20860790.259                        -440.096          14.000                  
                                                
  24589834.973                       -5012.282          24.000                  
                                                
  24616050.328   131725515.921        1880.579          28.000                  
                                                
  25339416.795                        2885.329          25.000                  
                                                
  23209224.078   121965206.076       -2523.408          34.000                  
                                                
 18  5  8 13 45  8.0030000  0 17G 4G14G29G26R11R 1G31G32G16R 2G23R12
                                R 8R20R21G27G22
  21660135.295   113824785.968       -2398.468          45.000                  
                                                
  22991872.629   120823086.510       -2689.646          44.000                  
                                                
  25355224.546   133242674.512       -1647.646          32.000                  
                                                
  21371677.027   112308900.156       -1437.760          45.000                  
                                                
  21797953.189   116481499.764       -2987.762          34.000                  
                                                
  21093747.861   112758154.798       -3380.114          42.000                  
                                                
  23340227.513   122653641.108       -2659.985          38.000                  
                                                
  25513258.176   134073028.741       -3774.968          30.000                  
                                                
  21217422.520   111498212.121         877.112          39.000                  
                                                
  21000934.478                        1409.767          22.000                  
                                                
  23509574.565                        2278.175          25.000                  
                                                
  20860872.214                        -440.202          14.000                  
                                                
  24590768.167                       -5014.049          23.000                  
                                                
  25204649.851                        -668.604          25.000                  
                                                
  24615698.314   131723636.088        1879.523          28.000                  
                                                
  25338872.069                        2886.833          25.000                  
                                                
  23209704.282   121967729.131       -2523.402          34.000                  
                                                
 18  5  8 13 45  9.0030000  0 17G 4G14G29G26R11R 1G31G32G16R 2G23R12
                                R 8R20R21G27G22
  21660592.010   113827184.529       -2398.853          44.000                  
                                                
  22992384.339   120825775.989       -2689.830          44.000                  
                                                
  25355541.425   133244322.285       -1648.837          33.000                  
                                                
  21371950.698   112310337.825       -1437.870          45.000                  
                                                
  21798512.189   116484487.651       -2987.488          34.000                  
                                                
  21094380.083   112761535.073       -3380.529          42.000                  
                                                
  23340733.569   122656300.565       -2659.470          38.000                  
                                                
  25513979.691   134076803.340       -3774.905          31.000                  
                                                
  21217255.740   111497334.952         877.272          38.000                  
                                                
  21000669.636                        1405.845          20.000                  
                                                
  23509142.035                        2268.276          25.000                  
                                                
  20860952.747                        -440.495          16.000                  
                                                
  24591704.048                       -5012.368          24.000                  
                                                
  25204774.568                        -667.845          25.000                  
                                                
  24615346.640   131721756.310        1879.871          28.000                  
                                                
  25338328.643                        2889.631          25.000                  
                                                
  23210184.608   121970252.409       -2523.235          34.000                  
                                                
 18  5  8 13 45 10.0030000  0 17G 4G14G29G26R11R 1G31G32G16R 2G23R12
                                R 8R20R21G27G22
  21661048.081   113829583.516       -2398.828          44.000                  
                                                
  22992896.268   120828465.706       -2689.399          44.000                  
                                                
  25355856.829   133245970.495       -1648.027          33.000                  
                                                
  21372224.274   112311775.946       -1437.908          45.000                  
                                                
  21799071.207   116487475.581       -2987.561          33.000                  
                                                
  21095012.470   112764915.887       -3380.753          42.000                  
                                                
  23341239.268   122658959.949       -2659.120          39.000                  
                                                
  25514698.378   134080577.929       -3773.435          31.000                  
                                                
  21217088.811   111496458.343         876.811          38.000                  
                                                
  21000404.314                        1405.845          17.000                  
                                                
  23508708.510                        2275.710          24.000                  
                                                
  20861031.299                        -429.311          18.000                  
                                                
  24592638.891                       -5011.101          23.000                  
                                                
  25204901.143                        -669.895          25.000                  
                                                
  24614996.920   131719876.904        1880.109          28.000                  
                                                
  25337783.176                        2887.481          25.000                  
                                                
  23210664.559   121972775.939       -2522.968          34.000                  
                                                
 18  5  8 13 45 11.0030000  0 17G 4G14G29G26R11R 1G31G32G16R 2G23R12
                                R 8R20R21G27G22
  21661504.517   113831982.342       -2399.078          44.000                  
                                                
  22993407.899   120831155.172       -2689.467          44.000                  
                                                
  25356168.010   133247618.578       -1648.380          33.000                  
                                                
  21372498.103   112313213.950       -1438.368          45.000                  
                                                
  21799630.225   116490462.995       -2987.299          33.000                  
                                                
  21095644.613   112768296.668       -3381.170          42.000                  
                                                
  23341745.848   122661618.728       -2658.873          38.000                  
                                                
  25515413.619   134084352.164       -3774.095          31.000                  
                                                
  21216921.961   111495581.676         876.304          38.000                  
                                                
  21000139.420                        1404.191          18.000                  
                                                
  23508273.537                        2277.027          25.000                  
                                                
  20861110.706                        -434.504          20.000                  
                                                
  24593573.333                       -5012.763          23.000                  
                                                
  25205030.571                        -670.306          26.000                  
                                                
  24614644.338   131717997.345        1879.523          28.000                  
                                                
  25337235.771                        2885.910          26.000                  
                                                
  23211144.754   121975299.244       -2523.748          33.000                  
                                                
 18  5  8 13 45 12.0030000  0 17G 4G14G29G26R11R 1G31G32G16R 2G23R12
                                R 8R20R21G27G22
  21661961.713   113834381.936       -2399.554          44.000                  
                                                
  22993919.740   120833845.144       -2689.981          44.000                  
                                                
  25356482.750   133249267.399       -1649.619          34.000                  
                                                
  21372772.028   112314652.695       -1438.904          45.000                  
                                                
  21800189.173   116493450.770       -2987.048          33.000                  
                                                
  21096277.061   112771678.326       -3382.136          42.000                  
                                                
  23342252.332   122664277.812       -2658.992          37.000                  
                                                
  25516139.949   134088126.800       -3775.240          32.000                  
                                                
  21216754.735   111494705.883         875.261          37.000                  
                                                
  20999873.016                        1405.304          16.000                  
                                                
  23507836.244                        2286.385          23.000                  
                                                
  20861192.426                        -434.008          21.000                  
                                                
  24594508.010                       -5013.054          23.000                  
                                                
  25205157.260                        -670.262          26.000                  
                                                
  24614292.725   131716118.389        1878.448          26.000                  
                                                
  25336695.608   133145233.9483       2887.838          27.000                  
                                                
  23211624.905   121977823.167       -2524.323          32.000                  
                                                
 18  5  8 13 45 13.0030000  0 17G 4G14G29G26R11R 1G31G32G16R 2G23R12
                                R 8R20R21G27G22
  21662418.594   113836781.830       -2400.018          44.000                  
                                                
  22994431.198   120836535.283       -2690.106          44.000                  
                                                
  25356798.181   133250916.607       -1649.452          33.000                  
                                                
  21373045.883   112316091.776       -1439.148          45.000                  
                                                
  21800748.365   116496438.505       -2988.305          32.000                  
                                                
  21096909.701   112775060.410       -3382.279          42.000                  
                                                
  23342758.772   122666936.671       -2658.614          37.000                  
                                                
  25516859.718   134091901.329       -3774.820          33.000                  
                                                
  21216587.955   111493830.454         875.406          37.000                  
                                                
  20999610.076                        1409.480          16.000                  
                                                
  23507394.771                        2277.841          21.000                  
                                                
  20861271.868                        -443.316          21.000                  
                                                
  24595443.455                       -5012.673          23.000                  
                                                
  25205284.629                        -670.753          26.000                  
                                                
  24613944.200   131714239.638        1877.386          25.000                  
                                                
  25336152.924   133142346.0672       2888.038          29.000                  
                                                
  23212105.109   121980347.217       -2524.153          32.000                  
                                                
 18  5  8 13 45 14.0030000  0 17G 4G14G29G26R11R 1G31G32G16R 2G23R12
                                R 8R20R21G27G22
  21662874.761   113839181.807       -2399.762          43.000                  
                                                
  22994942.358   120839225.322       -2689.609          43.000                  
                                                
  25357110.400   133252565.911       -1649.065          33.000                  
                                                
  21373319.363   112317530.953       -1439.100          45.000                  
                                                
  21801306.999   116499425.859       -2987.286          32.000                  
                                                
  21097542.830   112778442.689       -3382.279          42.000                  
                                                
  23343265.291   122669595.132       -2658.236          38.000                  
                                                
  25517577.576   134095675.575       -3773.598          34.000                  
                                                
  21216420.485   111492955.224         875.103          36.000                  
                                                
  20999347.006                        1397.688          16.000                  
                                                
  23506954.161                        2286.639          21.000                  
                                                
  20861352.532                        -434.654          21.000                  
                                                
  24596376.868                       -5011.337          24.000                  
                                                
  25205409.992                        -672.053          26.000                  
                                                
  24613593.861                        1878.882          25.000                  
                                                
  25335610.999   133139457.6112       2889.015          29.000                  
                                                
  23212585.269   121982871.253       -2524.107          32.000                  
                                                
 18  5  8 13 45 15.0030000  0 17G 4G14G29G26R11R 1G31G32G16R 2G23R12
                                R 8R20R21G27G22
  21663330.901   113841582.235       -2400.842          43.000                  
                                                
  22995453.920   120841915.627       -2690.732          42.000                  
                                                
  25357423.928   133254215.751       -1650.604          33.000                  
                                                
  21373593.139   112318970.576       -1440.174          45.000                  
                                                
  21801865.842   116502413.292       -2987.482          32.000                  
                                                
  21098176.055   112781825.550       -3383.313          43.000                  
                                                
  23343770.754   122672253.565       -2658.512          38.000                  
                                                
  25518296.936   134099449.880       -3774.226          34.000                  
                                                
  21216254.167   111492080.536         874.119          37.000                  
                                                
  20999084.232                        1401.032          17.000                  
                                                
  23506518.831                        2284.693          21.000                  
                                                
  20861434.137                        -444.222          21.000                  
                                                
  24597309.817                       -5013.329          24.000                  
                                                
  25205534.682                        -672.345          26.000                  
                                                
  24613243.147   131710482.129        1878.217          26.000                  
                                                
  25335059.310   133136568.9042       2888.357          28.000                  
                                                
  23213065.072   121985395.571       -2524.274          33.000                  
                                                
 18  5  8 13 45 16.0030000  0 16G 4G14G29G26R11R 1G31G32G16R 2R12R 8
                                R20R21G27G22
  21663787.625   113843983.410       -2401.666          43.000                  
                                                
  22995965.560   120844606.564       -2691.204          42.000                  
                                                
  25357737.657   133255866.436       -1651.296          31.000                  
                                                
  21373866.863   112320411.002       -1440.725          45.000                  
                                                
  21802418.194   116505401.200       -2988.922          32.000                  
                                                
  21098809.367   112785209.328       -3384.240          43.000                  
                                                
  23344276.269   122674912.335       -2658.873          39.000                  
                                                
  25519013.075   134103224.686       -3774.841          35.000                  
                                                
  21216087.701   111491206.738         873.160          37.000                  
                                                
  20998822.531                        1400.870          18.000                  
                                                
  20861515.202                        -440.333          21.000                  
                                                
  24598245.210                       -5010.209          24.000                  
                                                
  25205661.632                        -672.847          25.000                  
                                                
  24612891.987   131708604.330        1877.429          27.000                  
                                                
  25334504.062   133133680.3752       2888.667          29.000                  
                                                
  23213545.816   121987920.583       -2525.562          33.000                  
                                                
 18  5  8 13 45 17.0030000  0 16G 4G14G29G26R11R 1G31G32G16R 2R12R 8
                                R20R21G27G22
  21664244.123   113846384.789       -2401.221          43.000                  
                                                
  22996477.506   120847297.505       -2690.877          43.000                  
                                                
  25358051.699   133257517.200       -1650.581          32.000                  
                                                
  21374141.111   112321851.633       -1440.503          45.000                  
                                                
  21802967.640   116508388.832       -2987.854          32.000                  
                                                
  21099442.915   112788593.424       -3383.990          44.000                  
                                                
  23344781.941   122677570.772       -2658.033          39.000                  
                                                
  25519730.942   134106999.268       -3774.039          35.000                  
                                                
  21215921.391   111490333.198         873.578          37.000                  
                                                
  20998557.375                        1404.970          20.000                  
                                                
  20861597.105                        -440.983          22.000                  
                                                
  24599178.299                       -5010.867          24.000                  
                                                
  25205787.283                        -671.948          25.000                  
                                                
  24612540.549   131706726.565        1878.082          27.000                  
                                                
  25333957.023   133130791.4802       2889.466          28.000                  
                                                
  23214026.369   121990445.644       -2524.436          32.000                  
                                                
 18  5  8 13 45 18.0030000  0 17G 4G14G 3G29G26R11R 1G31G32G16R 2R12
                                R 8R20R21G27G22
  21664700.498   113848785.966       -2401.764          43.000                  
                                                
  22996988.972   120849988.092       -2691.311          43.000                  
                                                
  22747289.357                       -1345.903          22.000                  
                                                
  25358365.524   133259167.867       -1650.615          33.000                  
                                                
  21374414.931   112323292.098       -1441.054          45.000                  
                                                
  21803528.350   116511375.937       -2988.586          32.000                  
                                                
  21100076.279   112791977.429       -3384.680          44.000                  
                                                
  23345287.378   122680228.551       -2658.093          40.000                  
                                                
  25520449.315   134110773.386       -3775.046          34.000                  
                                                
  21215755.518   111489459.615         873.014          37.000                  
                                                
  20998293.405                        1402.122          20.000                  
                                                
  20861678.964                        -429.960          22.000                  
                                                
  24600112.619                       -5010.662          25.000                  
                                                
  25205911.109                        -673.076          25.000                  
                                                
  24612189.503   131704848.510        1877.472          28.000                  
                                                
  25333409.174   133127901.7752       2889.233          28.000                  
                                                
  23214506.861   121992970.333       -2525.063          32.000                  
                                                
 18  5  8 13 45 19.0030000  0 18G 4G14G 3G29G26R11R 1G31G32G16R 2G23
                                R12R 8R20R21G27G22
  21665157.319   113851188.064       -2402.795          43.000                  
                                                
  22997500.743   120852679.387       -2691.659          43.000                  
                                                
  22747546.006                       -1345.903          23.000                  
                                                
  25358679.864   133260819.531       -1652.037          33.000                  
                                                
  21374688.603   112324733.480       -1441.785          44.000                  
                                                
  21804086.225   116514363.497       -2987.701          32.000                  
                                                
  21100710.106   112795362.469       -3385.576          44.000                  
                                                
  23345793.007   122682886.763       -2658.419          40.000                  
                                                
  25521168.072   134114547.963       -3774.865          34.000                  
                                                
  21215589.453   111488587.013         872.043          37.000                  
                                                
  20998029.724                        1399.632          20.000                  
                                                
  23504748.532                        2281.957          25.000                  
                                                
  20861762.219                        -440.838          23.000                  
                                                
  24601048.806                       -5009.733          25.000                  
                                                
  25206037.152                        -675.964          24.000                  
                                                
  24611837.375   131702971.194        1877.185          28.000                  
                                                
  25332858.934   133125011.735        2889.714          28.000                  
                                                
  23214987.597   121995495.885       -2526.032          31.000                  
                                                
 18  5  8 13 45 20.0030000  0 18G 4G14G 3G29G26R11R 1G31G32G16R 2G23
                                R12R 8R20R21G27G22
  21665614.488   113853590.771       -2402.753          43.000                  
                                                
  22998012.741   120855371.146       -2691.619          42.000                  
                                                
  22747784.602                       -1349.362          25.000                  
                                                
  25358994.465   133262471.801       -1651.790          33.000                  
                                                
  21374962.711   112326175.504       -1442.097          44.000                  
                                                
  21804648.532   116517351.330       -2987.823          33.000                  
                                                
  21101343.837   112798748.276       -3385.817          44.000                  
                                                
  23346298.191   122685545.140       -2658.404          40.000                  
                                                
  25521886.445   134118322.887       -3775.435          33.000                  
                                                
  21215423.144   111487715.126         871.922          37.000                  
                                                
  20997766.941                        1404.693          20.000                  
                                                
  23504329.492                        2281.957          25.000                  
                                                
  20861847.577                        -441.838          25.000                  
                                                
  24601983.396                       -5011.323          26.000                  
                                                
  25206161.415                        -675.008          24.000                  
                                                
  24611488.213   131701094.464        1876.770          28.000                  
                                                
  25332307.664   133122122.332        2890.306          28.000                  
                                                
  23215468.569   121998021.862       -2526.627          31.000                  
                                                
 18  5  8 13 45 21.0030000  0 17G 4G14G 3G29G26R11R 1G31G32G16R 2R12
                                R 8R20R21G27G22
  21666071.885   113855993.468       -2403.711          43.000                  
                                                
  22998524.617   120858062.755       -2692.586          42.000                  
                                                
  22748026.558                       -1349.664          26.000                  
                                                
  25359308.796   133264124.093       -1652.806          33.000                  
                                                
  21375236.731   112327617.531       -1442.785          44.000                  
                                                
  21805209.705   116520338.745       -2987.817          33.000                  
                                                
  21101977.567   112802134.193       -3386.659          45.000                  
                                                
  23346803.060   122688202.993       -2658.254          40.000                  
                                                
  25522604.696   134122097.372       -3775.006          33.000                  
                                                
  21215257.219   111486843.354         871.066          37.000                  
                                                
  20997506.069                        1395.917          20.000                  
                                                
  20861934.112                        -441.510          27.000                  
                                                
  24602918.056                       -5012.357          26.000                  
                                                
  25206286.202                        -676.562          24.000                  
                                                
  24611138.363   131699217.556        1876.575          28.000                  
                                                
  25331758.802   133119232.304        2889.754          28.000                  
                                                
  23215949.104   122000547.693       -2526.269          30.000                  
                                                
 18  5  8 13 45 22.0030000  0 18G 4G14G 3G29G26R11R 1G31G32G16R 2G23
                                R12R 8R20R21G27G22
  21666529.386   113858396.802       -2403.448          43.000                  
                                                
  22999036.938   120860754.791       -2692.256          42.000                  
                                                
  22748288.224                       -1350.067          26.000                  
                                                
  25359623.571   133265777.099       -1653.074          33.000                  
                                                
  21375511.031   112329060.220       -1442.728          44.000                  
                                                
  21805769.482   116523326.500       -2988.251          32.000                  
                                                
  21102611.307   112805520.887       -3386.788          45.000                  
                                                
  23347308.166   122690861.072       -2658.088          41.000                  
                                                
  25523323.183   134125872.194       -3774.650          33.000                  
                                                
  21215091.293   111485972.332         870.921          37.000                  
                                                
  20997242.806                        1402.025          19.000                  
                                                
  23503465.208                        2276.083          25.000                  
                                                
  20862019.784   111441085.0603       -442.171          27.000                  
                                                
  24603851.354                       -5011.057          26.000                  
                                                
  25206412.096                        -676.451          24.000                  
                                                
  24610788.608   131697341.262        1876.349          28.000                  
                                                
  25331211.869   133116342.221        2890.651          28.000                  
                                                
  23216440.336   122003074.098       -2526.521          30.000                  
                                                
 18  5  8 13 45 23.0030000  0 18G 4G14G 3G29G26R11R 1G31G32G16R 2G23
                                R12R 8R20R21G27G22
  21666986.730   113860800.818       -2404.108          43.000                  
                                                
  22999549.172   120863447.351       -2692.569          42.000                  
                                                
  22748547.980                       -1351.112          27.000                  
                                                
  25359938.382   133267430.795       -1653.109          33.000                  
                                                
  21375785.052   112330503.608       -1443.673          44.000                  
                                                
  21806330.131   116526314.493       -2987.811          32.000                  
                                                
  21103245.300   112808908.388       -3387.638          45.000                  
                                                
  23347813.768   122693519.312       -2658.225          40.000                  
                                                
  25524041.896   134129647.287       -3774.727          34.000                  
                                                
  21214925.944   111485102.068         870.208          37.000                  
                                                
  20996980.695                        1396.492          20.000                  
                                                
  23503044.807                        2276.667          26.000                  
                                                
  20862104.618   111441527.6882       -442.353          27.000                  
                                                
  24604787.724                       -5011.328          27.000                  
                                                
  25206539.562                        -676.867          24.000                  
                                                
  24610437.745   131695465.561        1875.623          29.000                  
                                                
  25330661.497   133113452.201        2890.205          27.000                  
                                                
  23216921.875   122005600.985       -2525.945          30.000                  
                                                
 18  5  8 13 45 24.0030000  0 18G 4G14G 3G29G26R11R 1G31G32G16R 2G23
                                R12R 8R20R21G27G22
  21667443.673   113863204.718       -2403.870          41.000                  
                                                
  23000061.371   120866139.661       -2692.244          42.000                  
                                                
  22748806.435                       -1350.198          27.000                  
                                                
  25360253.463   133269084.472       -1653.498          32.000                  
                                                
  21376059.675   112331946.904       -1443.242          44.000                  
                                                
  21806889.219   116529302.005       -2987.817          31.000                  
                                                
  21103879.310   112812295.892       -3387.418          45.000                  
                                                
  23348319.039   122696176.966       -2657.051          40.000                  
                                                
  25524760.165   134133421.970       -3774.182          33.000                  
                                                
  21214760.245   111484231.812         870.516          36.000                  
                                                
  20996718.942                        1386.698          21.000                  
                                                
  23502621.089   123507057.3243       2276.864          27.000                  
                                                
  20862190.125   111441970.1292       -442.457          28.000                  
                                                
  24605724.077   131762494.0082      -5010.400          27.000                  
                                                
  25206666.128                        -678.605          24.000                  
                                                
  24610085.355   131693589.655        1875.299          29.000                  
                                                
  25330107.645   133110561.508        2890.992          28.000                  
                                                
  23217410.097   122008127.661       -2525.774          29.000                  
                                                
 18  5  8 13 45 25.0030000  0 18G 4G14G 3G29G26R11R 1G31G32G16R 2G23
                                R12R 8R20R21G27G22
  21667900.694   113865609.502       -2405.634          41.000                  
                                                
  23000573.378   120868832.668       -2693.550          42.000                  
                                                
  22749062.037                       -1351.706          26.000                  
                                                
  25360568.501   133270739.042       -1655.546          32.000                  
                                                
  21376334.481   112333391.086       -1444.813          44.000                  
                                                
  21807442.958   116532289.969       -2988.165          31.000                  
                                                
  21104513.843   112815684.448       -3389.165          45.000                  
                                                
  23348824.642   122698835.059       -2658.431          40.000                  
                                                
  25525478.852   134137197.260       -3776.643          33.000                  
                                                
  21214594.721   111483362.559         868.172          36.000                  
                                                
  20996461.595                        1390.480          21.000                  
                                                
  23502192.695   123504781.2612       2275.545          28.000                  
                                                
  20862275.622   111442413.2822       -443.911          28.000                  
                                                
  24606659.522   131767505.1302      -5012.299          27.000                  
                                                
  25206794.186                        -680.135          24.000                  
                                                
  24609734.274   131691714.439        1874.182          29.000                  
                                                
  25329557.937   133107671.026        2889.992          28.000                  
                                                
  23217900.091   122010655.121       -2528.417          28.000                  
                                                
 18  5  8 13 45 26.0030000  0 18G 4G14G 3G29G26R11R 1G31G32G16R 2G23
                                R12R 8R20R21G27G22
  21668358.160   113868015.388       -2406.061          41.000                  
                                                
  23001085.786   120871526.613       -2694.016          42.000                  
                                                
  22749317.848                       -1352.767          27.000                  
                                                
  25360883.617   133272394.742       -1656.611          32.000                  
                                                
  21376609.174   112334836.404       -1445.459          44.000                  
                                                
  21807999.698   116535278.712       -2988.202          30.000                  
                                                
  21105148.429   112819074.244       -3389.934          45.000                  
                                                
  23349330.088   122701493.759       -2658.716          40.000                  
                                                
  25526197.434   134140973.148       -3776.036          34.000                  
                                                
  21214429.162   111482494.480         867.859          36.000                  
                                                
  20996201.778                        1393.508          23.000                  
                                                
  23501767.224   123502505.9172       2275.627          30.000                  
                                                
  20862361.451   111442857.4582       -444.211          29.000                  
                                                
  24607596.537   131772516.8672      -5011.969          27.000                  
                                                
  25206919.610                        -679.115          23.000                  
                                                
  24609386.579   131689840.244        1873.950          29.000                  
                                                
  25329007.479   133104781.133        2889.547          28.000                  
                                                
  23218379.090   122013183.508       -2528.383          28.000                  
                                                
 18  5  8 13 45 27.0030000  0 18G 4G14G 3G29G26R11R 1G31G32G16R 2G23
                                R12R 8R20R21G27G22
  21668815.373   113870421.224       -2405.688          41.000                  
                                                
  23001598.133   120874220.326       -2693.574          42.000                  
                                                
  22749572.787   119549824.2593      -1352.583          28.000                  
                                                
  25361196.979   133274050.377       -1655.255          32.000                  
                                                
  21376884.145   112336281.696       -1445.184          44.000                  
                                                
  21808557.058   116538267.005       -2987.653          30.000                  
                                                
  21105782.954   112822464.107       -3389.806          45.000                  
                                                
  23349835.376   122704151.947       -2658.086          40.000                  
                                                
  25526915.965   134144748.667       -3774.536          33.000                  
                                                
  21214263.778   111481626.473         868.488          36.000                  
                                                
  20995943.297                        1394.830          25.000                  
                                                
  23501332.731   123500230.0542       2277.484          30.000                  
                                                
  20862443.013   111443301.4292       -443.590          29.000                  
                                                
  24608533.632   131777528.0572      -5010.632          28.000                  
                                                
  25207046.900                        -681.221          23.000                  
                                                
  24609037.138   131687965.974        1874.109          29.000                  
                                                
  25328456.235   133101890.500        2890.354          27.000                  
                                                
  23218857.000   122015711.719       -2527.931          29.000                  
                                                
 18  5  8 13 45 28.0030000  0 18G 4G14G 3G29G26R11R 1G31G32G16R 2G23
                                R12R 8R20R21G27G22
  21669272.508   113872827.198       -2406.311          41.000                  
                                                
  23002110.288   120876914.012       -2693.897          42.000                  
                                                
  22749828.197   119551176.9522      -1353.189          28.000                  
                                                
  25361510.088   133275706.264       -1657.219          32.000                  
                                                
  21377159.274   112337727.135       -1445.864          44.000                  
                                                
  21809114.322   116541255.132       -2988.427          29.000                  
                                                
  21106417.435   112825854.213       -3390.463          45.000                  
                                                
  23350340.665   122706809.768       -2657.964          40.000                  
                                                
  25527634.564   134148524.020       -3775.589          33.000                  
                                                
  21214098.166   111480758.702         867.781          35.000                  
                                                
  20995684.746                        1393.004          25.000                  
                                                
  23500896.065   123497954.0902       2275.748          29.000                  
                                                
  20862527.935   111443745.4282       -444.167          29.000                  
                                                
  24609470.857   131782539.0132      -5010.815          28.000                  
                                                
  25207173.031                        -681.226          23.000                  
                                                
  24608683.632   131686091.645        1874.243          29.000                  
                                                
  25327906.178   133098999.371        2891.112          27.000                  
                                                
  23219339.969   122018239.954       -2528.623          29.000                  
                                                
 18  5  8 13 45 29.0030000  0 18G 4G14G 3G29G26R11R 1G31G32G16R 2G23
                                R12R 8R20R21G27G22
  21669729.965   113875233.638       -2406.555          41.000                  
                                                
  23002622.574   120879607.993       -2694.070          41.000                  
                                                
  22750084.864   119552530.1992      -1353.527          28.000                  
                                                
  25361826.661   133277362.550       -1656.036          31.000                  
                                                
  21377434.298   112339173.060       -1446.050          44.000                  
                                                
  21809679.674   116544243.260       -2987.820          28.000                  
                                                
  21107051.855   112829244.914       -3391.012          46.000                  
                                                
  23350845.944   122709467.587       -2657.723          41.000                  
                                                
  25528352.981   134152299.492       -3775.520          34.000                  
                                                
  21213932.948   111479891.512         866.727          35.000                  
                                                
  20995423.350                        1392.412          25.000                  
                                                
  23500466.921   123495678.1112       2275.613          30.000                  
                                                
  20862608.406   111444189.841        -444.669          30.000                  
                                                
  24610406.974   131787550.0192      -5010.730          28.000                  
                                                
  25207299.196                        -680.572          23.000                  
                                                
  24608333.729   131684217.751        1873.755          29.000                  
                                                
  25327355.807   133096108.148        2891.095          26.000                  
                                                
  23219815.880   122020768.499       -2528.355          29.000                  
                                                
 18  5  8 13 45 30.0030000  0 18G 4G14G 3G29G26R11R 1G31G32G16R 2G23
                                R12R 8R20R21G27G22
  21670187.658   113877640.586       -2407.172          41.000                  
                                                
  23003134.904   120882302.320       -2694.432          41.000                  
                                                
  22750342.673   119553883.9342      -1353.932          28.000                  
                                                
  25362141.568   133279019.521       -1657.339          32.000                  
                                                
  21377709.419   112340619.532       -1446.987          44.000                  
                                                
  21810240.716   116547231.582       -2988.001          27.000                  
                                                
  21107686.406   112832636.242       -3391.850          46.000                  
                                                
  23351351.521   122712125.441       -2658.014          40.000                  
                                                
  25529071.695   134156075.099       -3775.240          34.000                  
                                                
  21213767.764   111479024.946         865.867          35.000                  
                                                
  20995163.447                        1391.844          25.000                  
                                                
  23500035.403   123493402.2812       2275.693          30.000                  
                                                
  20862697.690   111444634.550        -444.400          31.000                  
                                                
  24611342.698   131792561.0782      -5010.962          28.000                  
                                                
  25207425.631                        -682.222          23.000                  
                                                
  24607976.287   131682344.254        1873.206          29.000                  
                                                
  25326806.928   133093216.841        2890.247          26.000                  
                                                
  23220290.212   122023297.444       -2529.169          29.000                  
                                                
 18  5  8 13 45 31.0030000  0 18G 4G14G 3G29G26R11R 1G31G32G16R 2G23
                                R12R 8R20R21G27G22
  21670645.255   113880047.891       -2407.672          41.000                  
                                                
  23003647.373   120884996.807       -2694.385          41.000                  
                                                
  22750597.708   119555238.1712      -1354.241          27.000                  
                                                
  25362460.610   133280676.750       -1656.926          32.000                  
                                                
  21377984.888   112342066.308       -1446.785          43.000                  
                                                
  21810799.350   116550219.848       -2989.013          27.000                  
                                                
  21108321.210   112836028.014       -3391.948          46.000                  
                                                
  23351856.870   122714783.154       -2657.666          40.000                  
                                                
  25529790.329   134159850.670       -3775.064          34.000                  
                                                
  21213602.397   111478158.784         865.780          35.000                  
                                                
  20994904.651                        1391.779          24.000                  
                                                
  23499601.303   123491126.4162       2275.943          31.000                  
                                                
  20862786.119   111445079.587        -444.722          31.000                  
                                                
  24612279.286   131797572.080       -5010.785          29.000                  
                                                
  25207553.533                        -683.018          23.000                  
                                                
  24607624.325   131680470.943        1873.834          29.000                  
                                                
  25326257.769   133090325.088        2891.903          26.000                  
                                                
  23220769.823   122025826.590       -2529.017          29.000                  
                                                
 18  5  8 13 45 32.0030000  0 18G 4G14G 3G29G26R11R 1G31G32G16R 2G23
                                R12R 8R20R21G27G22
  21671102.992   113882455.712       -2408.386          40.000                  
                                                
  23004159.964   120887691.676       -2695.175          40.000                  
                                                
  22750851.836   119556592.9892      -1355.516          27.000                  
                                                
  25362777.218   133282334.698       -1659.508          32.000                  
                                                
  21378260.182   112343513.697       -1447.913          43.000                  
                                                
  21811361.029   116553208.264       -2989.294          26.000                  
                                                
  21108956.180   112839420.480       -3392.957          46.000                  
                                                
  23352362.534   122717440.934       -2658.132          40.000                  
                                                
  25530508.999   134163626.477       -3775.803          33.000                  
                                                
  21213437.283   111477293.301         864.657          34.000                  
                                                
  20994650.873                        1391.302          24.000                  
                                                
  23499169.087   123488850.6982       2275.632          31.000                  
                                                
  20862868.615   111445525.003        -445.798          31.000                  
                                                
  24613215.045   131802583.170       -5011.463          28.000                  
                                                
  25207680.204                        -685.139          23.000                  
                                                
  24607276.891   131678598.114        1872.522          29.000                  
                                                
  25325705.653   133087433.486        2890.625          26.000                  
                                                
  23221247.592   122028356.112       -2529.587          28.000                  
                                                
 18  5  8 13 45 33.0030000  0 18G 4G14G 3G29G26R11R 1G31G32G16R 2G23
                                R12R 8R20R21G27G22
  21671561.121   113884864.717       -2409.515          41.000                  
                                                
  23004672.844   120890387.561       -2696.248          41.000                  
                                                
  22751109.157   119557949.0922      -1356.814          27.000                  
                                                
  25363094.943   133283993.718       -1659.651          33.000                  
                                                
  21378536.184   112344962.254       -1448.981          43.000                  
                                                
  21811924.418   116556256.0501      -2991.017          26.000                  
                                                
  21109591.036   112842814.261       -3394.219          46.000                  
                                                
  23352868.364   122720099.414       -2658.676          40.000                  
                                                
  25531227.852   134167403.118       -3777.126          33.000                  
                                                
  21213272.684   111476429.063         864.136          35.000                  
                                                
  20994393.569                        1387.386          24.000                  
                                                
  23498736.618   123486575.8552       2274.301          30.000                  
                                                
  20862948.075   111445971.462        -445.773          31.000                  
                                                
  24614151.328   131807595.040       -5012.402          28.000                  
                                                
  25207806.369                        -688.763          23.000                  
                                                
  24606929.527   131676726.392        1871.362          28.000                  
                                                
  25325152.097                        2890.429          25.000                  
                                                
  23221727.997   122030886.763       -2530.876          29.000                  
                                                
 18  5  8 13 45 34.0030000  0 18G 4G14G 3G29G26R11R 1G31G32G16R 2G23
                                R12R 8R20R21G27G22
  21672019.477   113887274.488       -2409.753          41.000                  
                                                
  23005186.002   120893084.044       -2696.395          40.000                  
                                                
  22751365.335   119559305.9642      -1356.915          26.000                  
                                                
  25363410.321   133285653.583       -1659.730          33.000                  
                                                
  21378811.740   112346411.612       -1449.343          43.000                  
                                                
  21812485.948   116559245.603       -2989.654          25.000                  
                                                
  21110226.163   112846208.962       -3394.825          46.000                  
                                                
  23353374.568   122722758.189       -2658.473          40.000                  
                                                
  25531946.557   134171180.129       -3776.415          33.000                  
                                                
  21213108.416   111475565.732         863.353          35.000                  
                                                
  20994136.929                        1389.516          24.000                  
                                                
  23498300.188   123484301.2942       2274.937          30.000                  
                                                
  20863029.733   111446418.638        -447.306          31.000                  
                                                
  24615088.256   131812607.187       -5011.926          28.000                  
                                                
  25207934.802                        -684.633          23.000                  
                                                
  24606578.464   131674855.300        1871.252          28.000                  
                                                
  25324599.754   133081651.241        2891.671          25.000                  
                                                
  23222209.832   122033418.028       -2531.016          29.000                  
                                                
 18  5  8 13 45 35.0030000  0 18G 4G14G 3G29G26R11R 1G31G32G16R 2G23
                                R12R 8R20R21G27G22
  21672477.999   113889684.686       -2411.060          41.000                  
                                                
  23005698.646   120895780.802       -2697.320          40.000                  
                                                
  22751619.532   119560663.2932      -1357.503          26.000                  
                                                
  25363726.048   133287313.898       -1660.303          33.000                  
                                                
  21379087.323   112347861.405       -1450.311          43.000                  
                                                
  21813047.680                       -2990.219          25.000                  
                                                
  21110861.587   112849604.209       -3395.857          46.000                  
                                                
  23353880.974   122725416.898       -2659.287          40.000                  
                                                
  25532665.471   134174957.227       -3777.247          33.000                  
                                                
  21212944.367   111474702.939         861.476          35.000                  
                                                
  20993880.673                        1387.355          25.000                  
                                                
  23497862.895   123482026.8302       2274.220          29.000                  
                                                
  20863114.532   111446866.093        -448.297          31.000                  
                                                
  24616025.411   131817619.386       -5013.104          28.000                  
                                                
  25208065.618                        -687.333          24.000                  
                                                
  24606226.152   131672984.555        1870.282          28.000                  
                                                
  25324045.335                        2891.373          24.000                  
                                                
  23222690.062   122035949.598       -2532.246          29.000                  
                                                
 18  5  8 13 45 36.0030000  0 18G 4G14G 3G29G26R11R 1G31G32G16R 2G23
                                R12R 8R20R21G27G22
  21672936.652   113892096.445       -2412.604          41.000                  
                                                
  23006211.770   120898478.884       -2698.851          39.000                  
                                                
  22751877.883                       -1360.176          24.000                  
                                                
  25364042.167   133288975.868       -1662.707          33.000                  
                                                
  21379363.080   112349312.795       -1452.292          42.000                  
                                                
  21813611.391                       -2991.140          26.000                  
                                                
  21111496.932   112853001.164       -3397.894          46.000                  
                                                
  23354387.056   122728076.689       -2660.447          40.000                  
                                                
  25533385.240   134178735.557       -3778.970          33.000                  
                                                
  21212780.352   111473841.786         860.037          34.000                  
                                                
  20993625.559                        1386.373          25.000                  
                                                
  23497437.092   123479753.5592       2272.990          29.000                  
                                                
  20863201.024   111447314.987        -450.248          31.000                  
                                                
  24616961.328   131822632.664       -5013.446          29.000                  
                                                
  25208192.638                        -688.786          25.000                  
                                                
  24605878.239   131671115.314        1868.250          27.000                  
                                                
  25323491.936   133075869.886        2890.129          26.000                  
                                                
  23223160.590   122038482.521       -2533.598          30.000                  
                                                
 18  5  8 13 45 37.0030000  0 18G 4G14G 3G29G26R11R 1G31G32G16R 2G23
                                R12R 8R20R21G27G22
  21673395.514   113894509.374       -2413.599          40.000                  
                                                
  23006725.618   120901178.059       -2699.780          42.000                  
                                                
  22752135.500                       -1356.927          23.000                  
                                                
  25364358.208   133290639.010       -1663.829          33.000                  
                                                
  21379639.369   112350765.362       -1453.304          43.000                  
                                                
  21814175.444                       -2992.992          26.000                  
                                                
  21112132.739   112856399.458       -3399.081          46.000                  
                                                
  23354893.121   122730737.182       -2660.465          41.000                  
                                                
  25534105.009   134182514.685       -3779.588          34.000                  
                                                
  21212616.765   111472981.905         859.586          35.000                  
                                                
  20993369.416                        1382.666          25.000                  
                                                
  23497006.019   123477480.600        2272.003          29.000                  
                                                
  20863285.178   111447764.983        -450.549          31.000                  
                                                
  24617898.012   131827646.821       -5014.758          29.000                  
                                                
  25208323.585                        -688.954          25.000                  
                                                
  24605530.046   131669247.084        1867.511          28.000                  
                                                
  25322939.488   133072980.232        2889.789          26.000                  
                                                
  23223641.282   122041016.576       -2534.277          31.000                  
                                                
 18  5  8 13 45 38.0030000  0 18G 4G14G 3G29G26R11R 1G31G32G16R 2G23
                                R12R 8R20R21G27G22
  21673854.438   113896923.502       -2414.368          40.000                  
                                                
  23007239.876   120903878.233       -2700.605          42.000                  
                                                
  22752395.840                       -1349.390          21.000                  
                                                
  25364674.389   133292303.389       -1664.442          33.000                  
                                                
  21379915.815   112352219.149       -1454.028          43.000                  
                                                
  21814739.243                       -2992.714          27.000                  
                                                
  21112768.599   112859799.069       -3399.870          46.000                  
                                                
  23355399.430   122733398.418       -2661.073          42.000                  
                                                
  25534824.953   134186294.671       -3780.009          34.000                  
                                                
  21212452.986   111472123.335         858.336          35.000                  
                                                
  20993112.278                        1381.847          25.000                  
                                                
  23496573.821   123475208.916        2271.746          29.000                  
                                                
  20863366.758   111448216.110        -452.142          31.000                  
                                                
  24618834.696   131832661.781       -5015.424          29.000                  
                                                
  25208455.543                        -693.749          25.000                  
                                                
  24605181.792   131667380.010        1866.736          29.000                  
                                                
  25322387.346   133070091.209        2888.302          27.000                  
                                                
  23224122.219   122043551.699       -2535.345          31.000                  
                                                
 18  5  8 13 45 39.0030000  0 18G 4G14G 3G29G26R11R 1G31G32G16R 2G23
                                R12R 8R20R21G27G22
  21674313.527   113899338.398       -2415.460          40.000                  
                                                
  23007753.715   120906578.997       -2701.281          42.000                  
                                                
  22752652.489                       -1366.609          22.000                  
                                                
  25364990.805   133293968.609       -1665.847          33.000                  
                                                
  21380192.567   112353673.710       -1455.072          43.000                  
                                                
  21815301.637   116574291.5803      -2993.205          27.000                  
                                                
  21113404.860   112863199.562       -3401.208          46.000                  
                                                
  23355906.202   122736059.947       -2662.048          42.000                  
                                                
  25535544.949   134190075.094       -3781.443          35.000                  
                                                
  21212290.141   111471265.631         857.335          35.000                  
                                                
  20992853.657                        1382.031          25.000                  
                                                
  23496133.377   123472937.627        2270.910          29.000                  
                                                
  20863454.148   111448667.786        -452.497          31.000                  
                                                
  24619770.787   131837676.995       -5016.059          29.000                  
                                                
  25208585.416                        -692.207          25.000                  
                                                
  24604838.136   131665513.585        1866.046          30.000                  
                                                
  25321836.530   133067202.176        2888.943          27.000                  
                                                
  23224602.728   122046087.458       -2536.503          31.000                  
                                                
 18  5  8 13 45 40.0030000  0 18G 4G14G 3G29G26R11R 1G31G32G16R 2G23
                                R12R 8R20R21G27G22
  21674773.139   113901754.418       -2416.742          40.000                  
                                                
  23008267.091   120909280.736       -2701.999          40.000                  
                                                
  22752911.546                       -1364.265          23.000                  
                                                
  25365308.172   133295634.994       -1666.877          33.000                  
                                                
  21380470.366   112355129.416       -1456.173          43.000                  
                                                
  21815864.127   116577285.1202      -2993.679          27.000                  
                                                
  21114041.191   112866601.306       -3402.396          46.000                  
                                                
  23356412.634   122738722.087       -2662.236          40.000                  
                                                
  25536264.840   134193856.231       -3782.220          35.000                  
                                                
  21212127.260   111470409.164         855.797          35.000                  
                                                
  20992597.322                        1379.544          23.000                  
                                                
  23495701.668   123470667.066        2270.246          29.000                  
                                                
  20863536.566   111449120.524        -452.742          32.000                  
                                                
  24620708.160   131842692.837       -5015.912          29.000                  
                                                
  25208715.988                        -693.050          24.000                  
                                                
  24604484.987   131663648.209        1864.978          30.000                  
                                                
  25321285.321   133064313.776        2888.400          26.000                  
                                                
  23225082.382   122048624.180       -2537.106          31.000                  
                                                
 18  5  8 13 45 41.0030000  0 18G 4G14G 3G29G26R11R 1G31G32G16R 2G23
                                R12R 8R20R21G27G22
  21675233.118   113904171.284       -2417.114          40.000                  
                                                
  23008780.459   120911983.149       -2702.465          40.000                  
                                                
  22753172.924                       -1361.982          23.000                  
                                                
  25365625.635   133297302.241       -1667.308          33.000                  
                                                
  21380747.868   112356585.998       -1456.831          43.000                  
                                                
  21816423.407   116580279.2592      -2995.171          26.000                  
                                                
  21114678.045   112870004.049       -3403.062          47.000                  
                                                
  23356919.624   122741384.648       -2662.643          40.000                  
                                                
  25536984.749   134197637.859       -3781.840          35.000                  
                                                
  21211964.738   111469553.655         855.318          35.000                  
                                                
  20992342.235                        1391.974          23.000                  
                                                
  23495273.055   123468397.033        2269.973          30.000                  
                                                
  20863619.960   111449574.041        -453.601          32.000                  
                                                
  24621646.432   131847709.208       -5016.547          29.000                  
                                                
  25208846.672                        -695.008          23.000                  
                                                
  24604137.606   131661783.612        1865.015          30.000                  
                                                
  25320733.030   133061425.569        2888.581          25.000                  
                                                
  23225558.983   122051161.628       -2537.344          31.000                  
                                                
 18  5  8 13 45 42.0030000  0 18G 4G14G 3G29G26R11R 1G31G32G16R 2G23
                                R12R 8R20R21G27G22
  21675693.254   113906589.050       -2417.841          40.000                  
                                                
  23009294.743   120914686.239       -2703.093          39.000                  
                                                
  22753435.568                       -1365.032          25.000                  
                                                
  25365942.854   133298970.407       -1668.364          33.000                  
                                                
  21381025.710   112358043.491       -1457.677          43.000                  
                                                
  21816982.346   116583273.8882      -2995.139          27.000                  
                                                
  21115314.734   112873407.823       -3404.016          47.000                  
                                                
  23357426.901   122744047.628       -2663.259          40.000                  
                                                
  25537705.042   134201420.097       -3782.646          36.000                  
                                                
  21211802.372   111468699.115         854.742          35.000                  
                                                
  20992084.024                        1388.649          22.000                  
                                                
  23494843.387   123466127.401        2270.474          30.000                  
                                                
  20863704.236   111450028.354        -454.497          32.000                  
                                                
  24622584.617   131852726.016       -5017.053          29.000                  
                                                
  25208977.976                        -695.217          22.000                  
                                                
  24603787.450   131659919.864        1864.374          30.000                  
                                                
  25320184.125                        2887.874          25.000                  
                                                
  23226037.241   122053699.865       -2538.310          31.000                  
                                                
 18  5  8 13 45 43.0030000  0 18G 4G14G 3G29G26R11R 1G31G32G16R 2G23
                                R12R 8R20R21G27G22
  21676154.228   113909007.096       -2418.451          40.000                  
                                                
  23009809.516   120917389.543       -2703.792          41.000                  
                                                
  22753698.089                       -1366.337          26.000                  
                                                
  25366260.456   133300638.913       -1668.434          33.000                  
                                                
  21381303.535   112359501.291       -1458.450          44.000                  
                                                
  21817542.036   116586268.3262      -2994.685          26.000                  
                                                
  21115951.798   112876812.022       -3404.778          47.000                  
                                                
  23357933.752   122746710.380       -2663.106          41.000                  
                                                
  25538425.570   134205202.205       -3781.926          36.000                  
                                                
  21211639.972   111467845.020         853.460          35.000                  
                                                
  20991828.632                        1378.554          20.000                  
                                                
  23494402.857   123463857.817        2269.431          30.000                  
                                                
  20863788.634   111450482.797        -455.008          32.000                  
                                                
  24623521.658   131857742.680       -5016.925          29.000                  
                                                
  25209110.057                        -695.198          22.000                  
                                                
  24603440.618   131658056.275        1862.671          31.000                  
                                                
  25319632.960                        2887.981          26.000                  
                                                
  23226521.702   122056238.243       -2538.730          31.000                  
                                                
 18  5  8 13 45 44.0030000  0 18G 4G14G 3G29G26R11R 1G31G32G16R 2G23
                                R12R 8R20R21G27G22
  21676614.704   113911426.087       -2419.507          40.000                  
                                                
  23010324.001   120920093.576       -2704.325          40.000                  
                                                
  22753957.975                       -1367.324          25.000                  
                                                
  25366578.338   133302308.425       -1669.513          33.000                  
                                                
  21381581.465   112360960.040       -1459.095          44.000                  
                                                
  21818102.833   116589263.3722      -2994.850          27.000                  
                                                
  21116588.774   112880217.289       -3405.698          47.000                  
                                                
  23358440.785   122749373.626       -2663.600          40.000                  
                                                
  25539145.365   134208984.921       -3782.798          36.000                  
                                                
  21211477.868   111466991.952         852.540          35.000                  
                                                
  20991573.553                        1378.554          18.000                  
                                                
  23493976.147   123461588.739        2268.888          29.000                  
                                                
  20863876.749   111450938.097        -455.796          33.000                  
                                                
  24624459.965   131862759.854       -5017.328          29.000                  
                                                
  25209240.463                        -699.014          22.000                  
                                                
  24603093.559   131656193.480        1862.555          31.000                  
                                                
  25319085.721                        2887.623          26.000                  
                                                
  23227004.838   122058777.425       -2539.386          32.000                  
                                                
 18  5  8 13 45 45.0030000  0 17G 4G14G 3G29G26R11R 1G31G32G16R 2G23
                                R12R 8R21G27G22
  21677075.818   113913845.796       -2420.453          41.000                  
                                                
  23010838.817   120922798.140       -2705.308          41.000                  
                                                
  22754219.231                       -1377.654          23.000                  
                                                
  25366896.752   133303978.699       -1671.633          34.000                  
                                                
  21381859.630   112362419.522       -1460.200          44.000                  
                                                
  21818666.571   116592258.847       -2995.853          27.000                  
                                                
  21117225.725   112883623.409       -3406.925          47.000                  
                                                
  23358948.168   122752037.106       -2663.805          40.000                  
                                                
  25539865.501   134212768.044       -3783.587          35.000                  
                                                
  21211316.122   111466139.683         851.202          35.000                  
                                                
  20991315.176                        1378.554          15.000                  
                                                
  23493549.131   123459320.014        2267.983          31.000                  
                                                
  20863962.726   111451393.946        -456.540          33.000                  
                                                
  24625397.321   131867777.287       -5017.779          28.000                  
                                                
  24602745.811   131654331.342        1861.420          31.000                  
                                                
  25318538.500   133049817.1983       2887.605          26.000                  
                                                
  23227489.518   122061317.237       -2540.770          32.000                  
                                                
 18  5  8 13 45 46.0030000  0 17G 4G14G 3G29G26R11R 1G31G32G16R 2G23
                                R12R 8R21G27G22
  21677536.817   113916266.415       -2421.429          41.000                  
                                                
  23011353.668   120925503.436       -2705.776          39.000                  
                                                
  22754477.450                       -1367.107          22.000                  
                                                
  25367214.957   133305649.824       -1671.450          34.000                  
                                                
  21382137.821   112363879.962       -1461.055          44.000                  
                                                
  21819229.533   116595254.805       -2995.974          27.000                  
                                                
  21117863.111   112887030.584       -3407.928          46.000                  
                                                
  23359455.786   122754701.012       -2663.913          39.000                  
                                                
  25540586.011   134216551.653       -3783.595          35.000                  
                                                
  21211154.681   111465288.432         850.652          36.000                  
                                                
  20991054.863                        1378.554          12.000                  
                                                
  23493121.478   123457051.786        2267.919          32.000                  
                                                
  20864048.407   111451850.647        -457.527          33.000                  
                                                
  24626335.096   131872795.244       -5018.408          29.000                  
                                                
  24602395.105   131652470.017        1860.248          31.000                  
                                                
  25317992.570   133046929.6622       2886.900          27.000                  
                                                
  23227971.955   122063857.785       -2541.533          33.000                  
                                                
 18  5  8 13 45 47.0030000  0 17G 4G14G 3G29G26R11R 1G31G32G16R 2G23
                                R12R 8R21G27G22
  21677998.201   113918688.078       -2422.412          42.000                  
                                                
  23011868.755   120928209.673       -2706.827          40.000                  
                                                
  22754734.815                       -1363.532          21.000                  
                                                
  25367533.432   133307322.097       -1672.401          34.000                  
                                                
  21382416.213   112365341.428       -1461.983          44.000                  
                                                
  21819791.543   116598251.475       -2997.155          27.000                  
                                                
  21118500.629   112890438.916       -3409.004          46.000                  
                                                
  23359963.099   122757365.484       -2664.759          40.000                  
                                                
  25541306.976   134220336.016       -3785.138          35.000                  
                                                
  21210993.424   111464438.346         849.432          36.000                  
                                                
  20990794.994                        1378.554          10.000                  
                                                
  23492691.104   123454784.220        2267.495          32.000                  
                                                
  20864134.288   111452308.240        -457.847          33.000                  
                                                
  24627271.632   131877813.792       -5018.945          29.000                  
                                                
  24602047.523   131650609.614        1860.492          31.000                  
                                                
  25317446.133   133044042.5582       2886.487          27.000                  
                                                
  23228458.048   122066399.237       -2541.528          33.000                  
                                                
 18  5  8 13 45 48.0030000  0 17G 4G14G 3G29G26R11R 1G31G32G16R 2G23
                                R12R 8R21G27G22
  21678459.768   113921110.362       -2423.187          42.000                  
                                                
  23012383.476   120930916.353       -2707.891          40.000                  
                                                
  22754993.741                       -1372.822          19.000                  
                                                
  25367851.820   133308995.063       -1674.210          35.000                  
                                                
  21382694.588   112366803.552       -1462.924          44.000                  
                                                
  21820354.505   116601248.283       -2997.425          26.000                  
                                                
  21119138.181   112893848.016       -3410.074          46.000                  
                                                
  23360470.429   122760030.115       -2665.116          39.000                  
                                                
  25542027.487   134224120.611       -3785.175          35.000                  
                                                
  21210831.913   111463588.976         848.535          36.000                  
                                                
  20990538.860                        1378.554          11.000                  
                                                
  23492259.848   123452516.884        2267.518          32.000                  
                                                
  20864220.178   111452766.376        -458.369          33.000                  
                                                
  24628209.040   131882832.581       -5019.281          28.000                  
                                                
  24601704.112   131648749.826        1858.380          30.000                  
                                                
  25316896.356   133041155.4092       2887.116          28.000                  
                                                
  23228941.768   122068941.241       -2542.812          33.000                  
                                                
 18  5  8 13 45 49.0030000  0 17G 4G14G 3G29G26R11R 1G31G32G16R 2G23
                                R12R 8R21G27G22
  21678921.239   113923533.996       -2423.932          41.000                  
                                                
  23012898.641   120933624.191       -2708.299          40.000                  
                                                
  22755255.643                       -1382.998          17.000                  
                                                
  25368170.505   133310669.390       -1674.994          34.000                  
                                                
  21382973.277   112368267.073       -1463.972          43.000                  
                                                
  21820913.714                       -2995.103          24.000                  
                                                
  21119776.153   112897258.612       -3411.216          45.000                  
                                                
  23360977.776   122762695.661       -2665.907          37.000                  
                                                
  25542748.312   134227906.250       -3785.917          34.000                  
                                                
  21210671.022   111462741.110         847.730          36.000                  
                                                
  20990280.405                        1370.724          13.000                  
                                                
  23491828.740   123450250.652        2264.832          31.000                  
                                                
  20864306.827   111453225.798        -460.384          32.000                  
                                                
  24629145.942   131887852.271       -5019.812          28.000                  
                                                
  24601360.142                        1857.455          29.000                  
                                                
  25316348.776   133038269.1102       2886.233          28.000                  
                                                
  23229425.916   122071484.456       -2543.942          32.000                  
                                                
 18  5  8 13 45 50.0030000  0 17G 4G14G 3G29G26R11R 1G31G32G16R 2G23
                                R12R 8R21G27G22
  21679383.112   113925958.729       -2425.323          40.000                  
                                                
  23013414.321   120936332.957       -2709.278          40.000                  
                                                
  22755512.955                       -1372.134          17.000                  
                                                
  25368489.259   133312344.821       -1675.780          34.000                  
                                                
  21383252.428   112369731.674       -1464.985          43.000                  
                                                
  21821471.406                       -2995.736          21.000                  
                                                
  21120414.281   112900670.418       -3412.411          45.000                  
                                                
  23361485.648   122765361.774       -2666.215          38.000                  
                                                
  25543469.320   134231692.600       -3786.742          34.000                  
                                                
  21210510.454   111461894.415         846.006          36.000                  
                                                
  20990022.490                        1370.724          14.000                  
                                                
  23491398.749   123447984.987        2265.417          31.000                  
                                                
  20864390.100   111453686.147        -460.340          31.000                  
                                                
  24630083.682   131892872.619       -5020.429          27.000                  
                                                
  24601012.176                        1857.865          28.000                  
                                                
  25315801.791   133035383.2652       2885.438          28.000                  
                                                
  23229910.334   122074028.587       -2544.589          32.000                  
                                                
 18  5  8 13 45 51.0030000  0 17G 4G14G 3G29G26R11R 1G31G32G16R 2G23
                                R12R 8R21G27G22
  21679845.124   113928384.408       -2425.922          40.000                  
                                                
  23013930.080   120939042.526       -2709.890          39.000                  
                                                
  22755770.773                       -1377.075          18.000                  
                                                
  25368808.424   133314021.280       -1677.207          34.000                  
                                                
  21383531.448   112371197.260       -1465.985          43.000                  
                                                
  21822032.710                       -2995.736          17.000                  
                                                
  21121052.575   112904083.304       -3413.400          45.000                  
                                                
  23361993.222   122768028.394       -2666.981          38.000                  
                                                
  25544190.171   134235479.551       -3787.168          35.000                  
                                                
  21210350.148   111461048.777         845.464          36.000                  
                                                
  20989765.929                        1370.724          14.000                  
                                                
  23490966.656   123445719.942        2265.314          31.000                  
                                                
  20864477.743   111454147.398        -462.054          31.000                  
                                                
  24631021.858   131897893.490       -5020.844          27.000                  
                                                
  24600668.127   131643117.4653       1856.293          28.000                  
                                                
  25315256.751   133032497.6962       2885.673          28.000                  
                                                
  23230395.127   122076573.618       -2545.903          31.000                  
                                                
 18  5  8 13 45 52.0030000  0 17G 4G14G 3G29G26R11R 1G31G32G16R 2G23
                                R12R 8R21G27G22
  21680307.048   113930810.356       -2426.477          40.000                  
                                                
  23014445.830   120941752.168       -2709.996          40.000                  
                                                
  22756025.878                       -1364.478          18.000                  
                                                
  25369127.152   133315698.033       -1677.489          34.000                  
                                                
  21383810.756   112372663.115       -1466.427          43.000                  
                                                
  21822594.545                       -2998.603          18.000                  
                                                
  21121690.974   112907496.600       -3413.817          46.000                  
                                                
  23362500.744   122770694.788       -2666.674          38.000                  
                                                
  25544911.283   134239266.389       -3786.596          35.000                  
                                                
  21210189.928   111460203.496         845.006          36.000                  
                                                
  20989508.259                        1370.724          12.000                  
                                                
  23490535.086   123443454.775        2265.269          32.000                  
                                                
  20864564.471   111454608.726        -461.918          31.000                  
                                                
  24631959.545   131902914.250       -5021.100          27.000                  
                                                
  24600322.787   131641260.9392       1855.988          27.000                  
                                                
  25314709.739   133029611.8562       2885.747          29.000                  
                                                
  23230879.676   122079118.708       -2545.689          31.000                  
                                                
 18  5  8 13 45 53.0030000  0 17G 4G14G 3G29G26R11R 1G31G32G16R 2G23
                                R12R 8R21G27G22
  21680769.339   113933237.549       -2427.856          41.000                  
                                                
  23014961.806   120944462.905       -2711.090          40.000                  
                                                
  22756282.544                       -1376.480          18.000                  
                                                
  25369446.674   133317376.042       -1678.328          35.000                  
                                                
  21384090.361   112374130.228       -1467.560          43.000                  
                                                
  21823155.561                       -3005.669          20.000                  
                                                
  21122329.704   112910911.283       -3415.299          46.000                  
                                                
  23363008.345   122773361.958       -2667.712          39.000                  
                                                
  25545632.361   134243054.166       -3788.066          34.000                  
                                                
  21210029.875   111459359.588         843.236          37.000                  
                                                
  20989249.577                        1367.916          15.000                  
                                                
  23490104.423   123441190.564        2263.096          32.000                  
                                                
  20864648.476   111455071.269        -463.145          32.000                  
                                                
  24632898.472   131908014.3731      -5022.101          28.000                  
                                                
  24599976.854   131639417.5673       1855.011          27.000                  
                                                
  25314160.135   133026726.5692       2885.038          29.000                  
                                                
  23231364.600   122081664.930       -2546.563          31.000                  
                                                
 18  5  8 13 45 54.0030000  0 17G 4G14G 3G29G26R11R 1G31G32G16R 2G23
                                R12R 8R21G27G22
  21681231.953   113935665.987       -2428.638          41.000                  
                                                
  23015477.975   120947174.719       -2711.909          40.000                  
                                                
  22756541.636                       -1375.501          19.000                  
                                                
  25369766.310   133319055.384       -1680.109          35.000                  
                                                
  21384369.861   112375598.622       -1468.869          43.000                  
                                                
  21823719.779                       -3008.441          22.000                  
                                                
  21122968.879   112914327.370       -3416.384          46.000                  
                                                
  23363516.434   122776029.879       -2668.277          38.000                  
                                                
  25546353.710   134246842.823       -3788.593          34.000                  
                                                
  21209870.101   111458517.020         842.534          37.000                  
                                                
  20988992.963                        1367.916          16.000                  
                                                
  23489670.742   123438927.110        2263.282          32.000                  
                                                
  20864735.378   111455534.942        -463.869          31.000                  
                                                
  24633835.810   131913036.785       -5022.644          28.000                  
                                                
  24599628.783   131637563.4082       1853.497          27.000                  
                                                
  25313609.755   133023841.9772       2884.652          29.000                  
                                                
  23231849.402   122084212.345       -2548.792          31.000                  
                                                
 18  5  8 13 45 55.0030000  0 17G 4G14G 3G29G26R11R 1G31G32G16R 2G23
                                R12R 8R21G27G22
  21681694.672   113938094.889       -2429.193          41.000                  
                                                
  23015994.327   120949886.822       -2712.095          40.000                  
                                                
  22756803.564                       -1381.920          20.000                  
                                                
  25370085.736   133320735.182       -1679.940          35.000                  
                                                
  21384649.580   112377067.501       -1468.992          43.000                  
                                                
  21824280.106                       -2997.918          22.000                  
                                                
  21123608.142   112917744.064       -3417.079          46.000                  
                                                
  23364024.436   122778697.819       -2667.901          38.000                  
                                                
  25547074.840   134250631.626       -3789.357          35.000                  
                                                
  21209710.457   111457675.058         841.546          37.000                  
                                                
  20988733.923                        1358.631          17.000                  
                                                
  23489241.710   123436663.778        2263.408          33.000                  
                                                
  20864823.676   111455998.966        -464.035          31.000                  
                                                
  24634773.550   131918059.7142      -5022.785          28.000                  
                                                
  24599282.152   131635709.4812       1854.016          26.000                  
                                                
  25313060.501   133020956.739        2884.277          30.000                  
                                                
  23232336.839   122086760.018       -2548.036          31.000                  
                                                
 18  5  8 13 45 56.0030000  0 17G 4G14G 3G29G26R11R 1G31G32G16R 2G23
                                R12R 8R21G27G22
  21682157.539   113940524.849       -2430.353          42.000                  
                                                
  23016510.478   120952599.848       -2713.343          41.000                  
                                                
  22757063.878                       -1376.825          21.000                  
                                                
  25370405.721   133322416.108       -1680.968          35.000                  
                                                
  21384929.115   112378537.463       -1470.393          44.000                  
                                                
  21824846.208                       -3001.900          22.000                  
                                                
  21124247.422   112921161.953       -3418.392          46.000                  
                                                
  23364532.115   122781366.337       -2668.527          38.000                  
                                                
  25547796.354   134254421.116       -3790.166          35.000                  
                                                
  21209551.102   111456834.251         840.439          37.000                  
                                                
  20988475.939                        1368.481          19.000                  
                                                
  23488808.814   123434401.202        2261.969          33.000                  
                                                
  20864908.450   111456463.945        -464.976          31.000                  
                                                
  24635711.735   131923082.7912      -5023.462          28.000                  
                                                
  24598936.019   131633856.6842       1852.429          26.000                  
                                                
  25312509.074   133018072.383        2884.440          30.000                  
                                                
  23232826.004   122089308.609       -2548.535          31.000                  
                                                
 18  5  8 13 45 57.0030000  0 17G 4G14G 3G29G26R11R 1G31G32G16R 2G23
                                R12R 8R21G27G22
  21682620.363   113942955.869       -2431.610          42.000                  
                                                
  23017027.170   120955313.718       -2714.112          41.000                  
                                                
  22757328.179                       -1368.853          22.000                  
                                                
  25370726.089   133324098.165       -1683.271          35.000                  
                                                
  21385209.164   112380008.470       -1471.389          44.000                  
                                                
  21825408.489                       -3001.591          21.000                  
                                                
  21124886.606   112924581.000       -3419.635          46.000                  
                                                
  23365039.821   122784035.390       -2669.243          38.000                  
                                                
  25548517.458   134258211.244       -3790.600          36.000                  
                                                
  21209391.773   111455994.572         839.068          38.000                  
                                                
  20988218.408                        1356.651          20.000                  
                                                
  23488381.136   123432139.210        2261.505          33.000                  
                                                
  20864990.553   111456929.876        -466.042          31.000                  
                                                
  24636650.583   131928106.3972      -5023.804          28.000                  
                                                
  24598589.710   131632004.8302       1851.068          26.000                  
                                                
  25311963.650   133015188.536        2883.743          30.000                  
                                                
  23233306.844   122091858.181       -2550.565          30.000                  
                                                
 18  5  8 13 45 58.0030000  0 16G 4G14G29G26R11R 1G31G32G16R 2G23R12
                                R 8R21G27G22
  21683083.832   113945387.616       -2432.275          43.000                  
                                                
  23017544.142   120958028.177       -2714.580          41.000                  
                                                
  25371046.589   133325780.939       -1683.695          35.000                  
                                                
  21385489.328   112381480.249       -1472.127          44.000                  
                                                
  21825969.697                       -3007.105          21.000                  
                                                
  21125526.409   112928000.924       -3420.364          45.000                  
                                                
  23365548.076   122786704.725       -2669.553          37.000                  
                                                
  25549238.676   134262001.816       -3790.575          35.000                  
                                                
  21209232.810   111455155.740         838.477          38.000                  
                                                
  20987962.108                        1367.919          18.000                  
                                                
  23487951.564   123429877.635        2261.189          33.000                  
                                                
  20865083.589   111457396.423        -467.059          31.000                  
                                                
  24637588.549   131933130.2982      -5024.018          28.000                  
                                                
  24598244.100                        1851.111          26.000                  
                                                
  25311410.932   133012304.784        2883.391          30.000                  
                                                
  23233791.027   122094408.304       -2550.271          31.000                  
                                                
 18  5  8 13 45 59.0030000  0 17G 4G14G 3G29G26R11R 1G31G32G16R 2G23
                                R12R 8R21G27G22
  21683547.510   113947820.408       -2433.551          43.000                  
                                                
  23018061.314   120960743.534       -2716.068          42.000                  
                                                
  22757845.508                       -1390.194          22.000                  
                                                
  25371367.263   133327464.794       -1684.445          35.000                  
                                                
  21385769.953   112382953.110       -1473.736          44.000                  
                                                
  21826533.313                       -2999.802          20.000                  
                                                
  21126166.195   112931422.026       -3421.864          45.000                  
                                                
  23366056.488   122789374.649       -2670.533          37.000                  
                                                
  25549960.469   134265793.074       -3791.552          35.000                  
                                                
  21209073.935   111454318.083         836.800          38.000                  
                                                
  20987706.716                        1350.990          19.000                  
                                                
  23487521.869   123427616.742        2259.328          33.000                  
                                                
  20865169.732   111457863.970        -468.963          31.000                  
                                                
  24638527.354   131938154.9412      -5024.884          28.000                  
                                                
  24597898.184                        1850.050          25.000                  
                                                
  25310859.540   133009421.520        2882.530          30.000                  
                                                
  23234278.603   122096959.401       -2551.172          30.000                  
                                                
 18  5  8 13 46  0.0030000  0 17G 4G14G 3G29G26R11R 1G31G32G16R 2G23
                                R12R 8R21G27G22
  21684011.171   113950254.376       -2434.491          43.000                  
                                                
  23018578.294   120963459.903       -2716.931          41.000                  
                                                
  22758104.461                       -1378.075          22.000                  
                                                
  25371687.963   133329149.876       -1685.476          35.000                  
                                                
  21386050.396   112384427.158       -1474.556          44.000                  
                                                
  21827098.185                       -3006.590          22.000                  
                                                
  21126806.418   112934844.441       -3423.025          45.000                  
                                                
  23366565.258   122792045.290       -2671.030          37.000                  
                                                
  25550682.306   134269585.174       -3792.487          35.000                  
                                                
  21208915.173   111453481.721         835.635          38.000                  
                                                
  20987453.277                        1356.444          20.000                  
                                                
  23487090.273   123425356.561        2259.395          33.000                  
                                                
  20865257.236   111458332.481        -469.187          31.000                  
                                                
  24639465.696   131943180.3902      -5025.964          28.000                  
                                                
  24597552.225                        1847.900          24.000                  
                                                
  25310311.909   133006538.789        2882.263          30.000                  
                                                
  23234763.109   122099511.571       -2552.235          30.000                  
                                                
 18  5  8 13 46  1.0030000  0 17G 4G14G 3G29G26R11R 1G31G32G16R 2G23
                                R12R 8R21G27G22
  21684475.015   113952689.390       -2435.223          44.000                  
                                                
  23019095.641   120966177.151       -2717.242          41.000                  
                                                
  22758364.259                       -1388.881          23.000                  
                                                
  25372008.907   133330836.085       -1686.356          35.000                  
                                                
  21386330.803   112385902.288       -1475.465          44.000                  
                                                
  21827662.691                       -2998.149          24.000                  
                                                
  21127446.788   112938268.057       -3424.157          45.000                  
                                                
  23367073.696   122794716.502       -2671.313          36.000                  
                                                
  25551404.379   134273377.979       -3793.071          35.000                  
                                                
  21208756.637   111452646.509         834.930          38.000                  
                                                
  20987199.682                        1354.241          21.000                  
                                                
  23486660.309   123423097.131        2259.188          33.000                  
                                                
  20865344.007   111458801.997        -469.668          31.000                  
                                                
  24640403.654   131948206.398       -5025.916          28.000                  
                                                
  24597207.191                        1847.427          22.000                  
                                                
  25309764.033   133003656.531        2881.368          30.000                  
                                                
  23235254.786   122102064.594       -2552.918          29.000                  
                                                
 18  5  8 13 46  2.0030000  0 17G 4G14G 3G29G26R11R 1G31G32G16R 2G23
                                R12R 8R21G27G22
  21684939.017   113955124.809       -2435.022          44.000                  
                                                
  23019612.708   120968894.634       -2717.181          41.000                  
                                                
  22758624.015                       -1392.522          23.000                  
                                                
  25372329.991   133332522.681       -1685.745          35.000                  
                                                
  21386611.804   112387377.813       -1475.114          44.000                  
                                                
  21828226.839                       -3006.011          24.000                  
                                                
  21128087.194   112941692.174       -3423.688          45.000                  
                                                
  23367581.672   122797387.655       -2670.746          36.000                  
                                                
  25552126.381   134277170.812       -3792.361          35.000                  
                                                
  21208598.390   111451811.818         834.518          38.000                  
                                                
  20986945.860                        1353.510          20.000                  
                                                
  23486230.754   123420837.735        2259.587          34.000                  
                                                
  20865433.352   111459271.773        -468.942          31.000                  
                                                
  24641342.815   131953232.381       -5025.165          27.000                  
                                                
  24596862.156                        1846.527          20.000                  
                                                
  25309212.763   133000773.934        2884.276          30.000                  
                                                
  23235745.207   122104617.989       -2553.500          28.000                  
                                                
 18  5  8 13 46  3.0030000  0 17G 4G14G 3G29G26R11R 1G31G32G16R 2G23
                                R12R 8R21G27G22
  21685403.088   113957560.769       -2436.670          44.000                  
                                                
  23020129.653   120971612.503       -2718.565          41.000                  
                                                
  22758884.668                       -1376.653          25.000                  
                                                
  25372651.442   133334209.886       -1687.751          35.000                  
                                                
  21386892.735   112388853.913       -1476.723          44.000                  
                                                
  21828789.338                       -3002.144          23.000                  
                                                
  21128727.879   112945116.975       -3425.475          45.000                  
                                                
  23368089.839   122800058.863       -2672.012          36.000                  
                                                
  25552848.131   134280963.841       -3793.806          35.000                  
                                                
  21208440.204   111450977.755         833.375          38.000                  
                                                
  20986690.930                        1352.172          20.000                  
                                                
  23485800.423   123418578.422        2259.244          34.000                  
                                                
  20865521.711   111459741.995        -470.864          31.000                  
                                                
  24642281.847   131958258.418       -5025.940          27.000                  
                                                
  24596516.485                        1846.375          18.000                  
                                                
  25308665.018   132997891.371        2882.618          30.000                  
                                                
  23236231.169   122107171.681       -2554.265          28.000                  
                                                
 18  5  8 13 46  4.0030000  0 16G 4G14G29G26R11R 1G31G32G16R 2G23R12
                                R 8R21G27G22
  21685867.307   113959997.951       -2437.665          45.000                  
                                                
  23020646.913   120974331.434       -2719.413          41.000                  
                                                
  25372973.128   133335898.376       -1689.108          35.000                  
                                                
  21387173.666   112390331.266       -1477.889          44.000                  
                                                
  21829352.552                       -3009.512          22.000                  
                                                
  21129368.668   112948543.132       -3426.515          45.000                  
                                                
  23368598.670   122802730.770       -2671.925          36.000                  
                                                
  25553570.186   134284757.740       -3794.271          35.000                  
                                                
  21208282.419   111450145.045         832.200          38.000                  
                                                
  20986433.740                        1369.400          20.000                  
                                                
  23485370.860   123416320.045        2258.038          34.000                  
                                                
  20865609.992   111460213.278        -471.274          31.000                  
                                                
  24643220.171   131963285.278       -5026.825          27.000                  
                                                
  24596172.462                        1846.375          16.000                  
                                                
  25308115.327   132995009.443        2882.057          30.000                  
                                                
  23236714.479   122109726.557       -2555.284          27.000                  
                                                
 18  5  8 13 46  5.0030000  0 17G 4G14G 3G29G26R11R 1G31G32G16R 2G23
                                R12R 8R21G27G22
  21686331.675   113962435.819       -2438.062          45.000                  
                                                
  23021164.408   120977050.866       -2719.406          41.000                  
                                                
  22759410.810                       -1387.279          26.000                  
                                                
  25373294.875   133337587.559       -1689.462          35.000                  
                                                
  21387454.877   112391809.293       -1478.095          44.000                  
                                                
  21829919.903                       -3011.528          21.000                  
                                                
  21130009.999   112951970.104       -3427.001          44.000                  
                                                
  23369107.554   122805402.946       -2671.866          35.000                  
                                                
  25554292.582   134288551.966       -3794.081          35.000                  
                                                
  21208124.407   111449313.118         831.872          38.000                  
                                                
  20986178.871                        1352.165          20.000                  
                                                
  23484941.253   123414061.943        2258.545          34.000                  
                                                
  20865698.386   111460685.189        -471.988          31.000                  
                                                
  24644158.094   131968312.425       -5027.301          26.000                  
                                                
  24595825.962                        1846.375          10.000                  
                                                
  25307563.089   132992127.514        2883.276          30.000                  
                                                
  23237196.454   122112281.956       -2555.543          27.000                  
                                                
 18  5  8 13 46  6.0030000  0 17G 4G14G 3G29G26R11R 1G31G32G16R 2G23
                                R12R 8R21G27G22
  21686795.685   113964874.281       -2438.776          45.000                  
                                                
  23021682.173   120979770.748       -2719.853          41.000                  
                                                
  22759674.963                       -1387.390          27.000                  
                                                
  25373616.683   133339277.382       -1690.233          34.000                  
                                                
  21387736.226   112393287.954       -1478.938          44.000                  
                                                
  21830484.792                       -3014.906          21.000                  
                                                
  21130650.814   112955397.807       -3427.956          44.000                  
                                                
  23369616.393   122808075.230       -2672.273          34.000                  
                                                
  25555014.480   134292346.419       -3794.465          35.000                  
                                                
  21207966.570   111448481.885         831.122          38.000                  
                                                
  20985921.733                        1347.055          21.000                  
                                                
  23484511.838   123411804.088        2257.321          34.000                  
                                                
  20865786.859   111461157.523        -472.823          31.000                  
                                                
  24645098.198   131973339.731       -5027.503          26.000                  
                                                
  24595479.314                        1846.375          11.000                  
                                                
  25307015.205   132989245.623        2881.889          29.000                  
                                                
  23237680.515   122114837.745       -2555.526          28.000                  
                                                
 18  5  8 13 46  7.0030000  0 17G 4G14G 3G29G26R11R 1G31G32G16R 2G23
                                R12R 8R21G27G22
  21687260.105   113967313.010       -2439.136          45.000                  
                                                
  23022199.816   120982490.722       -2720.332          41.000                  
                                                
  22759937.850                       -1387.286          27.000                  
                                                
  25373938.430   133340967.544       -1690.868          34.000                  
                                                
  21388017.690   112394766.909       -1479.531          44.000                  
                                                
  21831050.895                       -3011.137          22.000                  
                                                
  21131291.918   112958825.921       -3428.559          44.000                  
                                                
  23370125.023   122810747.357       -2672.570          34.000                  
                                                
  25555736.465   134296140.830       -3794.829          35.000                  
                                                
  21207808.785   111447651.044         830.319          38.000                  
                                                
  20985671.558                        1353.862          22.000                  
                                                
  23484082.004   123409546.130        2257.341          34.000                  
                                                
  20865875.445   111461630.094        -472.967          31.000                  
                                                
  24646036.985   131978366.857       -5027.490          26.000                  
                                                
  24595135.318                        1847.863          17.000                  
                                                
  25306465.854   132986363.433        2881.399          29.000                  
                                                
  23238167.175   122117393.766       -2556.099          29.000                  
                                                
 18  5  8 13 46  8.0030000  0 17G 4G14G 3G29G26R11R 1G31G32G16R 2G23
                                R12R 8R21G27G22
  21687724.630   113969752.936       -2440.533          45.000                  
                                                
  23022717.512   120985211.706       -2721.319          41.000                  
                                                
  22760203.224   119605669.9393      -1390.389          27.000                  
                                                
  25374260.753   133342658.868       -1691.234          34.000                  
                                                
  21388299.458   112396247.053       -1480.468          44.000                  
                                                
  21831617.390                       -3003.008          23.000                  
                                                
  21131932.917   112962255.352       -3430.046          44.000                  
                                                
  23370633.619   122813420.123       -2672.907          35.000                  
                                                
  25556458.729   134299936.054       -3794.969          35.000                  
                                                
  21207651.096   111446821.492         829.052          38.000                  
                                                
  20985416.157                        1350.434          24.000                  
                                                
  23483652.894   123407288.935        2256.896          34.000                  
                                                
  20865965.174   111462103.672        -473.530          30.000                  
                                                
  24646975.100   131983394.765       -5028.101          26.000                  
                                                
  24594790.030                        1849.195          20.000                  
                                                
  25305917.787   132983481.716        2881.683          29.000                  
                                                
  23238646.908   122119950.868       -2557.229          30.000                  
                                                
 18  5  8 13 46  9.0030000  0 17G 4G14G 3G29G26R11R 1G31G32G16R 2G23
                                R12R 8R21G27G22
  21688188.997   113972193.492       -2440.350          44.000                  
                                                
  23023235.967   120987933.168       -2721.319          43.000                  
                                                
  22760468.564   119607060.0092      -1390.021          28.000                  
                                                
  25374582.744   133344350.943       -1692.295          34.000                  
                                                
  21388581.428   112397727.856       -1480.798          44.000                  
                                                
  21832183.074                       -3010.442          23.000                  
                                                
  21132574.378   112965685.548       -3430.285          44.000                  
                                                
  23371142.170   122816093.078       -2672.915          35.000                  
                                                
  25557180.985   134303731.582       -3795.064          34.000                  
                                                
  21207493.442   111445992.673         828.731          37.000                  
                                                
  20985163.521                        1349.831          24.000                  
                                                
  23483223.575   123405032.040        2257.267          34.000                  
                                                
  20866057.520   111462577.851        -474.427          30.000                  
                                                
  24647913.730   131988422.881       -5027.942          26.000                  
                                                
  24594446.601                        1843.316          22.000                  
                                                
  25305372.363   132980600.128        2881.610          29.000                  
                                                
  23239129.711   122122508.463       -2558.292          30.000                  
                                                
 18  5  8 13 46 10.0030000  0 17G 4G14G 3G29G26R11R 1G31G32G16R 2G23
                                R12R 8R21G27G22
  21688653.697   113974634.432       -2441.626          44.000                  
                                                
  23023754.578   120990654.813       -2721.925          43.000                  
                                                
  22760733.118   119608450.5102      -1391.187          28.000                  
                                                
  25374904.753   133346043.372       -1693.522          34.000                  
                                                
  21388863.781   112399209.043       -1481.592          44.000                  
                                                
  21832746.436                       -3003.105          22.000                  
                                                
  21133215.534   112969116.230       -3431.216          44.000                  
                                                
  23371651.185   122818765.894       -2673.227          34.000                  
                                                
  25557903.241   134307527.063       -3794.751          34.000                  
                                                
  21207335.806   111445164.334         827.770          38.000                  
                                                
  20984911.470                        1348.763          24.000                  
                                                
  23482794.274   123402775.155        2256.072          35.000                  
                                                
  20866147.127   111463148.2383       -475.346          30.000                  
                                                
  24648854.899   131993450.940       -5028.503          26.000                  
                                                
  24594104.071                        1844.429          21.000                  
                                                
  25304821.590   132977718.257        2881.467          29.000                  
                                                
  23239614.025   122125066.181       -2558.416          31.000                  
                                                
