     2.10           OBSERVATION DATA    M (MIXED)           RINEX VERSION / TYPE
CONVBIN 2.4.3                           20180516 164510 UTC PGM / RUN BY / DATE 
log: May8_4.ubx                                             COMMENT             
format: u-blox                                              COMMENT             
                                                            MARKER NAME         
                                                            MARKER NUMBER       
                                                            OBSERVER / AGENCY   
                                                            REC # / TYPE / VERS 
                                                            ANT # / TYPE        
   654636.4079 -5210237.3839  3608419.9979                  APPROX POSITION XYZ 
        0.0000        0.0000        0.0000                  ANTENNA: DELTA H/E/N
     1     1                                                WAVELENGTH FACT L1/2
     8    C1    L1    D1    S1    C2    L2    D2    S2      # / TYPES OF OBSERV 
  2018     5     8    15     0   36.9950000     GPS         TIME OF FIRST OBS   
  2018     5     8    15     1   28.9950000     GPS         TIME OF LAST OBS    
                                                            END OF HEADER       
 18  5  8 15  0 36.9950000  0  9G 4G31R11G26R23R21R22G22R12
  21658589.197   113816637.587       -3490.983          36.000                  
                                                
  22900953.007   120345295.2272      -2547.967          28.000                  
                                                
  21624244.595   115553387.453       -2787.314          35.000                  
                                                
  20649519.859   108513858.374       -2837.429          27.000                  
                                                
  22952958.871   122782816.3322       3794.873          26.000                  
                                                
  21396779.567   114498431.713        -919.167          29.000                  
                                                
  20669698.973   110336135.950        2476.517          34.000                  
                                                
  23063121.371   121197532.868       -3013.081          31.000                  
                                                
  19031055.234   101660400.318       -1371.146          31.000                  
                                                
 18  5  8 15  0 37.9950000  0  9G 4G31R11G26R23R21R22G22R12
  21659253.814   113820129.004       -3491.771          33.000                  
                                                
  22901438.944   120347843.7302      -2548.502          28.000                  
                                                
  21624765.990   115556174.930       -2787.831          36.000                  
                                                
  20650062.928   108516695.826       -2838.218          27.000                  
                                                
  22952250.977   122779021.8952       3794.467          24.000                  
                                                
  21396949.523   114499351.872        -920.953          29.000                  
                                                
  20669234.841   110333660.140        2474.747          34.000                  
                                                
  23063697.368   121200546.123       -3012.867          32.000                  
                                                
  19031310.862   101661771.752       -1371.847          32.000                  
                                                
 18  5  8 15  0 38.9950000  0  8G 4G31R11G26R21R22G22R12
  21659918.676   113823621.254       -3492.672          34.000                  
                                                
  22901915.273   120350393.0982      -2549.781          29.000                  
                                                
  21625287.472   115558963.134       -2788.888          36.000                  
                                                
  20650602.689   108519534.171       -2837.882          27.000                  
                                                
  21397120.387   114500273.510        -922.087          28.000                  
                                                
  20668770.857   110331185.584        2474.163          34.000                  
                                                
  23064273.897   121203560.197       -3013.934          31.000                  
                                                
  19031567.511   101663144.109       -1372.625          33.000                  
                                                
 18  5  8 15  0 39.9950000  0  8G 4G31R11G26R21R22G22R12
  21660583.277   113827113.894       -3493.331          33.000                  
                                                
  22902409.987   120352942.7042      -2549.700          29.000                  
                                                
  21625809.452   115561751.550       -2788.265          36.000                  
                                                
  20651141.299   108522373.076       -2839.333          27.000                  
                                                
  21397286.757   114501196.214        -922.722          27.000                  
                                                
  20668307.048   110328711.862        2473.387          34.000                  
                                                
  23064848.829   121206574.370       -3014.539          30.000                  
                                                
  19031823.244   101664516.836       -1372.566          33.000                  
                                                
 18  5  8 15  0 40.9950000  0  9G 4G31R11G26R21R22G22R12R 2
  21661248.444   113830607.059       -3493.671          33.000                  
                                                
  22902895.915   120355492.8982      -2551.411          30.000                  
                                                
  21626331.659   115564540.398       -2789.379          36.000                  
                                                
  20651681.898   108525212.584       -2840.196          28.000                  
                                                
  21397457.673   114502120.183        -924.102          27.000                  
                                                
  20667843.640   110326239.150        2471.657          34.000                  
                                                
  23065421.275   121209588.906       -3015.038          31.000                  
                                                
  19032074.283   101665890.199       -1373.792          33.000                  
                                                
  18619239.878                       -2159.970          27.000                  
                                                
 18  5  8 15  0 41.9950000  0  9G 4G31R11G26R21R22G22R12R 2
  21661913.515   113834100.880       -3494.237          32.000                  
                                                
  22903386.894   120358043.6012      -2549.913          30.000                  
                                                
  21626853.839   115567329.766       -2789.746          36.000                  
                                                
  20652225.271   108528052.729       -2839.862          26.000                  
                                                
  21397632.167   114503045.665        -926.139          27.000                  
                                                
  20667380.084   110323767.516        2471.683          34.000                  
                                                
  23065997.097   121212603.984       -3015.298          31.000                  
                                                
  19032336.351   101667264.302       -1374.157          33.000                  
                                                
  18619650.238    99357917.5892      -2160.810          27.000                  
                                                
 18  5  8 15  0 42.9950000  0  9G 4G31R11G26R21R22G22R12R 2
  21662578.438   113837594.564       -3493.367          32.000                  
                                                
  22903872.438   120360594.205       -2549.387          30.000                  
                                                
  21627375.871   115570118.866       -2788.650          36.000                  
                                                
  20652767.537   108530893.047       -2840.422          26.000                  
                                                
  21397806.922   114503971.770        -926.361          27.000                  
                                                
  20666916.257   110321296.239        2471.278          34.000                  
                                                
  23066571.855   121215618.758       -3013.325          30.000                  
                                                
  19032591.700   101668638.334       -1374.450          33.000                  
                                                
  18620058.285    99360123.7623      -2161.411          27.000                  
                                                
 18  5  8 15  0 43.9950000  0  9G 4G31R11G26R21R22G22R12R 2
  21663242.873   113841088.195       -3493.664          32.000                  
                                                
  22904357.763   120363144.710       -2550.436          29.000                  
                                                
  21627897.929   115572907.750       -2788.404          36.000                  
                                                
  20653307.429   108533733.292       -2840.437          27.000                  
                                                
  21397982.297   114504898.464        -927.374          27.000                  
                                                
  20666453.015   110318825.321        2470.985          34.000                  
                                                
  23067145.696   121218633.360       -3014.564          31.000                  
                                                
  19032845.461   101670012.337       -1373.523          32.000                  
                                                
  18620468.827    99362285.6402      -2162.002          27.000                  
                                                
 18  5  8 15  0 44.9950000  0  9G 4G31R11G26R21R22G22R12R 2
  21663907.473   113844581.412       -3492.707          33.000                  
                                                
  22904846.596   120365694.847       -2550.028          31.000                  
                                                
  21628419.856   115575696.179       -2788.322          36.000                  
                                                
  20653850.864   108536573.333       -2840.515          27.000                  
                                                
  21398155.220   114505823.3103       -926.958          27.000                  
                                                
  20665989.607   110316354.482        2470.449          35.000                  
                                                
  23067719.207   121221647.449       -3013.867          31.000                  
                                                
  19033106.010   101671386.022       -1373.964          32.000                  
                                                
  18620876.229    99364447.8342      -2162.861          26.000                  
                                                
 18  5  8 15  0 45.9950000  0 10G 4G31R11G26R21R22G22R12R 3R 2
  21664572.222   113848073.967       -3491.777          32.000                  
                                                
  22905331.581   120368244.086       -2548.960          31.000                  
                                                
  21628941.269   115578483.658       -2786.954          36.000                  
                                                
  20654394.185   108539412.642       -2838.542          28.000                  
                                                
  21398332.793   114506750.3212       -927.195          28.000                  
                                                
  20665526.120   110313883.335        2471.018          35.000                  
                                                
  23068292.979   121224660.610       -3012.566          31.000                  
                                                
  19033357.799   101672759.033       -1373.095          32.000                  
                                                
  19909537.574                        1896.160          26.000                  
                                                
  18621273.029                       -2162.341          25.000                  
                                                
 18  5  8 15  0 46.9950000  0 10G 4G31R11G26R21R22G22R12R 3R 2
  21665236.569   113851565.709       -3491.706          31.000                  
                                                
  22905815.720   120370792.539       -2548.214          31.000                  
                                                
  21629462.943   115581270.164       -2786.496          36.000                  
                                                
  20654935.090   108542251.349       -2839.132          28.000                  
                                                
  21398509.075   114507677.2322       -927.459          28.000                  
                                                
  20665062.346   110311411.821        2471.422          35.000                  
                                                
  23068871.078   121227672.870       -3012.729          31.000                  
                                                
  19033616.010   101674131.338       -1372.141          32.000                  
                                                
  19909192.531                        1895.745          26.000                  
                                                
  18621671.444                       -2162.633          25.000                  
                                                
 18  5  8 15  0 47.9950000  0 10G 4G31R11G26R21R22G22R12R 3R 2
  21665900.942   113855057.507       -3492.138          31.000                  
                                                
  22906302.581   120373340.968       -2548.312          31.000                  
                                                
  21629984.487   115584056.580       -2786.742          36.000                  
                                                
  20655474.005   108545090.072       -2839.762          28.000                  
                                                
  21398682.661   114508604.8502       -928.318          27.000                  
                                                
  20664598.563   110308940.801        2470.205          36.000                  
                                                
  23069442.634   121230684.980       -3012.675          32.000                  
                                                
  19033874.980   101675503.702       -1372.983          32.000                  
                                                
  19908843.344                        1894.229          27.000                  
                                                
  18622070.975                       -2163.864          24.000                  
                                                
 18  5  8 15  0 48.9950000  0 10G 4G31R11G26R21R22G22R12R 3R 2
  21666565.656   113858550.550       -3493.962          31.000                  
                                                
  22906782.837   120375890.622       -2550.392          30.000                  
                                                
  21630506.248   115586844.137       -2788.684          36.000                  
                                                
  20656013.234   108547930.223       -2841.126          28.000                  
                                                
  21398856.980                        -931.854          26.000                  
                                                
  20664135.539   110306471.439        2468.603          35.000                  
                                                
  23070014.608   121233698.181       -3014.206          32.000                  
                                                
  19034133.898   101676877.371       -1374.756          33.000                  
                                                
  19908489.994                        1892.026          26.000                  
                                                
  18622472.854                       -2165.781          23.000                  
                                                
 18  5  8 15  0 49.9950000  0 10G 4G31R11G26R21R22G22R12R 3R 2
  21667230.047   113862044.737       -3495.274          31.000                  
                                                
  22907270.754   120378441.390       -2551.282          31.000                  
                                                
  21631028.053   115589632.718       -2788.504          36.000                  
                                                
  20656554.644   108550771.638       -2842.024          29.000                  
                                                
  21399031.229                        -932.189          26.000                  
                                                
  20663672.296   110304003.780        2466.812          35.000                  
                                                
  23070585.867   121236712.435       -3014.757          32.000                  
                                                
  19034387.440   101678252.294       -1375.108          32.000                  
                                                
  19908139.123                        1892.101          26.000                  
                                                
  18622878.013                       -2166.131          23.000                  
                                                
 18  5  8 15  0 50.9950000  0 10G 4G31R11G26R21R22G22R12R 3R 2
  21667894.970   113865539.245       -3493.972          31.000                  
                                                
  22907760.093   120380992.452       -2551.136          31.000                  
                                                
  21631550.111   115592421.554       -2788.500          35.000                  
                                                
  20657094.458   108553613.416       -2841.987          29.000                  
                                                
  21399206.639                        -932.258          26.000                  
                                                
  20663209.438   110301536.856        2466.708          35.000                  
                                                
  23071159.229   121239726.853       -3014.547          31.000                  
                                                
  19034646.393   101679627.562       -1374.062          33.000                  
                                                
  19907784.046                        1890.691          25.000                  
                                                
  18623283.539                       -2167.944          22.000                  
                                                
 18  5  8 15  0 51.9950000  0 11G 4G31R11G26R21R22G22R12R 3R 2G 8
  21668559.754   113869033.862       -3494.552          32.000                  
                                                
  22908245.593   120383543.519       -2551.097          30.000                  
                                                
  21632071.925   115595210.256       -2787.929          35.000                  
                                                
  20657630.354   108556455.414       -2842.208          30.000                  
                                                
  21399384.308                        -932.417          25.000                  
                                                
  20662746.519   110299070.432        2466.195          35.000                  
                                                
  23071730.218   121242741.166       -3014.042          31.000                  
                                                
  19034906.366   101681003.018       -1375.444          33.000                  
                                                
  19907432.084                        1890.521          25.000                  
                                                
  18623687.729                       -2169.551          22.000                  
                                                
  22468910.771   118074922.2272       3476.306          28.000                  
                                                
 18  5  8 15  0 52.9950000  0 11G 4G31R11G26R21R22G22R12R 3R 2G 8
  21669224.729   113872529.004       -3496.008          32.000                  
                                                
  22908732.018   120386095.085       -2552.174          30.000                  
                                                
  21632594.106   115597999.348       -2789.221          35.000                  
                                                
  20658166.564   108559298.007       -2843.339          31.000                  
                                                
  21399558.889                        -936.390          24.000                  
                                                
  20662284.262   110296605.038        2464.578          35.000                  
                                                
  23072305.028   121245755.845       -3014.809          31.000                  
                                                
  19035164.202   101682379.023       -1376.125          32.000                  
                                                
  19907079.197                        1888.812          25.000                  
                                                
  18624096.344                       -2169.405          22.000                  
                                                
  22468241.450   118071446.1302       3475.964          28.000                  
                                                
 18  5  8 15  0 53.9950000  0 11G 4G31R11G26R21R22G22R12R 3R 2G 8
  21669889.678   113876024.540       -3496.155          31.000                  
                                                
  22909217.710   120388647.006       -2551.652          31.000                  
                                                
  21633116.242   115600788.727       -2789.501          36.000                  
                                                
  20658715.208   108562141.081       -2843.250          30.000                  
                                                
  21399732.545                        -939.045          23.000                  
                                                
  20661821.456   110294140.525        2463.815          36.000                  
                                                
  23072878.756   121248770.816       -3015.610          32.000                  
                                                
  19035422.936   101683755.535       -1376.755          32.000                  
                                                
  19906726.789                        1886.694          25.000                  
                                                
  18624504.478                       -2170.091          23.000                  
                                                
  22467579.738   118067970.4732       3475.268          28.000                  
                                                
 18  5  8 15  0 54.9950000  0 10G 4G31R11G26R22G22R12R 3R 2G 8
  21670554.767   113879520.217       -3495.819          31.000                  
                                                
  22909702.922   120391199.038       -2552.021          31.000                  
                                                
  21633638.353   115603578.126       -2789.479          35.000                  
                                                
  20659254.106   108564984.439       -2843.814          30.000                  
                                                
  20661359.034   110291676.578        2463.705          36.000                  
                                                
  23073456.393   121251785.775       -3015.458          32.000                  
                                                
  19035678.957   101685132.273       -1377.770          31.000                  
                                                
  19906374.164                        1887.455          23.000                  
                                                
  18624912.770                       -2173.212          24.000                  
                                                
  22466914.841   118064494.8822       3475.433          27.000                  
                                                
 18  5  8 15  0 55.9950000  0 10G 4G31R11G26R22G22R12R 3R 2G 8
  21671219.882   113883015.901       -3495.826          32.000                  
                                                
  22910183.885   120393751.000       -2551.624          31.000                  
                                                
  21634160.542   115606367.345       -2789.150          35.000                  
                                                
  20659793.221   108567827.882       -2843.195          30.000                  
                                                
  20660896.734   110289213.089        2463.291          37.000                  
                                                
  23074026.178   121254800.584       -3015.122          32.000                  
                                                
  19035935.467   101686509.009       -1377.485          32.000                  
                                                
  19906019.855                        1883.925          23.000                  
                                                
  18625320.223                       -2172.900          25.000                  
                                                
  22466257.570   118061019.2042       3475.250          27.000                  
                                                
 18  5  8 15  0 56.9950000  0  9G 4G31R11G26R22G22R12R 2G 8
  21671884.980   113886510.701       -3494.453          32.000                  
                                                
  22910673.599   120396302.149       -2551.166          31.000                  
                                                
  21634682.425   115609155.587       -2787.839          35.000                  
                                                
  20660336.857   108570670.579       -2842.009          30.000                  
                                                
  20660434.487   110286749.122        2464.393          37.000                  
                                                
  23074599.365   121257814.327       -3012.412          32.000                  
                                                
  19036192.273   101687884.886       -1374.958          32.000                  
                                                
  18625729.143                       -2172.258          26.000                  
                                                
  22465597.035   118057542.6672       3477.063          27.000                  
                                                
 18  5  8 15  0 57.9950000  0  9G 4G31R11G26R22G22R12R 2G 8
  21672549.519   113890004.514       -3493.607          32.000                  
                                                
  22911154.536   120398852.070       -2549.487          31.000                  
                                                
  21635203.559   115611942.629       -2786.984          34.000                  
                                                
  20660876.592   108573512.288       -2841.132          30.000                  
                                                
  20659972.170   110284284.609        2464.469          37.000                  
                                                
  23075171.662   121260826.933       -3011.724          32.000                  
                                                
  19036446.112   101689259.894       -1375.319          31.000                  
                                                
  18626139.511    99392555.6673      -2172.105          26.000                  
                                                
  22464936.728   118054065.0472       3477.637          27.000                  
                                                
 18  5  8 15  0 58.9950000  0  9G 4G31R11G26R22G22R12R 2G 8
  21673214.433   113893498.510       -3494.025          32.000                  
                                                
  22911643.482   120401402.277       -2549.824          31.000                  
                                                
  21635725.102   115614729.794       -2788.380          35.000                  
                                                
  20661417.383   108576354.375       -2842.848          31.000                  
                                                
  20659510.018   110281820.750        2463.287          37.000                  
                                                
  23075743.916   121263839.666       -3013.608          32.000                  
                                                
  19036707.150   101690635.086       -1374.708          31.000                  
                                                
  18626551.476    99394728.1932      -2172.737          26.000                  
                                                
  22464278.130   118050587.6082       3476.978          27.000                  
                                                
 18  5  8 15  0 59.9950000  0  9G 4G31R11G26R22G22R12R 2G 8
  21673879.365   113896993.444       -3494.687          32.000                  
                                                
  22912132.001   120403953.315       -2551.036          31.000                  
                                                
  21636246.899   115617517.688       -2788.396          34.000                  
                                                
  20661955.879   108579197.385       -2842.803          30.000                  
                                                
  20659048.102   110279358.250        2462.031          37.000                  
                                                
  23076317.810   121266853.090       -3013.536          32.000                  
                                                
  19036966.417   101692011.324       -1377.068          31.000                  
                                                
  18626960.570    99396902.4482      -2175.238          26.000                  
                                                
  22463615.790   118047111.0232       3476.154          26.000                  
                                                
 18  5  8 15  1  0.9950000  0 10G 4G31R11G26R22G22R12R 2G 8G16
  21674544.733   113900489.232       -3496.021          32.000                  
                                                
  22912617.082   120406505.174       -2551.804          30.000                  
                                                
  21636768.747   115620306.314       -2789.526          34.000                  
                                                
  20662499.619   108582041.427       -2844.135          30.000                  
                                                
  20658586.535   110276897.083        2460.359          37.000                  
                                                
  23076891.242   121269867.201       -3014.144          32.000                  
                                                
  19037225.413   101693388.430       -1377.197          31.000                  
                                                
  18627371.148    99399146.1923      -2175.638          26.000                  
                                                
  22462955.683   118043635.2492       3475.866          26.000                  
                                                
  18878503.246    99207203.5692      -1555.404          31.000                  
                                                
 18  5  8 15  1  1.9950000  0 10G 4G31R11G26R22G22R12R 2G 8G16
  21675209.805   113903985.117       -3495.814          32.000                  
                                                
  22913093.482   120409057.067       -2552.516          31.000                  
                                                
  21637290.779   115623094.890       -2788.620          34.000                  
                                                
  20663047.277   108584885.586       -2843.583          30.000                  
                                                
  20658125.256   110274436.422        2460.964          38.000                  
                                                
  23077464.935   121272881.274       -3013.875          32.000                  
                                                
  19037483.153   101694765.685       -1377.299          31.000                  
                                                
  18627779.945    99401322.8912      -2177.356          26.000                  
                                                
  22462294.538   118040159.4252       3476.605          25.000                  
                                                
  18878797.701    99208758.4822      -1555.018          31.000                  
                                                
 18  5  8 15  1  2.9950000  0 11G 4G31R11G26R21R22G22R12R 2G 8G16
  21675874.606   113907481.101       -3495.373          33.000                  
                                                
  22913581.713   120411609.003       -2551.305          31.000                  
                                                
  21637812.576   115625883.462       -2788.313          34.000                  
                                                
  20663585.834   108587730.066       -2844.382          31.000                  
                                                
  21401305.900                        -939.525          24.000                  
                                                
  20657664.422   110271976.398        2459.429          38.000                  
                                                
  23078038.402   121275895.389       -3014.558          32.000                  
                                                
  19037742.446   101696143.132       -1377.118          31.000                  
                                                
  18628190.645    99403500.3722      -2177.967          27.000                  
                                                
  22461634.824   118036683.8122       3475.952          25.000                  
                                                
  18879095.603    99210313.9212      -1555.585          31.000                  
                                                
 18  5  8 15  1  3.9950000  0 11G 4G31R11G26R21R22G22R12R 2G 8G16
  21676539.485   113910977.188       -3496.051          32.000                  
                                                
  22914061.663   120414160.990       -2551.603          30.000                  
                                                
  21638334.311   115628672.013       -2788.824          34.000                  
                                                
  20664131.250   108590574.677       -2844.861          31.000                  
                                                
  21401479.722                        -943.972          26.000                  
                                                
  20657203.169   110269516.830        2459.764          37.000                  
                                                
  23078611.781   121278909.342       -3013.833          32.000                  
                                                
  19038000.412   101697520.695       -1376.885          31.000                  
                                                
  18628602.417    99405678.6142      -2179.054          26.000                  
                                                
  22460973.251                        3474.675          25.000                  
                                                
  18879390.782    99211869.8642      -1555.951          31.000                  
                                                
 18  5  8 15  1  4.9950000  0 12G 4G31R11G26G 9R21R22G22R12R 2G 8G16
  21677204.766   113914473.320       -3496.665          33.000                  
                                                
  22914549.353   120416712.992       -2552.144          31.000                  
                                                
  21638856.151   115631460.448       -2788.394          34.000                  
                                                
  20664670.653   108593419.375       -2845.056          30.000                  
                                                
  21248975.088                        2758.214          25.000                  
                                                
  21401653.509   114524543.3463       -944.588          27.000                  
                                                
  20656741.977   110267057.789        2458.142          37.000                  
                                                
  23079185.605   121281923.217       -3014.547          32.000                  
                                                
  19038261.694   101698898.388       -1377.921          31.000                  
                                                
  18629011.485    99407857.5102      -2179.599          26.000                  
                                                
  22460312.830                        3475.226          24.000                  
                                                
  18879686.319    99213426.1382      -1556.094          31.000                  
                                                
 18  5  8 15  1  5.9950000  0 12G 4G31R11G26G 9R21R22G22R12R 2G 8G16
  21677870.274   113917969.952       -3497.243          33.000                  
                                                
  22915033.606   120419265.440       -2552.202          31.000                  
                                                
  21639377.947   115634249.224       -2789.056          34.000                  
                                                
  20665210.223   108596264.672       -2844.177          31.000                  
                                                
  21248451.485                        2757.408          25.000                  
                                                
  21401830.332   114525488.8522       -945.886          27.000                  
                                                
  20656281.152   110264599.699        2457.490          37.000                  
                                                
  23079759.098   121284937.388       -3013.850          32.000                  
                                                
  19038520.368   101700276.639       -1377.665          31.000                  
                                                
  18629420.074    99410037.5602      -2180.845          27.000                  
                                                
  22459651.982                        3474.402          24.000                  
                                                
  18879984.124    99214983.3982      -1557.664          31.000                  
                                                
 18  5  8 15  1  6.9950000  0 12G 4G31R11G26G 9R21R22G22R12R 2G 8G16
  21678535.554   113921466.915       -3496.750          33.000                  
                                                
  22915521.854   120421818.234       -2552.681          31.000                  
                                                
  21639899.892   115637038.183       -2788.431          34.000                  
                                                
  20665749.757   108599110.499       -2845.509          31.000                  
                                                
  21247927.132                        2756.115          25.000                  
                                                
  21402006.675   114526435.4712       -947.235          28.000                  
                                                
  20655820.169   110262142.398        2457.595          37.000                  
                                                
  23080333.044   121287951.802       -3013.703          32.000                  
                                                
  19038782.828   101701655.350       -1378.934          31.000                  
                                                
  18629830.093    99412218.5822      -2181.235          27.000                  
                                                
  22458992.599                        3475.204          23.000                  
                                                
  18880281.450    99216541.3352      -1557.564          32.000                  
                                                
 18  5  8 15  1  7.9950000  0 12G 4G31R11G26G 9R21R22G22R12R 2G 8G16
  21679200.827   113924963.462       -3496.661          34.000                  
                                                
  22916007.860   120424370.512       -2551.923          32.000                  
                                                
  21640421.828   115639826.628       -2788.807          34.000                  
                                                
  20666289.693   108601955.929       -2845.112          31.000                  
                                                
  21247403.521                        2757.028          26.000                  
                                                
  21402184.039   114527382.2632       -947.283          29.000                  
                                                
  20655359.728   110259685.109        2456.924          37.000                  
                                                
  23080906.319   121290965.651       -3013.783          32.000                  
                                                
  19039040.925   101703033.616       -1377.963          31.000                  
                                                
  18630238.367    99414399.8332      -2181.143          27.000                  
                                                
  22458332.231                        3475.762          23.000                  
                                                
  18880577.955    99218099.2782      -1558.297          31.000                  
                                                
 18  5  8 15  1  8.9950000  0 12G 4G31R11G26G 9R21R22G22R12R 2G 8G16
  21679866.291   113928459.973       -3497.320          34.000                  
                                                
  22916495.253   120426922.738       -2552.557          32.000                  
                                                
  21640943.843   115642614.865       -2788.324          35.000                  
                                                
  20666831.723   108604801.375       -2844.596          32.000                  
                                                
  21246878.182                        2757.207          25.000                  
                                                
  21402359.954   114528329.8182       -948.148          29.000                  
                                                
  20654899.356   110257228.240        2456.257          38.000                  
                                                
  23081483.790   121293979.295       -3013.382          32.000                  
                                                
  19039299.022   101704411.951       -1378.699          32.000                  
                                                
  18630645.000    99416581.393       -2182.562          27.000                  
                                                
  22457673.127                        3481.062          23.000                  
                                                
  18880874.391    99219657.5112      -1559.029          31.000                  
                                                
 18  5  8 15  1  9.9950000  0 12G 4G31R11G26G 9R21R22G22R12R 2G 8G16
  21680531.633   113931957.460       -3498.607          33.000                  
                                                
  22916981.634   120429475.878       -2553.313          32.000                  
                                                
  21641466.294   115645403.923       -2789.153          35.000                  
                                                
  20667372.296   108607648.011       -2847.173          31.000                  
                                                
  21246353.768                        2755.160          26.000                  
                                                
  21402543.443   114529279.0712       -950.252          30.000                  
                                                
  20654439.151   110254772.807        2454.983          38.000                  
                                                
  23082055.564   121296993.763       -3014.493          32.000                  
                                                
  19039557.102   101705791.285       -1378.567          32.000                  
                                                
  18631051.276                       -2183.217          26.000                  
                                                
  22457013.936                        3473.826          22.000                  
                                                
  18881171.297    99221217.1642      -1560.266          31.000                  
                                                
 18  5  8 15  1 10.9950000  0 12G 4G31R11G26G 9R21R22G22R12R 2G 8G16
  21681197.341   113935455.407       -3498.254          33.000                  
                                                
  22917467.414   120432029.493       -2554.071          33.000                  
                                                
  21641988.709   115648193.364       -2789.371          35.000                  
                                                
  20667913.026   108610495.215       -2848.017          32.000                  
                                                
  21245826.414   111647586.7302       2754.879          26.000                  
                                                
  21402725.798   114530229.5432       -951.788          31.000                  
                                                
  20653979.049   110252318.344        2454.101          37.000                  
                                                
  23082627.573   121300008.582       -3015.200          32.000                  
                                                
  19039813.882   101707171.240       -1379.653          32.000                  
                                                
  18631459.751                       -2186.251          26.000                  
                                                
  22456352.896                        3462.179          22.000                  
                                                
  18881468.553    99222777.6362      -1561.215          31.000                  
                                                
 18  5  8 15  1 11.9950000  0 12G 4G31R11G26G 9R21R22G22R12R 2G 8G16
  21681862.962   113938953.426       -3498.578          33.000                  
                                                
  22917953.577   120434583.036       -2552.960          33.000                  
                                                
  21642511.256   115650982.670       -2788.940          35.000                  
                                                
  20668454.428   108613342.457       -2847.205          32.000                  
                                                
  21245301.721   111644831.4542       2755.773          26.000                  
                                                
  21402900.676   114531180.7072       -951.813          32.000                  
                                                
  20653518.843   110249864.334        2453.948          37.000                  
                                                
  23083202.008   121303023.211       -3013.933          32.000                  
                                                
  19040075.479   101708551.266       -1380.311          32.000                  
                                                
  18631869.404                       -2186.912          25.000                  
                                                
  22455695.660                        3473.700          22.000                  
                                                
  18881765.469    99224338.5322      -1561.045          30.000                  
                                                
 18  5  8 15  1 12.9950000  0 12G 4G31R11G26G 9R21R22G22R12R 2G 8G16
  21682528.758   113942450.969       -3497.883          34.000                  
                                                
  22918439.748   120437136.154       -2552.913          33.000                  
                                                
  21643033.218   115653771.458       -2789.079          35.000                  
                                                
  20668996.850   108616189.387       -2847.429          31.000                  
                                                
  21244776.373   111642076.0782       2755.017          26.000                  
                                                
  21403080.177   114532131.723        -951.720          31.000                  
                                                
  20653058.786   110247410.348        2453.909          37.000                  
                                                
  23083771.924   121306037.332       -3014.067          32.000                  
                                                
  19040334.065   101709930.897       -1379.313          31.000                  
                                                
  18632279.501                       -2185.985          25.000                  
                                                
  22455034.270                        3484.495          21.000                  
                                                
  18882064.260    99225899.3762      -1560.798          30.000                  
                                                
 18  5  8 15  1 13.9950000  0 12G 4G31R11G26G 9R21R22G22R12R 2G 8G16
  21683194.082   113945948.700       -3498.455          34.000                  
                                                
  22918925.667   120439689.420       -2553.488          34.000                  
                                                
  21643555.399   115656560.257       -2788.954          35.000                  
                                                
  20669538.627   108619036.636       -2848.168          32.000                  
                                                
  21244251.968   111639320.9562       2754.801          27.000                  
                                                
  21403253.606   114533084.140        -953.360          32.000                  
                                                
  20652599.121   110244957.021        2452.314          37.000                  
                                                
  23084348.453   121309051.498       -3015.136          32.000                  
                                                
  19040592.712   101711310.798       -1380.250          32.000                  
                                                
  18632689.180                       -2190.506          24.000                  
                                                
  22454375.315                        3476.270          22.000                  
                                                
  18882361.760    99227460.8182      -1562.004          29.000                  
                                                
 18  5  8 15  1 14.9950000  0 12G 4G31R11G26G 9R21R22G22R12R 2G 8G16
  21683859.677   113949447.074       -3499.102          34.000                  
                                                
  22919411.743   120442243.225       -2554.427          34.000                  
                                                
  21644077.745   115659349.500       -2788.900          36.000                  
                                                
  20670080.578   108621884.515       -2847.919          32.000                  
                                                
  21243727.397   111636566.6592       2754.069          27.000                  
                                                
  21403432.916   114534037.793        -954.091          32.000                  
                                                
  20652139.247   110242504.716        2451.635          37.000                  
                                                
  23084919.930   121312066.065       -3015.556          32.000                  
                                                
  19040850.495   101712691.318       -1381.271          32.000                  
                                                
  18633099.469                       -2183.265          23.000                  
                                                
  22453716.281                        3481.049          21.000                  
                                                
  18882659.740    99229023.2322      -1562.788          29.000                  
                                                
 18  5  8 15  1 15.9950000  0 12G 4G31R11G26G 9R21R22G22R12R 3G 8G16
  21684525.316   113952945.461       -3498.074          34.000                  
                                                
  22919898.037   120444797.026       -2553.888          34.000                  
                                                
  21644600.091   115662138.675       -2789.151          36.000                  
                                                
  20670622.530   108624732.593       -2848.166          32.000                  
                                                
  21243200.453   111633812.5912       2754.645          27.000                  
                                                
  21403610.254   114534992.314        -954.924          32.000                  
                                                
  20651679.591   110240052.923        2451.591          37.000                  
                                                
  23085492.829   121315080.519       -3014.125          32.000                  
                                                
  19041108.566   101714071.969       -1380.426          32.000                  
                                                
  19899003.114                        1871.899          24.000                  
                                                
  22453054.037                        3476.363          21.000                  
                                                
  18882957.528    99230586.1092      -1563.187          29.000                  
                                                
 18  5  8 15  1 16.9950000  0 12G 4G31R11G26G 9R21R22G22R12R 3G 8G16
  21685190.841   113956443.605       -3498.273          34.000                  
                                                
  22920384.575   120447350.548       -2553.781          34.000                  
                                                
  21645122.385   115664927.459       -2788.577          36.000                  
                                                
  20671162.771   108627580.456       -2846.655          31.000                  
                                                
  21242678.273   111631058.4812       2754.056          27.000                  
                                                
  21403788.970   114535947.228        -955.215          32.000                  
                                                
  20651219.917   110237601.298        2451.688          37.000                  
                                                
  23086066.252   121318094.596       -3014.071          32.000                  
                                                
  19041366.673   101715452.379       -1380.146          33.000                  
                                                
  19898656.517                        1870.954          25.000                  
                                                
  22452394.017                        3466.094          21.000                  
                                                
  18883253.780    99232149.1122      -1563.827          28.000                  
                                                
 18  5  8 15  1 17.9950000  0 12G 4G31R11G26G 9R21R22G22R12R 3G 8G16
  21685856.532   113959941.665       -3498.164          34.000                  
                                                
  22920870.887   120449903.889       -2553.223          35.000                  
                                                
  21645644.835   115667716.028       -2788.229          37.000                  
                                                
  20671708.125   108630428.349       -2847.548          31.000                  
                                                
  21242155.159   111628304.3812       2754.109          27.000                  
                                                
  21403968.420   114536902.765        -955.079          33.000                  
                                                
  20650760.130   110235150.040        2451.587          37.000                  
                                                
  23086639.719   121321108.367       -3014.148          32.000                  
                                                
  19041625.198   101716832.755       -1379.818          33.000                  
                                                
  19898310.802                        1869.178          26.000                  
                                                
  22451734.609                        3473.284          22.000                  
                                                
  18883551.699    99233712.2622      -1563.039          28.000                  
                                                
 18  5  8 15  1 18.9950000  0 12G 4G31R11G26G 9R21R22G22R12R 3G 8G16
  21686521.751   113963439.464       -3498.353          34.000                  
                                                
  22921357.146   120452456.956       -2553.130          35.000                  
                                                
  21646166.815   115670504.128       -2787.776          37.000                  
                                                
  20672245.828   108633276.117       -2848.730          32.000                  
                                                
  21241632.141   111625550.2672       2754.097          27.000                  
                                                
  21404147.136   114537858.783        -955.958          33.000                  
                                                
  20650300.413   110232698.983        2450.294          37.000                  
                                                
  23087213.246   121324121.764       -3013.838          32.000                  
                                                
  19041883.120   101718212.935       -1380.851          33.000                  
                                                
  19897961.449                        1869.075          27.000                  
                                                
  22451072.268                        3483.855          22.000                  
                                                
  18883848.606    99235275.662       -1563.692          28.000                  
                                                
 18  5  8 15  1 19.9950000  0 12G 4G31R11G26G 9R21R22G22R12R 3G 8G16
  21687187.547   113966937.261       -3497.852          34.000                  
                                                
  22921843.160   120455010.021       -2553.571          35.000                  
                                                
  21646688.926   115673292.105       -2787.981          37.000                  
                                                
  20672784.830   108636123.964       -2848.883          32.000                  
                                                
  21241105.860   111622796.3762       2753.372          27.000                  
                                                
  21404325.974   114538815.538        -956.581          33.000                  
                                                
  20649841.027   110230248.406        2449.979          37.000                  
                                                
  23087787.053   121327135.036       -3013.697          32.000                  
                                                
  19042141.340   101719593.199       -1380.338          33.000                  
                                                
  19897612.296   106513448.9952       1867.065          27.000                  
                                                
  22450410.277                        3475.170          23.000                  
                                                
  18884145.905    99236839.421       -1563.725          27.000                  
                                                
 18  5  8 15  1 20.9950000  0 12G 4G31R11G26G 9R21R22G22R12R 3G 8G16
  21687853.151   113970435.386       -3497.875          34.000                  
                                                
  22922329.463   120457563.328       -2553.269          35.000                  
                                                
  21647211.359   115676080.287       -2787.810          37.000                  
                                                
  20673326.293   108638972.197       -2847.822          32.000                  
                                                
  21240578.628   111620042.9762       2753.229          27.000                  
                                                
  21404505.136   114539773.370        -958.188          34.000                  
                                                
  20649381.746   110227798.564        2450.134          36.000                  
                                                
  23088363.573   121330148.464       -3013.000          32.000                  
                                                
  19042399.839   101720973.813       -1380.376          33.000                  
                                                
  19897264.400   106511581.8452       1866.401          28.000                  
                                                
  22449750.938                        3469.485          23.000                  
                                                
  18884442.105    99238403.958       -1564.747          27.000                  
                                                
 18  5  8 15  1 21.9950000  0 12G 4G31R11G26G 9R21R22G22R12R 3G 8G16
  21688518.606   113973933.324       -3497.577          34.000                  
                                                
  22922815.434   120460116.361       -2552.814          35.000                  
                                                
  21647733.408   115678868.144       -2787.527          37.000                  
                                                
  20673869.998   108641820.345       -2847.323          32.000                  
                                                
  21240054.353   111617289.5382       2753.134          27.000                  
                                                
  21404684.480   114540731.668        -958.675          34.000                  
                                                
  20648922.282   110225349.016        2449.671          36.000                  
                                                
  23088939.710   121333161.545       -3013.081          32.000                  
                                                
  19042657.997   101722354.259       -1379.190          33.000                  
                                                
  19896916.260   106509715.0812       1867.293          28.000                  
                                                
  22449086.163                        3470.081          23.000                  
                                                
  18884740.635    99239968.609       -1564.597          27.000                  
                                                
 18  5  8 15  1 22.9950000  0 12G 4G31R11G26G 9R21R22G22R12R 3G 8G16
  21689184.026   113977430.912       -3497.766          34.000                  
                                                
  22923301.466   120462669.097       -2552.889          35.000                  
                                                
  21648255.458   115681655.581       -2787.326          38.000                  
                                                
  20674411.784   108644668.302       -2848.369          31.000                  
                                                
  21239528.072   111614535.9462       2753.259          27.000                  
                                                
  21404863.956   114541690.360        -959.407          34.000                  
                                                
  20648462.974   110222899.592        2449.226          36.000                  
                                                
  23089513.961   121336174.129       -3012.803          32.000                  
                                                
  19042916.025   101723734.485       -1380.679          33.000                  
                                                
  19896568.293   106507848.7852       1865.945          29.000                  
                                                
  22448422.357                        3470.820          23.000                  
                                                
  18885039.068    99241533.320       -1565.246          27.000                  
                                                
 18  5  8 15  1 23.9950000  0 12G 4G31R11G26G 9R21R22G22R12R 3G 8G16
  21689849.682   113980929.251       -3499.067          34.000                  
                                                
  22923788.162   120465222.495       -2553.816          36.000                  
                                                
  21648777.725   115684443.575       -2788.726          38.000                  
                                                
  20674955.820   108647517.065       -2849.950          31.000                  
                                                
  21239001.852   111611783.3352       2751.699          27.000                  
                                                
  21405043.702   114542650.559        -961.635          34.000                  
                                                
  20648003.859   110220451.332        2447.284          36.000                  
                                                
  23090083.249   121339187.317       -3014.221          32.000                  
                                                
  19043173.931   101725115.414       -1381.177          33.000                  
                                                
  19896219.682   106505983.8492       1863.799          29.000                  
                                                
  22447759.693                        3479.320          23.000                  
                                                
  18885336.760    99243099.168       -1565.959          26.000                  
                                                
 18  5  8 15  1 24.9950000  0 12G 4G31R11G26G 9R21R22G22R12R 3G 8G16
  21690515.565   113984428.194       -3499.029          34.000                  
                                                
  22924274.578   120467776.451       -2553.414          36.000                  
                                                
  21649300.272   115687231.998       -2788.310          38.000                  
                                                
  20675500.913   108650366.523       -2849.941          32.000                  
                                                
  21238474.515   111609031.402        2751.889          27.000                  
                                                
  21405223.448   114543612.070        -962.027          34.000                  
                                                
  20647544.997   110218004.177        2446.548          36.000                  
                                                
  23090660.223   121342200.907       -3013.189          33.000                  
                                                
  19043432.168   101726497.112       -1381.427          34.000                  
                                                
  19895870.887   106504120.2212       1863.042          29.000                  
                                                
  22447096.864                        3473.519          24.000                  
                                                
  18885634.016    99244666.022       -1566.910          25.000                  
                                                
 18  5  8 15  1 25.9950000  0 12G 4G31R11G26G 9R21R22G22R12R 3G 8G16
  21691181.151   113987926.677       -3498.673          33.000                  
                                                
  22924760.889   120470329.953       -2553.772          36.000                  
                                                
  21649822.514   115690019.873       -2788.093          38.000                  
                                                
  20676043.187   108653215.617       -2849.357          32.000                  
                                                
  21237953.801   111606279.330        2752.436          27.000                  
                                                
  21405403.290   114544573.859        -961.946          34.000                  
                                                
  20647085.986   110215556.980        2446.667          36.000                  
                                                
  23091232.529   121345213.972       -3012.965          32.000                  
                                                
  19043690.090   101727878.439       -1381.923          34.000                  
                                                
  19895521.088   106502256.7572       1862.848          29.000                  
                                                
  22446432.578                        3473.840          25.000                  
                                                
  18885932.249    99246232.881       -1567.554          24.000                  
                                                
 18  5  8 15  1 26.9950000  0 12G 4G31R11G26G 9R21R22G22R12R 3G 8G16
  21691847.200   113991425.453       -3498.132          33.000                  
                                                
  22925247.227   120472883.631       -2553.503          35.000                  
                                                
  21650344.746   115692807.909       -2788.313          38.000                  
                                                
  20676583.167   108656065.091       -2849.729          32.000                  
                                                
  21237429.788   111603527.719        2751.336          27.000                  
                                                
  21405583.280   114545536.621        -962.906          34.000                  
                                                
  20646627.177   110213110.545        2445.891          35.000                  
                                                
  23091805.882   121348227.114       -3012.773          32.000                  
                                                
  19043948.485   101729260.078       -1382.317          33.000                  
                                                
  19895172.599   106500393.677        1862.442          29.000                  
                                                
  22445770.735                        3473.907          25.000                  
                                                
  18886226.913                       -1567.038          23.000                  
                                                
 18  5  8 15  1 27.9950000  0 12G 4G31R11G26G 9R21R22G22R12R 3G 8G16
  21692513.397   113994924.269       -3499.117          33.000                  
                                                
  22925733.608   120475437.311       -2553.154          35.000                  
                                                
  21650866.900   115695595.813       -2788.115          39.000                  
                                                
  20677125.354   108658914.702       -2850.044          32.000                  
                                                
  21236906.692   111600776.253        2751.007          27.000                  
                                                
  21405763.637   114546500.133        -963.373          34.000                  
                                                
  20646168.471   110210664.534        2445.772          36.000                  
                                                
  23092378.580   121351240.038       -3011.877          33.000                  
                                                
  19044206.695   101730641.765       -1381.936          34.000                  
                                                
  19894827.390   106498531.829        1861.387          30.000                  
                                                
  22445106.798                        3475.633          25.000                  
                                                
  18886522.005                       -1563.955          22.000                  
                                                
 18  5  8 15  1 28.9950000  0 12G 4G31R11G26G 9R21R22G22R12R 3G 8G16
  21693179.009   113998423.065       -3498.100          34.000                  
                                                
  22926219.998   120477991.015       -2553.430          35.000                  
                                                
  21651388.819   115698383.534       -2787.229          39.000                  
                                                
  20677667.139   108661764.339       -2849.129          32.000                  
                                                
  21236381.405   111598024.992        2751.487          27.000                  
                                                
  21405943.810   114547464.414        -964.317          33.000                  
                                                
  20645709.984   110208218.997        2446.158          35.000                  
                                                
  23092951.288   121354253.011       -3012.841          33.000                  
                                                
  19044465.282   101732023.536       -1381.336          34.000                  
                                                
  19894473.438   106496670.679        1861.099          30.000                  
                                                
  22444446.229                        3475.046          26.000                  
                                                
  18886818.677                       -1572.940          21.000                  
                                                
