     2.10           OBSERVATION DATA    M (MIXED)           RINEX VERSION / TYPE
CONVBIN 2.4.3                           20180508 171853 UTC PGM / RUN BY / DATE 
log: May8_3.ubx                                             COMMENT             
format: u-blox                                              COMMENT             
                                                            MARKER NAME         
                                                            MARKER NUMBER       
                                                            OBSERVER / AGENCY   
                                                            REC # / TYPE / VERS 
                                                            ANT # / TYPE        
        0.0000        0.0000        0.0000                  APPROX POSITION XYZ 
        0.0000        0.0000        0.0000                  ANTENNA: DELTA H/E/N
     1     1                                                WAVELENGTH FACT L1/2
     8    C1    L1    D1    S1    C2    L2    D2    S2      # / TYPES OF OBSERV 
  2018     5     8    14    43   33.9930000     GPS         TIME OF FIRST OBS   
  2018     5     8    14    45   25.9930000     GPS         TIME OF LAST OBS    
                                                            END OF HEADER       
 18  5  8 14 43 33.9930000  0 12R11G27R21G 4G31G26G22G14R22R 1R12G23
  20335215.857   108665160.730       -2817.131          25.000                  
                                                
  19959174.622   104886133.0672       2794.135          29.000                  
                                                
  20549404.052                         -77.704          29.000                  
                                                
  20240103.078   106362491.221       -3338.027          38.000                  
                                                
  21658274.726   113814990.575       -2491.602          39.000                  
                                                
  19367617.738   101777547.070       -2590.168          25.000                  
                                                
  21723061.478   114155385.517       -3008.795          30.000                  
                                                
  21665556.257   113853261.4882      -3452.630          25.000                  
                                                
  20440118.918   109110539.775        2949.407          34.000                  
                                                
  20388008.644                       -4549.376          26.000                  
                                                
  18033492.248                       -1179.354          15.000                  
                                                
  18775378.419                        1532.064          25.000                  
                                                
 18  5  8 14 43 34.9930000  0 12R11G27R21G 4G31G26G22G14R22R 1R12G23
  20335743.333                       -2818.643          25.000                  
                                                
  19958643.036   104883339.1812       2792.749          30.000                  
                                                
  20549414.147   109964038.6422        -78.695          29.000                  
                                                
  20240738.327   106365829.765       -3339.156          39.000                  
                                                
  21658749.180   113817482.153       -2491.486          39.000                  
                                                
  19368111.195   101780137.134       -2590.649          27.000                  
                                                
  21723627.144   114158394.285       -3008.905          30.000                  
                                                
  21666213.293                       -3454.193          25.000                  
                                                
  20439566.400   109107591.225        2947.928          34.000                  
                                                
  20388856.934                       -4551.044          26.000                  
                                                
  18033716.902                       -1193.536          16.000                  
                                                
  18775087.864                        1531.469          25.000                  
                                                
 18  5  8 14 43 35.9930000  0 13R11G27R21G 4G31G26G22G14R22R 1R 3R12
                                G23
  20336271.909                       -2819.629          25.000                  
                                                
  19958112.297   104880546.0672       2792.395          29.000                  
                                                
  20549421.807   109964117.9492        -80.090          29.000                  
                                                
  20241373.960   106369169.043       -3340.054          38.000                  
                                                
  21659223.782   113819974.327       -2493.469          40.000                  
                                                
  19368607.331   101782728.173       -2591.522          31.000                  
                                                
  21724197.094   114161403.687       -3010.181          29.000                  
                                                
  21666865.477                       -3454.035          24.000                  
                                                
  20439014.319   109104643.597        2946.463          34.000                  
                                                
  20389707.301                       -4551.184          26.000                  
                                                
  19594375.963                        2629.422          17.000                  
                                                
  18033941.094                       -1192.822          17.000                  
                                                
  18774794.953                        1529.784          25.000                  
                                                
 18  5  8 14 43 36.9930000  0 13R11G27R21G 4G31G26G22G14R22R 1R 3R12
                                G23
  20336797.484                       -2818.971          23.000                  
                                                
  19957577.587   104877753.703        2791.243          29.000                  
                                                
  20549437.172   109964198.9942        -81.223          31.000                  
                                                
  20242009.313   106372509.364       -3341.006          38.000                  
                                                
  21659698.734   113822467.352       -2493.121          40.000                  
                                                
  19369100.823   101785320.184       -2592.557          29.000                  
                                                
  21724769.802   114164413.992       -3010.565          28.000                  
                                                
  21667521.501                       -3455.963          23.000                  
                                                
  20438462.037   109101697.129        2946.973          34.000                  
                                                
  20390558.889                       -4553.000          25.000                  
                                                
  19593881.039                        2640.025          18.000                  
                                                
  18034162.284                       -1190.253          17.000                  
                                                
  18774508.456                        1529.473          23.000                  
                                                
 18  5  8 14 43 37.9930000  0 12R11G27R21G 4G31G26G22R22R 1R 3R12G23
  20337324.943                       -2816.270          22.000                  
                                                
  19957052.807   104874962.373        2791.508          28.000                  
                                                
  20549453.506   109964281.1592        -82.756          31.000                  
                                                
  20242644.876   106375850.139       -3340.775          37.000                  
                                                
  21660173.319   113824960.740       -2493.060          40.000                  
                                                
  19369593.792   101787912.828       -2592.915          28.000                  
                                                
  21725341.375   114167424.573       -3010.297          28.000                  
                                                
  20437910.261   109098751.418        2944.841          33.000                  
                                                
  20391408.636                       -4553.589          24.000                  
                                                
  19593391.648                        2624.202          18.000                  
                                                
  18034384.713                       -1184.657          17.000                  
                                                
  18774217.718                        1528.214          24.000                  
                                                
 18  5  8 14 43 38.9930000  0 12R11G27R21G 4G31G26G22R22R 1R 3R12G23
  20337852.550                       -2813.799          21.000                  
                                                
  19956521.605   104872171.738        2790.417          28.000                  
                                                
  20549471.567   109964364.3752        -83.425          30.000                  
                                                
  20243280.501   106379191.381       -3341.214          36.000                  
                                                
  21660647.991   113827454.478       -2493.976          39.000                  
                                                
  19370090.128   101790506.047       -2593.135          27.000                  
                                                
  21725905.846   114170435.549       -3011.456          27.000                  
                                                
  20437358.119   109095806.262        2945.229          33.000                  
                                                
  20392260.434                       -4551.523          23.000                  
                                                
  19592901.358                        2613.185          19.000                  
                                                
  18034607.866                       -1184.657          16.000                  
                                                
  18773928.332                        1527.865          23.000                  
                                                
 18  5  8 14 43 39.9930000  0 12R11G27R21G 4G31G26G22R22R 1R 3R12G23
  20338381.065                       -2802.283          20.000                  
                                                
  19955989.670   104869381.711        2789.456          27.000                  
                                                
  20549487.761   109964448.7142        -84.900          31.000                  
                                                
  20243915.758   106382533.056       -3341.565          36.000                  
                                                
  21661122.741   113829948.486       -2494.275          39.000                  
                                                
  19370583.446   101793099.775       -2593.302          27.000                  
                                                
  21726484.364   114173446.760       -3011.475          27.000                  
                                                
  20436806.221   109092861.766        2944.441          32.000                  
                                                
  20393109.928                       -4557.578          22.000                  
                                                
  19592413.127                        2617.516          18.000                  
                                                
  18034830.217                       -1189.049          15.000                  
                                                
  18773638.091                        1527.371          23.000                  
                                                
 18  5  8 14 43 40.9930000  0 12R11G27R21G 4G31G26G22R22R 1R 3R12G23
  20338905.156                       -2809.598          20.000                  
                                                
  19955458.982   104866591.437        2790.487          28.000                  
                                                
  20549508.334   109964533.2832        -84.677          32.000                  
                                                
  20244551.452   106385874.417       -3340.866          36.000                  
                                                
  21661597.143   113832442.038       -2492.950          40.000                  
                                                
  19371072.078   101795693.308       -2593.155          27.000                  
                                                
  21727060.535   114176457.514       -3010.162          27.000                  
                                                
  20436254.096   109089917.161        2944.568          32.000                  
                                                
  20393961.751                       -4552.936          22.000                  
                                                
  19591923.465                        2619.567          17.000                  
                                                
  18035052.219                       -1194.348          15.000                  
                                                
  18773346.934                        1527.649          23.000                  
                                                
 18  5  8 14 43 41.9930000  0 12R11G27R21G 4G31G26G22R22R 1R 3R12G23
  20339431.053                       -2813.655          19.000                  
                                                
  19954926.253   104863800.744        2790.301          28.000                  
                                                
  20549523.001   109964617.8342        -84.658          32.000                  
                                                
  20245187.050   106389215.139       -3340.639          36.000                  
                                                
  21662071.667   113834934.831       -2492.548          40.000                  
                                                
  19371571.242   101798286.254       -2592.701          29.000                  
                                                
  21727630.503   114179467.497       -3009.595          27.000                  
                                                
  20435701.893   109086971.971        2945.470          32.000                  
                                                
  20394814.133                       -4554.503          23.000                  
                                                
  19591434.676                        2608.739          16.000                  
                                                
  18035272.746                       -1192.585          16.000                  
                                                
  18773054.634                        1528.996          24.000                  
                                                
 18  5  8 14 43 42.9930000  0 12R11G27R21G 4G31G26G22R22R 1R 3R12G23
  20339959.760                       -2813.746          19.000                  
                                                
  19954393.149   104861009.951        2790.598          28.000                  
                                                
  20549538.576   109964702.313         -85.646          33.000                  
                                                
  20245822.736   106392555.691       -3340.572          36.000                  
                                                
  21662546.452   113837427.268       -2492.407          40.000                  
                                                
  19372068.503   101800879.155       -2593.191          30.000                  
                                                
  21728204.371   114182477.180       -3009.515          27.000                  
                                                
  20435148.346   109084026.837        2945.577          32.000                  
                                                
  20395667.266                       -4554.896          23.000                  
                                                
  19590946.977                        2608.739          13.000                  
                                                
  18035492.959                       -1183.317          18.000                  
                                                
  18772764.333                        1526.779          25.000                  
                                                
 18  5  8 14 43 43.9930000  0 12R11G27R21G 4G31G26G22R22R 1R 3R12G23
  20340488.388                       -2825.737          20.000                  
                                                
  19953862.724   104858220.135        2788.753          27.000                  
                                                
  20549559.411   109964788.744         -87.730          34.000                  
                                                
  20246458.220   106395897.019       -3341.926          36.000                  
                                                
  21663020.993   113839920.362       -2493.536          40.000                  
                                                
  19372562.554   101803472.931       -2595.049          31.000                  
                                                
  21728778.047   114185487.554       -3010.760          27.000                  
                                                
  20434597.338   109081082.747        2943.073          32.000                  
                                                
  20396519.787                       -4555.855          23.000                  
                                                
  19590458.092                        2608.739          12.000                  
                                                
  18035712.762                       -1181.760          19.000                  
                                                
  18772474.772                        1526.906          25.000                  
                                                
 18  5  8 14 43 44.9930000  0 12R11G27R21G 4G31G26G22R22R 1R 3R12G23
  20341017.295                       -2812.237          21.000                  
                                                
  19953332.063   104855431.561        2787.719          28.000                  
                                                
  20549577.734   109964876.838         -88.571          34.000                  
                                                
  20247094.097   106399239.435       -3342.899          37.000                  
                                                
  21663496.119   113842414.389       -2494.250          40.000                  
                                                
  19373058.925   101806067.803       -2595.128          31.000                  
                                                
  21729352.936   114188498.875       -3011.890          28.000                  
                                                
  20434042.072   109078139.862        2942.718          32.000                  
                                                
  20397372.876                       -4555.193          23.000                  
                                                
  19589971.336                        2608.739          14.000                  
                                                
  18035933.158                       -1185.602          19.000                  
                                                
  18772184.567                        1525.592          25.000                  
                                                
 18  5  8 14 43 45.9930000  0 12R11G27R21G 4G31G26G22R22R 1R 3R12G23
  20341547.398                       -2817.924          22.000                  
                                                
  19952802.300   104852642.947        2789.118          28.000                  
                                                
  20549592.549   109964965.485         -88.863          34.000                  
                                                
  20247730.088   106402581.760       -3342.438          37.000                  
                                                
  21663971.009   113844908.196       -2493.744          41.000                  
                                                
  19373552.461   101808662.707       -2594.596          32.000                  
                                                
  21729925.730   114191509.854       -3010.534          28.000                  
                                                
  20433485.750   109075197.102        2943.126          32.000                  
                                                
  20398225.380                       -4544.838          23.000                  
                                                
  19589484.902                        2608.739          14.000                  
                                                
  18036155.613                       -1186.660          20.000                  
                                                
  18771896.141                        1525.782          25.000                  
                                                
 18  5  8 14 43 46.9930000  0 12R11G27R21G 4G31G26G22R22R 1R 3R12G23
  20342075.773                       -2820.721          24.000                  
                                                
  19952271.325   104849854.365        2787.859          28.000                  
                                                
  20549609.345   109965054.454         -88.497          35.000                  
                                                
  20248365.651   106405923.845       -3342.354          37.000                  
                                                
  21664445.551   113847401.620       -2493.427          40.000                  
                                                
  19374043.240   101811257.457       -2594.856          32.000                  
                                                
  21730498.874   114194520.573       -3010.913          28.000                  
                                                
  20432936.269   109072254.260        2943.193          32.000                  
                                                
  20399075.503                       -4549.854          22.000                  
                                                
  19588995.903                        2616.400          15.000                  
                                                
  18036374.649                       -1185.189          21.000                  
                                                
  18771608.360                        1524.525          25.000                  
                                                
 18  5  8 14 43 47.9930000  0 12R11G27R21G 4G31G26G22R22R 1R 3R12G23
  20342605.754                       -2824.584          25.000                  
                                                
  19951740.917   104847066.139        2788.298          28.000                  
                                                
  20549626.289   109965144.422         -90.449          34.000                  
                                                
  20249001.537   106409266.227       -3342.554          37.000                  
                                                
  21664920.197   113849895.216       -2494.226          40.000                  
                                                
  19374537.508   101813852.640       -2595.400          33.000                  
                                                
  21731073.065   114197531.376       -3011.371          28.000                  
                                                
  20432389.379   109069311.888        2942.779          32.000                  
                                                
  20399927.989                       -4553.997          22.000                  
                                                
  19588504.924                        2617.797          16.000                  
                                                
  18036596.685                       -1187.135          22.000                  
                                                
  18771319.882                        1525.143          25.000                  
                                                
 18  5  8 14 43 48.9930000  0 12R11G27R21G 4G31G26G22R22R 1R 3R12G23
  20343135.263                       -2818.161          26.000                  
                                                
  19951212.926   104844278.571        2787.523          28.000                  
                                                
  20549643.033   109965235.444         -91.352          35.000                  
                                                
  20249637.501   106412609.064       -3343.291          37.000                  
                                                
  21665394.607   113852389.093       -2493.945          40.000                  
                                                
  19375033.670   101816448.357       -2596.232          33.000                  
                                                
  21731646.575   114200542.501       -3010.675          28.000                  
                                                
  20431841.643   109066370.140        2941.985          32.000                  
                                                
  20400778.496                       -4556.649          23.000                  
                                                
  19588015.803                        2613.223          17.000                  
                                                
  18036816.933                       -1188.708          23.000                  
                                                
  18771030.619                        1523.403          25.000                  
                                                
 18  5  8 14 43 49.9930000  0 12R11G27R21G 4G31G26G22R22R 1R 3R12G23
  20343665.200                       -2818.888          26.000                  
                                                
  19950684.489   104841491.511        2787.090          27.000                  
                                                
  20549660.134   109965327.448         -92.751          34.000                  
                                                
  20250273.387   106415952.251       -3343.383          37.000                  
                                                
  21665869.279   113854883.184       -2494.250          40.000                  
                                                
  19375526.691   101819044.477       -2596.553          33.000                  
                                                
  21732218.445   114203553.888       -3011.774          28.000                  
                                                
  20431289.012   109063429.013        2940.642          31.000                  
                                                
  20401630.773                       -4552.717          23.000                  
                                                
  19587526.813                        2611.944          17.000                  
                                                
  18037036.431                       -1188.134          23.000                  
                                                
  18770739.915                        1525.441          24.000                  
                                                
 18  5  8 14 43 50.9930000  0 12R11G27R21G 4G31G26G22R22R 1R 3R12G23
  20344195.530                       -2820.585          26.000                  
                                                
  19950154.867   104838705.100        2785.716          27.000                  
                                                
  20549677.444   109965420.500         -92.913          35.000                  
                                                
  20250909.308   106419295.894       -3343.896          37.000                  
                                                
  21666344.265   113857377.598       -2494.336          40.000                  
                                                
  19376021.693   101821641.187       -2597.256          34.000                  
                                                
  21732793.098   114206565.557       -3011.688          28.000                  
                                                
  20430738.222   109060488.402        2940.523          31.000                  
                                                
  20402485.031                       -4564.286          23.000                  
                                                
  19587036.523                        2617.978          17.000                  
                                                
  18037259.026                       -1181.830          24.000                  
                                                
  18770446.961                        1522.104          24.000                  
                                                
 18  5  8 14 43 51.9930000  0 12R11G27R21G 4G31G26G22R22R 1R 3R12G23
  20344724.803                       -2818.810          27.000                  
                                                
  19949622.077   104835918.862        2786.620          27.000                  
                                                
  20549694.790   109965514.409         -93.640          35.000                  
                                                
  20251545.342   106422639.732       -3343.379          37.000                  
                                                
  21666818.955   113859872.075       -2493.774          40.000                  
                                                
  19376515.665   101824238.134       -2596.587          34.000                  
                                                
  21733367.559   114209577.297       -3011.188          29.000                  
                                                
  20430188.112   109057548.218        2941.417          30.000                  
                                                
  20403337.544                       -4558.375          23.000                  
                                                
  19586545.727                        2617.978          16.000                  
                                                
  18037480.600                       -1186.317          24.000                  
                                                
  18770157.043                        1522.020          23.000                  
                                                
 18  5  8 14 43 52.9930000  0 12R11G27R21G 4G31G26G22R22R 1R 3R12G23
  20345252.969   108718809.5263      -2819.075          27.000                  
                                                
  19949088.623   104833132.513        2785.881          27.000                  
                                                
  20549712.319   109965608.484         -94.218          35.000                  
                                                
  20252181.621   106425983.145       -3343.686          37.000                  
                                                
  21667293.383   113862365.987       -2493.823          40.000                  
                                                
  19377009.846   101826834.748       -2596.307          34.000                  
                                                
  21733945.824   114212588.512       -3012.427          29.000                  
                                                
  20429636.808   109054607.806        2940.118          30.000                  
                                                
  20404190.580                       -4555.523          24.000                  
                                                
  19586053.011                        2622.268          15.000                  
                                                
  18037703.640                       -1189.497          25.000                  
                                                
  18769866.166                        1517.249          23.000                  
                                                
 18  5  8 14 43 53.9930000  0 12R11G27R21G 4G31G26G22R22R 1R 3R12G23
  20345782.444   108721628.3092      -2818.750          27.000                  
                                                
  19948556.217   104830346.292        2786.646          27.000                  
                                                
  20549729.769   109965703.296         -94.841          34.000                  
                                                
  20252817.603   106429326.674       -3343.456          37.000                  
                                                
  21667767.706   113864859.848       -2493.390          40.000                  
                                                
  19377503.714   101829431.551       -2596.578          34.000                  
                                                
  21734517.930   114215599.565       -3010.791          29.000                  
                                                
  20429081.524   109051667.658        2940.421          30.000                  
                                                
  20405042.221                       -4553.112          24.000                  
                                                
  19585560.863                        2622.268          14.000                  
                                                
  18037924.664                       -1179.718          25.000                  
                                                
  18769575.602                        1520.982          23.000                  
                                                
 18  5  8 14 43 54.9930000  0 12R11G27R21G 4G31G26G22R22R 1R 3R12G23
  20346307.652   108724446.2232      -2817.338          27.000                  
                                                
  19948024.343   104827559.808        2786.037          27.000                  
                                                
  20549747.001   109965798.195         -95.426          34.000                  
                                                
  20253453.550   106432669.656       -3342.741          37.000                  
                                                
  21668242.046   113867353.072       -2492.944          40.000                  
                                                
  19377997.982   101832027.969       -2596.746          34.000                  
                                                
  21735089.110   114218610.032       -3009.460          30.000                  
                                                
  20428527.646   109048727.157        2940.318          29.000                  
                                                
  20405895.039                       -4555.038          24.000                  
                                                
  19585070.494                        2607.439          16.000                  
                                                
  18038147.826                       -1199.038          25.000                  
                                                
  18769285.736                        1523.280          23.000                  
                                                
 18  5  8 14 43 55.9930000  0 11R11G27R21G 4G31G26G22R22R 1R 3R12
  20346833.383   108727264.7562      -2819.108          27.000                  
                                                
  19947494.467   104824773.925        2785.811          26.000                  
                                                
  20549764.774   109965894.292         -96.572          35.000                  
                                                
  20254089.898   106436013.220       -3343.663          37.000                  
                                                
  21668716.727   113869846.729       -2493.878          40.000                  
                                                
  19378492.146   101834624.991       -2597.310          34.000                  
                                                
  21735667.271   114221620.960       -3010.986          30.000                  
                                                
  20427979.473   109045787.437        2939.559          29.000                  
                                                
  20406750.213                       -4554.901          24.000                  
                                                
  19584579.864                        2615.017          18.000                  
                                                
  18038370.011                       -1195.874          25.000                  
                                                
 18  5  8 14 43 56.9930000  0 11R11G27R21G 4G31G26G22R22R 1R 3R12
  20347359.734   108730083.3622      -2818.615          27.000                  
                                                
  19946963.100   104821988.789        2784.328          26.000                  
                                                
  20549782.748   109965991.438         -97.353          35.000                  
                                                
  20254726.212   106439357.237       -3344.540          37.000                  
                                                
  21669191.268   113872340.673       -2494.202          40.000                  
                                                
  19378986.598   101837222.589       -2597.953          35.000                  
                                                
  21736244.568   114224632.157       -3011.255          31.000                  
                                                
  20427430.350   109042848.379        2938.577          29.000                  
                                                
  20407601.618                       -4554.595          25.000                  
                                                
  19584091.781                        2614.166          18.000                  
                                                
  18038593.112                       -1192.929          24.000                  
                                                
 18  5  8 14 43 57.9930000  0 11R11G27R21G 4G31G26G22R22R 1R 3R12
  20347886.233   108732902.2352      -2819.395          26.000                  
                                                
  19946431.287   104819204.006        2785.291          26.000                  
                                                
  20549800.678   109966089.633         -98.944          34.000                  
                                                
  20255362.682   106442701.652       -3344.919          37.000                  
                                                
  21669666.185   113874834.887       -2494.720          40.000                  
                                                
  19379480.893   101839820.663       -2598.253          35.000                  
                                                
  21736811.098   114227643.667       -3012.561          30.000                  
                                                
  20426882.937   109039909.874        2937.905          29.000                  
                                                
  20408456.696                       -4555.132          25.000                  
                                                
  19583603.455                        2612.479          19.000                  
                                                
  18038815.925                       -1193.238          24.000                  
                                                
 18  5  8 14 43 58.9930000  0 11R11G27R21G 4G31G26G22R22R 1R 3R12
  20348411.895   108735721.3612      -2818.629          26.000                  
                                                
  19945900.905   104816420.169        2783.706          26.000                  
                                                
  20549818.695   109966189.052         -99.548          34.000                  
                                                
  20255999.109   106446046.644       -3344.751          37.000                  
                                                
  21670140.665   113877329.572       -2494.946          40.000                  
                                                
  19379975.267   101842419.430       -2598.898          35.000                  
                                                
  21737387.853   114230655.575       -3011.542          31.000                  
                                                
  20426330.175   109036972.187        2937.419          29.000                  
                                                
  20409311.818                       -4556.995          25.000                  
                                                
  19583117.213                        2615.798          20.000                  
                                                
  18039037.517                       -1187.711          24.000                  
                                                
 18  5  8 14 43 59.9930000  0 12R11G27R21G 4G31G26G22R22R 1R 3R12G23
  20348939.048   108738540.4122      -2818.804          26.000                  
                                                
  19945370.750   104813636.501        2784.245          25.000                  
                                                
  20549837.672   109966289.151        -100.617          35.000                  
                                                
  20256635.632   106449391.737       -3345.042          37.000                  
                                                
  21670615.014   113879824.157       -2494.373          39.000                  
                                                
  19380469.439   101845018.359       -2599.246          35.000                  
                                                
  21737962.681   114233667.473       -3012.292          31.000                  
                                                
  20425780.301   109034034.715        2937.216          28.000                  
                                                
  20410165.762                       -4557.415          24.000                  
                                                
  19582631.102                        2616.853          21.000                  
                                                
  18039260.234                       -1203.984          23.000                  
                                                
  18767834.908                        1521.242          22.000                  
                                                
 18  5  8 14 44  0.9930000  0 12R11G27R21G 4G31G26G22R22R 1R 3R12G23
  20349465.722   108741359.349       -2819.163          26.000                  
                                                
  19944840.272                        2783.081          25.000                  
                                                
  20549856.039   109966389.892        -101.088          35.000                  
                                                
  20257272.007   106452736.856       -3345.065          37.000                  
                                                
  21671089.494   113882318.665       -2494.501          39.000                  
                                                
  19380964.179   101847617.384       -2599.078          35.000                  
                                                
  21738537.709   114236679.194       -3011.292          31.000                  
                                                
  20425232.329   109031097.484        2937.369          28.000                  
                                                
  20411017.873                       -4556.465          24.000                  
                                                
  19582146.545                        2598.919          23.000                  
                                                
  18039481.974                       -1190.748          23.000                  
                                                
  18767546.709                        1522.768          22.000                  
                                                
 18  5  8 14 44  1.9930000  0 12R11G27R21G 4G31G26G22R22R 1R 3R12G23
  20349996.593   108744177.818       -2817.640          27.000                  
                                                
  19944309.532                        2784.667          25.000                  
                                                
  20549874.911   109966491.064        -100.990          35.000                  
                                                
  20257908.311   106456081.782       -3344.644          37.000                  
                                                
  21671563.948   113884812.805       -2493.646          39.000                  
                                                
  19381458.212   101850216.342       -2598.823          35.000                  
                                                
  21739115.521   114239690.672       -3012.115          31.000                  
                                                
  20424683.764   109028160.280        2937.400          27.000                  
                                                
  20411870.988                       -4553.470          24.000                  
                                                
  19581659.928                        2608.710          24.000                  
                                                
  18039704.874                       -1187.618          22.000                  
                                                
  18767257.803                        1524.673          22.000                  
                                                
 18  5  8 14 44  2.9930000  0 12R11G27R21G 4G31G26G22R22R 1R 3R12G23
  20350526.887   108746995.061       -2817.442          28.000                  
                                                
  19943777.972   104805285.059        2784.493          24.000                  
                                                
  20549893.251   109966591.825        -101.310          35.000                  
                                                
  20258544.468   106459425.679       -3343.906          38.000                  
                                                
  21672038.271   113887305.818       -2492.822          38.000                  
                                                
  19381952.664   101852814.331       -2598.182          35.000                  
                                                
  21739686.422   114242700.887       -3010.339          31.000                  
                                                
  20424135.679   109025222.101        2938.434          27.000                  
                                                
  20412722.219                       -4556.153          23.000                  
                                                
  19581176.487                        2608.801          25.000                  
                                                
  18039926.047                       -1182.234          22.000                  
                                                
  18766970.921                        1517.220          22.000                  
                                                
 18  5  8 14 44  3.9930000  0 13R11G27R21G 4G31G26G22R22R 1R 3G14R12
                                G23
  20351055.088   108749812.552       -2818.008          28.000                  
                                                
  19943248.664                        2784.630          24.000                  
                                                
  20549911.984   109966693.738        -103.529          36.000                  
                                                
  20259181.017   106462770.111       -3345.236          38.000                  
                                                
  21672512.682   113889799.217       -2494.324          38.000                  
                                                
  19382446.907   101855412.982       -2600.060          35.000                  
                                                
  21740257.393   114245711.553       -3011.975          31.000                  
                                                
  20423583.109   109022284.811        2936.198          26.000                  
                                                
  20413575.639                       -4556.884          24.000                  
                                                
  19580691.353                        2606.097          25.000                  
                                                
  21685365.980                       -3460.108          21.000                  
                                                
  18040148.424                       -1195.679          22.000                  
                                                
  18766684.075                        1514.825          22.000                  
                                                
 18  5  8 14 44  4.9930000  0 13R11G27R21G 4G31G26G22R22R 1R 3G14R12
                                G23
  20351583.707   108752631.468       -2819.761          28.000                  
                                                
  19942719.669                        2780.852          24.000                  
                                                
  20549931.363   109966797.868        -105.661          36.000                  
                                                
  20259817.644   106466116.100       -3346.267          38.000                  
                                                
  21672987.022   113892294.032       -2495.087          38.000                  
                                                
  19382941.812   101858013.286       -2601.326          35.000                  
                                                
  21740834.821   114248723.605       -3011.768          31.000                  
                                                
  20423032.145   109019349.200        2935.031          26.000                  
                                                
  20414426.651                       -4558.403          23.000                  
                                                
  19580206.290                        2604.977          25.000                  
                                                
  21686024.917                       -3460.108          21.000                  
                                                
  18040370.609                       -1197.513          22.000                  
                                                
  18766396.425                        1515.946          23.000                  
                                                
 18  5  8 14 44  5.9930000  0 12R11G27R21G 4G31G26G22R22R 1R 3R12G23
  20352113.226   108755450.711       -2818.981          28.000                  
                                                
  19942184.497                        2782.016          23.000                  
                                                
  20549950.689   109966903.172        -105.828          36.000                  
                                                
  20260454.490   106469462.680       -3346.381          38.000                  
                                                
  21673461.965   113894789.263       -2494.940          38.000                  
                                                
  19383436.718   101860614.186       -2601.068          35.000                  
                                                
  21741407.337   114251736.133       -3011.707          31.000                  
                                                
  20422482.541   109016414.353        2934.711          26.000                  
                                                
  20415278.396                       -4558.205          23.000                  
                                                
  19579721.069                        2602.966          25.000                  
                                                
  18040592.960                       -1194.222          21.000                  
                                                
  18766107.677                        1507.486          22.000                  
                                                
 18  5  8 14 44  6.9930000  0 12R11G27R21G 4G31G26G22R22R 1R 3R12G23
  20352643.922   108758269.424       -2818.239          28.000                  
                                                
  19941654.089                        2784.265          23.000                  
                                                
  20549969.980   109967008.714        -105.184          35.000                  
                                                
  20261091.231   106472808.867       -3345.463          38.000                  
                                                
  21673936.401   113897284.022       -2494.574          38.000                  
                                                
  19383931.807   101863214.874       -2600.851          35.000                  
                                                
  21741981.772   114254748.205       -3012.799          31.000                  
                                                
  20421930.600                        2936.373          25.000                  
                                                
  20416132.375                       -4546.054          22.000                  
                                                
  19579234.147                        2604.719          25.000                  
                                                
  18040817.300                       -1191.283          20.000                  
                                                
  18765817.357                        1519.211          22.000                  
                                                
 18  5  8 14 44  7.9930000  0 12R11G27R21G 4G31G26G22R22R 1R 3R12G23
  20353172.768   108761087.607       -2818.054          29.000                  
                                                
  19941123.594                        2781.919          22.000                  
                                                
  20549989.760   109967114.637        -106.431          35.000                  
                                                
  20261727.972   106476154.805       -3345.944          38.000                  
                                                
  21674410.916   113899778.359       -2494.678          38.000                  
                                                
  19384426.555   101865815.337       -2600.511          35.000                  
                                                
  21742553.537   114257759.746       -3011.395          31.000                  
                                                
  20421380.656                        2936.287          24.000                  
                                                
  20416984.077                       -4557.522          22.000                  
                                                
  19578746.884                        2603.109          25.000                  
                                                
  18041040.846                       -1191.098          19.000                  
                                                
  18765528.111                        1525.546          22.000                  
                                                
 18  5  8 14 44  8.9930000  0 13R11G27R21G 4G31G26G22R22R 1R 3R12G 3
                                G23
  20353703.656   108763905.935       -2818.124          29.000                  
                                                
  19940589.137                        2783.405          21.000                  
                                                
  20550009.540   109967221.474        -106.854          35.000                  
                                                
  20262364.713   106479501.048       -3346.135          38.000                  
                                                
  21674885.039   113902272.855       -2494.232          38.000                  
                                                
  19384921.025   101868416.260       -2600.945          35.000                  
                                                
  21743121.978   114260771.501       -3010.486          31.000                  
                                                
  20420832.126                        2935.221          23.000                  
                                                
  20417836.877                       -4556.500          22.000                  
                                                
  19578261.733                        2603.539          26.000                  
                                                
  18041264.051                       -1191.098          17.000                  
                                                
  20756279.794                       -2673.000          20.000                  
                                                
  18765236.562                        1518.865          22.000                  
                                                
 18  5  8 14 44  9.9930000  0 13R11G27R21G 4G31G26G22R22R 1R 3R12G 3
                                G23
  20354232.589   108766724.061       -2817.980          29.000                  
                                                
  19940057.787                        2784.729          19.000                  
                                                
  20550029.319   109967329.010        -107.209          35.000                  
                                                
  20263001.620   106482847.367       -3346.486          38.000                  
                                                
  21675359.353   113904767.293       -2494.360          38.000                  
                                                
  19385415.677   101871017.285       -2601.050          35.000                  
                                                
  21743697.608   114263783.277       -3011.932          31.000                  
                                                
  20420280.367                        2933.222          23.000                  
                                                
  20418691.406                       -4552.926          22.000                  
                                                
  19577775.029                        2602.288          25.000                  
                                                
  18041487.920                       -1188.151          16.000                  
                                                
  20756784.533                       -2673.000          19.000                  
                                                
  18764945.981                        1513.285          22.000                  
                                                
 18  5  8 14 44 10.9930000  0 13R11G27R21G 4G31G26G22R22R 1R 3R12G 3
                                G23
  20354759.394   108769542.536       -2818.687          29.000                  
                                                
  19939527.815                        2782.683          19.000                  
                                                
  20550049.326   109967437.748        -109.890          35.000                  
                                                
  20263638.404   106486194.249       -3347.433          38.000                  
                                                
  21675833.510   113907262.156       -2495.471          37.000                  
                                                
  19385910.818   101873619.016       -2602.336          35.000                  
                                                
  21744268.055   114266795.393       -3012.177          30.000                  
                                                
  20419731.104                        2932.448          22.000                  
                                                
  20419544.948                       -4553.867          22.000                  
                                                
  19577290.481                        2601.555          25.000                  
                                                
  18041711.056                       -1188.151          15.000                  
                                                
  20757282.693                       -2673.000          20.000                  
                                                
  18764656.359                        1517.491          22.000                  
                                                
 18  5  8 14 44 11.9930000  0 13R11G27R21G 4G31G26G22R22R 1R 3R12G 3
                                G23
  20355289.453   108772361.609       -2819.481          29.000                  
                                                
  19938997.555                        2784.417          18.000                  
                                                
  20550069.193   109967547.844        -110.637          35.000                  
                                                
  20264275.460   106489541.853       -3347.627          38.000                  
                                                
  21676307.877   113909757.602       -2495.544          37.000                  
                                                
  19386405.768   101876221.531       -2602.444          35.000                  
                                                
  21744843.869   114269808.119       -3012.360          30.000                  
                                                
  20419179.520                        2933.788          21.000                  
                                                
  20420397.732                       -4570.583          22.000                  
                                                
  19576804.597                        2600.392          25.000                  
                                                
  18041932.761                       -1188.151          11.000                  
                                                
  20757785.155                       -2673.000          21.000                  
                                                
  18764367.262                        1521.186          22.000                  
                                                
 18  5  8 14 44 12.9930000  0 13R11G27R21G 4G31G26G22R22R 1R 3R12G 3
                                G23
  20355815.647   108775180.037       -2818.348          29.000                  
                                                
  19938467.662                        2778.882          18.000                  
                                                
  20550089.592   109967658.197        -111.034          35.000                  
                                                
  20264912.680   106492889.071       -3346.896          38.000                  
                                                
  21676782.392   113912252.537       -2494.788          37.000                  
                                                
  19386900.630   101878823.779       -2602.697          35.000                  
                                                
  21745418.095   114272820.337       -3011.847          30.000                  
                                                
  20418627.230                        2931.019          21.000                  
                                                
  20421251.283                       -4565.075          22.000                  
                                                
  19576319.620                        2600.693          26.000                  
                                                
  18042155.818                       -1188.151          11.000                  
                                                
  20758290.906                       -2673.000          22.000                  
                                                
  18764077.658                        1507.076          22.000                  
                                                
 18  5  8 14 44 13.9930000  0 14R11G27R21G 4G31G26G22G16R22R 1R 3R12
                                G 3G23
  20356340.393   108777998.874       -2819.549          29.000                  
                                                
  19937936.582                        2787.392          17.000                  
                                                
  20550110.323   109967769.777        -112.539          35.000                  
                                                
  20265549.919   106496236.946       -3348.436          38.000                  
                                                
  21677256.864   113914747.956       -2495.972          37.000                  
                                                
  19387395.658   101881426.700       -2603.384          35.000                  
                                                
  21745987.914   114275833.019       -3013.055          30.000                  
                                                
  17878496.296                       -1022.854          18.000                  
                                                
  20418077.653                        2927.594          21.000                  
                                                
  20422106.536                       -4563.350          22.000                  
                                                
  19575834.548   104790944.7182       2598.849          26.000                  
                                                
  18042379.426                       -1188.151          10.000                  
                                                
  20758796.281                       -2673.000          22.000                  
                                                
  18763792.844                        1508.664          23.000                  
                                                
 18  5  8 14 44 14.9930000  0 13R11G27R21G 4G31G26G22G16R22R 1R 3G 3
                                G23
  20356864.126   108780818.399       -2819.779          29.000                  
                                                
  19937405.903                        2778.715          17.000                  
                                                
  20550131.604   109967882.916        -114.077          36.000                  
                                                
  20266187.000   106499585.687       -3348.865          38.000                  
                                                
  21677731.632   113917244.127       -2496.338          36.000                  
                                                
  19387891.087   101884030.657       -2604.069          35.000                  
                                                
  21746556.913   114278846.472       -3013.397          29.000                  
                                                
  17878692.419                       -1022.854          17.000                  
                                                
  20417526.854                        2923.143          21.000                  
                                                
  20422960.916                       -4562.103          21.000                  
                                                
  19575350.706   104788346.4812       2597.601          27.000                  
                                                
  20759300.758                       -2673.000          22.000                  
                                                
  18763504.854                        1516.741          23.000                  
                                                
 18  5  8 14 44 15.9930000  0 12R11G27R21G 4G31G26G22G16R22R 1R 3G23
  20357388.348   108783637.431       -2818.569          29.000                  
                                                
  19936876.263                        2777.294          18.000                  
                                                
  20550152.562   109967996.396        -113.868          36.000                  
                                                
  20266824.221   106502934.199       -3348.261          39.000                  
                                                
  21678205.955   113919739.894       -2495.526          36.000                  
                                                
  19388386.411   101886634.428       -2603.442          35.000                  
                                                
  21747135.999   114281859.563       -3012.500          29.000                  
                                                
  17878882.085                       -1022.854          17.000                  
                                                
  20416977.259                        2929.370          22.000                  
                                                
  20423814.319                       -4553.858          21.000                  
                                                
  19574868.067   104785748.4172       2598.344          27.000                  
                                                
  18763218.898                        1503.508          23.000                  
                                                
 18  5  8 14 44 16.9930000  0 13R11G27R21G 4G31G26G22G16R22R 1R 3R 2
                                G23
  20357918.189   108786456.366       -2819.449          29.000                  
                                                
  19936345.549                        2770.140          18.000                  
                                                
  20550173.441   109968110.491        -114.418          36.000                  
                                                
  20267461.590   106506282.751       -3348.860          39.000                  
                                                
  21678680.644   113922235.618       -2496.338          35.000                  
                                                
  19388881.500   101889238.347       -2604.354          35.000                  
                                                
  21747708.279   114284872.560       -3013.293          29.000                  
                                                
  17879073.898                       -1022.854          17.000                  
                                                
  20416429.174                        2928.924          22.000                  
                                                
  20424667.774                       -4550.223          21.000                  
                                                
  19574381.939   104783150.8992       2596.912          28.000                  
                                                
  17544463.797                       -1329.510          25.000                  
                                                
  18762930.847                        1510.578          23.000                  
                                                
 18  5  8 14 44 17.9930000  0 13R11G27R21G 4G31G26G22G16R22R 1R 3R 2
                                G23
  20358450.255   108789275.400       -2819.186          29.000                  
                                                
  19935817.995                        2772.499          17.000                  
                                                
  20550194.939   109968225.619        -115.496          36.000                  
                                                
  20268098.794   106509631.627       -3349.595          39.000                  
                                                
  21679155.325   113924731.464       -2495.978          36.000                  
                                                
  19389376.632   101891842.664       -2604.886          35.000                  
                                                
  21748278.988   114287885.643       -3012.921          28.000                  
                                                
  17879262.265                       -1022.854          16.000                  
                                                
  20415880.574                        2929.778          23.000                  
                                                
  20425521.831                       -4555.816          21.000                  
                                                
  19573896.806   104780554.1532       2596.097          28.000                  
                                                
  17544710.691                       -1330.849          25.000                  
                                                
  18762644.471                        1515.798          24.000                  
                                                
 18  5  8 14 44 18.9930000  0 13R11G27R21G 4G31G26G22G16R22R 1R 3R 2
                                G23
  20358975.393   108792094.496       -2819.757          30.000                  
                                                
  19935290.029                        2778.467          16.000                  
                                                
  20550216.176   109968341.565        -115.614          36.000                  
                                                
  20268735.884   106512980.669       -3348.216          39.000                  
                                                
  21679629.989   113927227.384       -2495.026          35.000                  
                                                
  19389872.070   101894447.287       -2604.409          35.000                  
                                                
  21748854.906   114290898.897       -3012.701          28.000                  
                                                
  17879454.566                       -1022.854          14.000                  
                                                
  20415333.554                        2926.293          23.000                  
                                                
  20426376.272                       -4557.553          20.000                  
                                                
  19573410.320   104777958.0712       2596.652          28.000                  
                                                
  17544956.059                       -1330.593          26.000                  
                                                
  18762359.789                        1508.512          24.000                  
                                                
 18  5  8 14 44 19.9930000  0 14R11G27R21G 4G31G26G22G16R22R 1R 3R 2
                                R12G23
  20359506.865   108794913.001       -2818.282          30.000                  
                                                
  19934762.771                        2778.467          16.000                  
                                                
  20550237.439   109968457.905        -117.291          36.000                  
                                                
  20269373.549   106516329.556       -3349.532          39.000                  
                                                
  21680104.504   113929722.996       -2495.990          35.000                  
                                                
  19390366.897   101897051.771       -2604.839          35.000                  
                                                
  21749426.418   114293911.800       -3013.586          28.000                  
                                                
  17879643.386                       -1022.854          11.000                  
                                                
  20414783.366                        2922.601          23.000                  
                                                
  20427229.134                       -4550.719          20.000                  
                                                
  19572923.991   104775362.1882       2595.790          28.000                  
                                                
  17545202.726                       -1331.551          26.000                  
                                                
  18043713.521                       -1194.351          15.000                  
                                                
  18762073.989                        1502.909          25.000                  
                                                
 18  5  8 14 44 20.9930000  0 14R11G27R21G 4G31G26G22G16R22R 1R 3R 2
                                R12G23
  20360035.886   108797731.945       -2819.176          31.000                  
                                                
  19934234.989                        2775.126          16.000                  
                                                
  20550259.217   109968575.472        -118.332          36.000                  
                                                
  20270010.980   106519679.015       -3349.712          39.000                  
                                                
  21680579.088   113932219.034       -2495.886          35.000                  
                                                
  19390862.388   101899656.919       -2604.872          35.000                  
                                                
  21750000.810   114296925.079       -3013.397          28.000                  
                                                
  17879838.506                       -1022.854          10.000                  
                                                
  20414236.668                        2927.003          24.000                  
                                                
  20428081.508                       -4559.846          19.000                  
                                                
  19572440.742   104772767.368        2594.642          28.000                  
                                                
  17545452.352                       -1334.006          26.000                  
                                                
  18043940.801                       -1194.964          18.000                  
                                                
  18761788.259                        1510.145          25.000                  
                                                
 18  5  8 14 44 21.9930000  0 13R11G27R21G 4G31G26G22R22R 1R 3R 2R12
                                G23
  20360559.131   108800550.649       -2818.788          31.000                  
                                                
  19933707.722                        2784.135          16.000                  
                                                
  20550281.135   109968693.570        -117.719          36.000                  
                                                
  20270648.392   106523028.388       -3348.758          39.000                  
                                                
  21681053.830   113934714.893       -2495.251          35.000                  
                                                
  19391357.712   101902262.121       -2604.253          35.000                  
                                                
  21750573.177   114299938.190       -3012.299          28.000                  
                                                
  20413688.382                        2928.787          25.000                  
                                                
  20428935.992                       -4562.018          19.000                  
                                                
  19571956.054   104770172.914        2595.136          28.000                  
                                                
  17545700.773                       -1332.694          26.000                  
                                                
  18044165.377                       -1191.696          20.000                  
                                                
  18761500.688                        1510.249          24.000                  
                                                
 18  5  8 14 44 22.9930000  0 13R11G27R21G 4G31G26G22R22R 1R 3R 2R12
                                G23
  20361085.395   108803368.290       -2818.119          31.000                  
                                                
  19933178.413                        2784.135          15.000                  
                                                
  20550302.668   109968811.478        -118.445          36.000                  
                                                
  20271285.448   106526376.930       -3348.628          39.000                  
                                                
  21681528.276   113937209.763       -2495.227          35.000                  
                                                
  19391852.993   101904866.575       -2604.681          36.000                  
                                                
  21751147.132   114302950.292       -3011.896          28.000                  
                                                
  20413143.717                        2929.480          25.000                  
                                                
  20429790.311                       -4561.739          18.000                  
                                                
  19571472.194   104767578.069        2594.335          28.000                  
                                                
  17545948.906                       -1333.288          26.000                  
                                                
  18044390.415                       -1187.279          21.000                  
                                                
  18761214.470                        1510.413          23.000                  
                                                
 18  5  8 14 44 23.9930000  0 13R11G27R21G 4G31G26G22R22R 1R 3R 2R12
                                G23
  20361613.944   108806186.572       -2818.327          31.000                  
                                                
  19932650.553                        2775.336          16.000                  
                                                
  20550324.664   109968930.897        -120.200          36.000                  
                                                
  20271922.948   106529726.403       -3350.024          40.000                  
                                                
  21682003.026   113939705.397       -2496.222          35.000                  
                                                
  19392348.710   101907472.015       -2606.124          36.000                  
                                                
  21751717.178   114305963.286       -3013.531          27.000                  
                                                
  20412596.557                        2928.088          25.000                  
                                                
  20430642.536                       -4563.444          17.000                  
                                                
  19570986.973   104764984.612        2592.428          28.000                  
                                                
  17546196.760                       -1336.108          26.000                  
                                                
  18044615.750                       -1191.900          22.000                  
                                                
  18760926.611                        1507.780          23.000                  
                                                
 18  5  8 14 44 24.9930000  0 13R11G27R21G 4G31G26G22R22R 1R 3R 2R12
                                G23
  20362143.811   108809005.164       -2817.992          32.000                  
                                                
  19932124.324                        2774.211          17.000                  
                                                
  20550347.001   109969051.470        -120.854          36.000                  
                                                
  20272560.483   106533076.356       -3349.729          40.000                  
                                                
  21682477.820   113942201.379       -2495.392          35.000                  
                                                
  19392844.479   101910078.054       -2605.687          37.000                  
                                                
  21752290.540   114308976.530       -3013.257          27.000                  
                                                
  20412048.035                        2927.318          26.000                  
                                                
  20431497.309                       -4563.444          16.000                  
                                                
  19570506.098   104762392.135        2592.540          28.000                  
                                                
  17546447.206                       -1336.109          26.000                  
                                                
  18044840.421                       -1206.278          22.000                  
                                                
  18760638.534                        1502.360          23.000                  
                                                
 18  5  8 14 44 25.9930000  0 13R11G27R21G 4G31G26G22R22R 1R 3R 2R12
                                G23
  20362672.885   108811823.269       -2817.833          32.000                  
                                                
  19931599.806                        2776.810          18.000                  
                                                
  20550369.346   109969172.334        -121.765          36.000                  
                                                
  20273198.201   106536426.014       -3349.774          40.000                  
                                                
  21682952.510   113944696.974       -2495.850          35.000                  
                                                
  19393340.458   101912683.881       -2605.917          36.000                  
                                                
  21752862.279   114311989.367       -3013.104          28.000                  
                                                
  20411499.200                        2928.022          26.000                  
                                                
  20432351.035                       -4563.444          15.000                  
                                                
  19570024.210   104759799.885        2591.553          28.000                  
                                                
  17546696.622                       -1336.385          27.000                  
                                                
  18045065.895                       -1201.802          21.000                  
                                                
  18760351.225                        1506.464          22.000                  
                                                
 18  5  8 14 44 26.9930000  0 13R11G27R21G 4G31G26G22R22R 1R 3R 2R12
                                G23
  20363198.712   108814642.126       -2819.196          32.000                  
                                                
  19931074.449                        2767.958          20.000                  
                                                
  20550391.813   109969294.762        -123.343          36.000                  
                                                
  20273836.094   106539776.615       -3351.028          40.000                  
                                                
  21683427.025   113947193.321       -2496.411          34.000                  
                                                
  19393836.603   101915290.763       -2607.419          36.000                  
                                                
  21753436.984   114315003.039       -3014.459          28.000                  
                                                
  20410952.476                        2924.958          26.000                  
                                                
  20433205.179                       -4558.444          15.000                  
                                                
  19569542.191   104757208.979        2590.324          28.000                  
                                                
  17546949.214    93633797.4132      -1338.441          27.000                  
                                                
  18045289.659                       -1191.245          21.000                  
                                                
  18760064.631                        1502.535          22.000                  
                                                
 18  5  8 14 44 27.9930000  0 13R11G27R21G 4G31G26G22R22R 1R 3R 2R12
                                G23
  20363726.407   108817461.194       -2818.241          32.000                  
                                                
  19930549.782                        2772.206          20.000                  
                                                
  20550414.856   109969418.272        -123.352          37.000                  
                                                
  20274473.855   106543127.676       -3350.534          41.000                  
                                                
  21683901.802   113949690.053       -2496.771          34.000                  
                                                
  19394332.573   101917898.145       -2606.797          36.000                  
                                                
  21754014.447   114318016.935       -3013.226          28.000                  
                                                
  20410405.193                        2927.158          25.000                  
                                                
  20434058.696                       -4558.444          14.000                  
                                                
  19569058.087   104754618.981        2590.299          28.000                  
                                                
  17547198.891    93635136.2472      -1338.504          27.000                  
                                                
  18045514.532                       -1199.968          21.000                  
                                                
  18759777.593                        1513.565          22.000                  
                                                
 18  5  8 14 44 28.9930000  0 14R11G27R21G 4G31G26G22R22R 1R 3G14R 2
                                R12G23
  20364253.866   108820278.919       -2817.418          32.000                  
                                                
  19930027.960                        2785.530          20.000                  
                                                
  20550437.654   109969541.324        -123.049          37.000                  
                                                
  20275111.260   106546477.605       -3349.846          40.000                  
                                                
  21684376.326   113952185.449       -2495.221          35.000                  
                                                
  19394828.176   101920504.486       -2606.111          36.000                  
                                                
  21754588.533   114321029.654       -3012.683          27.000                  
                                                
  20409858.932   108949126.7593       2927.025          25.000                  
                                                
  20434910.371                       -4558.444          13.000                  
                                                
  19568580.422   104752028.280        2590.619          28.000                  
                                                
  21701819.240                       -3466.523          26.000                  
                                                
  17547450.401    93636474.6532      -1338.980          26.000                  
                                                
  18045741.838                       -1199.880          21.000                  
                                                
  18759492.098                        1503.018          21.000                  
                                                
 18  5  8 14 44 29.9930000  0 13R11G27R21G 4G31G26G22R22R 3G14R 2R12
                                G23
  20364781.490   108823096.575       -2817.964          32.000                  
                                                
  19929506.451                        2774.938          19.000                  
                                                
  20550461.046   109969665.153        -124.655          37.000                  
                                                
  20275748.742   106549827.695       -3350.576          40.000                  
                                                
  21684851.129   113954680.902       -2495.782          34.000                  
                                                
  19395324.059   101923111.106       -2607.085          37.000                  
                                                
  21755161.834   114324042.380       -3013.019          27.000                  
                                                
  20409311.021                        2924.768          26.000                  
                                                
  19568098.744   104749438.167        2589.377          28.000                  
                                                
  21702477.480                       -3468.370          26.000                  
                                                
  17547701.815    93637813.8372      -1339.516          26.000                  
                                                
  18045969.686                       -1204.416          21.000                  
                                                
  18759205.819                        1505.228          20.000                  
                                                
 18  5  8 14 44 30.9930000  0 13R11G27R21G 4G31G26G22R22R 3G14R 2R12
                                G23
  20365309.464   108825914.978       -2818.508          32.000                  
                                                
  19928985.911                        2766.432          20.000                  
                                                
  20550484.482   109969790.507        -126.289          38.000                  
                                                
  20276386.521   106553178.695       -3351.290          40.000                  
                                                
  21685325.888   113957177.119       -2496.716          34.000                  
                                                
  19395820.099   101925718.701       -2607.639          37.000                  
                                                
  21755737.229   114327055.855       -3013.739          27.000                  
                                                
  20408763.285                        2925.178          26.000                  
                                                
  19567613.986   104746849.462        2587.952          28.000                  
                                                
  21703133.800                       -3468.416          26.000                  
                                                
  17547956.022    93639154.7372      -1341.286          26.000                  
                                                
  18046196.094                       -1198.396          21.000                  
                                                
  18758918.571                        1505.945          19.000                  
                                                
 18  5  8 14 44 31.9930000  0 13R11G27R21G 4G31G26G22R22R 3G14R 2R12
                                G23
  20365836.609   108828732.839       -2817.558          32.000                  
                                                
  19928465.511                        2764.436          20.000                  
                                                
  20550508.084   109969916.116        -125.771          38.000                  
                                                
  20277024.179   106556529.394       -3350.618          40.000                  
                                                
  21685800.237   113959672.890       -2495.764          34.000                  
                                                
  19396316.130   101928326.116       -2607.157          37.000                  
                                                
  21756314.421   114330068.893       -3012.817          27.000                  
                                                
  20408216.090                        2925.870          26.000                  
                                                
  19567128.966   104744260.826        2588.934          28.000                  
                                                
  21703791.839                       -3468.926          26.000                  
                                                
  17548209.032    93640496.0182      -1341.909          26.000                  
                                                
  18046422.624                       -1192.018          20.000                  
                                                
  18758627.868                        1504.897          18.000                  
                                                
 18  5  8 14 44 32.9930000  0 13R11G27R21G 4G31G26G22R22R 3G14R 2R12
                                G23
  20366364.112   108831550.714       -2818.718          33.000                  
                                                
  19927943.479                        2768.998          21.000                  
                                                
  20550531.877   109970042.595        -126.895          38.000                  
                                                
  20277661.879   106559880.302       -3351.358          40.000                  
                                                
  21686274.604   113962168.713       -2496.112          34.000                  
                                                
  19396812.467   101930933.811       -2608.330          37.000                  
                                                
  21756887.844   114333082.027       -3014.117          27.000                  
                                                
  20407668.650                        2923.158          26.000                  
                                                
  19566647.863   104741672.944        2587.603          28.000                  
                                                
  21704450.559                       -3469.269          26.000                  
                                                
  17548462.183    93641837.653       -1342.677          26.000                  
                                                
  18046645.559                       -1189.860          18.000                  
                                                
  18758340.253                        1509.761          17.000                  
                                                
 18  5  8 14 44 33.9930000  0 13R11G27R21G 4G31G26G22R22R 3G14R 2R12
                                G23
  20366892.260   108834368.999       -2817.901          32.000                  
                                                
  19927421.805                        2778.799          21.000                  
                                                
  20550555.845   109970170.407        -128.175          38.000                  
                                                
  20278299.746   106563231.841       -3351.294          40.000                  
                                                
  21686749.215   113964665.074       -2496.124          34.000                  
                                                
  19397308.987   101933542.223       -2608.446          38.000                  
                                                
  21757461.301   114336095.591       -3013.855          27.000                  
                                                
  20407119.928                        2922.380          26.000                  
                                                
  19566164.675   104739086.216        2586.511          28.000                  
                                                
  21705109.915                       -3468.287          26.000                  
                                                
  17548716.650    93643181.121       -1343.572          25.000                  
                                                
  18046868.337                       -1189.860          17.000                  
                                                
  18758057.307                        1505.704          18.000                  
                                                
 18  5  8 14 44 34.9930000  0 13R11G27R21G 4G31G26G22R22R 3G14R 2R12
                                G23
  20367419.780   108837187.009       -2818.590          31.000                  
                                                
  19926896.466                        2773.640          19.000                  
                                                
  20550579.752   109970298.766        -128.638          38.000                  
                                                
  20278937.612   106566583.350       -3351.437          41.000                  
                                                
  21687223.939   113967161.248       -2495.892          33.000                  
                                                
  19397805.280   101936150.683       -2608.511          38.000                  
                                                
  21758033.756   114339108.946       -3013.220          27.000                  
                                                
  20406571.154                        2924.417          26.000                  
                                                
  19565681.976   104736499.889        2586.019          29.000                  
                                                
  21705767.605                       -3469.531          26.000                  
                                                
  17548973.134    93644607.7361      -1344.389          25.000                  
                                                
  18047095.652                       -1203.247          16.000                  
                                                
  18757769.483                        1505.704          17.000                  
                                                
 18  5  8 14 44 35.9930000  0 13R11G27R21G 4G31G26G22R22R 3G14R 2R12
                                G23
  20367947.161   108840005.341       -2818.613          31.000                  
                                                
  19926371.834                        2769.164          19.000                  
                                                
  20550603.440   109970428.274        -130.233          37.000                  
                                                
  20279575.357   106569935.390       -3352.325          41.000                  
                                                
  21687698.324   113969657.814       -2496.863          33.000                  
                                                
  19398302.105   101938759.752       -2609.153          38.000                  
                                                
  21758607.711   114342122.832       -3014.203          27.000                  
                                                
  20406021.821                        2923.576          25.000                  
                                                
  19565201.101   104733914.555        2584.652          29.000                  
                                                
  21706423.934   114068047.9413      -3470.691          26.000                  
                                                
  17549228.413    93645953.151       -1347.098          25.000                  
                                                
  18047320.376                       -1205.983          17.000                  
                                                
  18757480.324                        1505.704          15.000                  
                                                
 18  5  8 14 44 36.9930000  0 13R11G27R21G 4G31G26G22R22R 3G14R 2R12
                                G23
  20368474.785   108842824.387       -2819.293          31.000                  
                                                
  19925845.535                        2759.948          19.000                  
                                                
  20550627.932   109970559.267        -131.362          38.000                  
                                                
  20280213.372   106573288.278       -3352.979          41.000                  
                                                
  21688173.266   113972155.105       -2497.504          33.000                  
                                                
  19398798.642   101941369.810       -2609.893          38.000                  
                                                
  21759180.916   114345137.357       -3014.874          27.000                  
                                                
  20405473.788                        2922.951          25.000                  
                                                
  19564719.265   104731330.584        2583.322          29.000                  
                                                
  21707084.486   114071518.7592      -3471.112          26.000                  
                                                
  17549485.202    93647299.9242      -1346.779          25.000                  
                                                
  18047544.751                       -1204.032          18.000                  
                                                
  18757194.280                        1496.994          15.000                  
                                                
 18  5  8 14 44 37.9930000  0 14R11G27R21G 4G31G26G22G16R22R 3G14R 2
                                R12G23
  20369002.489   108845643.042       -2818.301          31.000                  
                                                
  19925319.629                        2764.235          19.000                  
                                                
  20550652.711   109970690.741        -131.284          38.000                  
                                                
  20280851.613   106576641.001       -3352.209          41.000                  
                                                
  21688647.711   113974652.062       -2496.320          33.000                  
                                                
  19399295.040   101943979.760       -2609.142          37.000                  
                                                
  21759752.061   114348151.554       -3013.635          27.000                  
                                                
  17883166.062                       -1033.452          23.000                  
                                                
  20404927.334                        2923.691          24.000                  
                                                
  19564239.044   104728746.848        2583.947          29.000                  
                                                
  21707741.905   114074989.4472      -3470.728          26.000                  
                                                
  17549741.161                       -1342.472          22.000                  
                                                
  18047766.753                       -1191.032          20.000                  
                                                
  18756909.649                        1494.742          16.000                  
                                                
 18  5  8 14 44 38.9930000  0 14R11G27R21G 4G31G26G22G16R22R 3G14R 2
                                R12G23
  20369530.332   108848460.986       -2818.719          31.000                  
                                                
  19924793.723                        2765.133          19.000                  
                                                
  20550676.984   109970822.320        -132.290          37.000                  
                                                
  20281489.428   106579993.199       -3352.566          41.000                  
                                                
  21689122.113   113977148.415       -2496.423          33.000                  
                                                
  19399791.420   101946589.285       -2609.948          38.000                  
                                                
  21760325.973   114351165.093       -3013.593          26.000                  
                                                
  17883360.143                       -1033.452          23.000                  
                                                
  20404379.956                        2923.053          24.000                  
                                                
  19563758.823   104726162.986        2584.109          29.000                  
                                                
  21708399.613   114078459.6152      -3470.844          27.000                  
                                                
  17549995.507                       -1341.376          21.000                  
                                                
  18047990.107                       -1199.681          21.000                  
                                                
  18756625.691                        1494.742          16.000                  
                                                
 18  5  8 14 44 39.9930000  0 14R11G27R21G 4G31G26G22G16R22R 3G14R 2
                                R12G23
  20370058.349   108851279.182       -2817.964          32.000                  
                                                
  19924270.130                        2770.496          19.000                  
                                                
  20550701.772   109970955.085        -133.347          37.000                  
                                                
  20282127.303   106583346.015       -3353.332          40.000                  
                                                
  21689596.454   113979645.220       -2497.266          31.000                  
                                                
  19400288.158   101949199.514       -2610.508          38.000                  
                                                
  21760899.867   114354179.117       -3014.483          27.000                  
                                                
  17883557.304                       -1033.452          24.000                  
                                                
  20403830.353                        2923.110          24.000                  
                                                
  19563279.465   104723580.304        2582.262          29.000                  
                                                
  21709058.681   114081930.4492      -3471.118          27.000                  
                                                
  17550251.249                       -1348.881          20.000                  
                                                
  18048214.918                       -1195.113          22.000                  
                                                
  18756338.896                        1494.283          15.000                  
                                                
 18  5  8 14 44 40.9930000  0 15R11G27R21G 4G31G26G22G16R22R 1R 3G14
                                R 2R12G23
  20370586.366   108854097.712       -2818.291          31.000                  
                                                
  19923746.039                        2779.392          20.000                  
                                                
  20550726.604   109971088.917        -134.094          37.000                  
                                                
  20282765.562   106586699.220       -3352.910          41.000                  
                                                
  21690068.273   113982142.268       -2497.327          31.000                  
                                                
  19400784.608   101951810.231       -2610.575          38.000                  
                                                
  21761473.900   114357193.419       -3013.959          27.000                  
                                                
  17883753.959                       -1033.452          24.000                  
                                                
  20403284.641                        2921.854          25.000                  
                                                
  20445144.505                       -4564.753          15.000                  
                                                
  19562797.351   104720998.444        2582.316          29.000                  
                                                
  21709719.539   114085401.7412      -3470.660          27.000                  
                                                
  17550505.970                       -1346.997          19.000                  
                                                
  18048436.161                       -1196.643          23.000                  
                                                
  18756054.903                        1494.283          14.000                  
                                                
 18  5  8 14 44 41.9930000  0 14R11G27R21G 4G31G26G22R22R 1R 3G14R 2
                                R12G23
  20371114.113   108856915.505       -2818.094          32.000                  
                                                
  19923222.323                        2769.316          21.000                  
                                                
  20550751.584   109971222.867        -134.454          37.000                  
                                                
  20283403.690   106590051.964       -3352.770          40.000                  
                                                
  21690535.781   113984638.764       -2497.083          30.000                  
                                                
  19401281.537   101954420.591       -2610.848          37.000                  
                                                
  21762047.140   114360207.112       -3013.977          27.000                  
                                                
  20402738.615                        2921.781          24.000                  
                                                
  20445997.001                       -4564.577          19.000                  
                                                
  19562313.465   104718416.563        2581.687          29.000                  
                                                
  21710376.592   114088872.6452      -3471.210          27.000                  
                                                
  17550759.530                       -1353.496          19.000                  
                                                
  18048659.131                       -1198.184          23.000                  
                                                
  18755770.543                        1499.897          15.000                  
                                                
 18  5  8 14 44 42.9930000  0 14R11G27R21G 4G31G26G22R22R 1R 3G14R 2
                                R12G23
  20371642.096   108859733.748       -2818.672          32.000                  
                                                
  19922695.579                        2769.243          22.000                  
                                                
  20550776.660   109971358.137        -135.976          37.000                  
                                                
  20284041.993   106593405.343       -3353.671          40.000                  
                                                
  21691005.812   113987135.646       -2496.521          30.000                  
                                                
  19401778.240   101957031.662       -2611.840          37.000                  
                                                
  21762621.531   114363221.338       -3014.600          27.000                  
                                                
  20402191.280                        2923.381          23.000                  
                                                
  20446851.529                       -4560.677          21.000                  
                                                
  19561830.408   104715835.833        2579.893          28.000                  
                                                
  21711037.248   114092344.1532      -3471.887          27.000                  
                                                
  17551013.919                       -1347.728          20.000                  
                                                
  18048880.199                       -1199.239          25.000                  
                                                
  18755485.450                        1499.897          15.000                  
                                                
 18  5  8 14 44 43.9930000  0 14R11G27R21G 4G31G26G22R22R 1R 3G14R 2
                                R12G23
  20372169.991   108862552.427       -2818.455          32.000                  
                                                
  19922168.521                        2766.461          23.000                  
                                                
  20550802.067   109971494.680        -136.600          38.000                  
                                                
  20284680.383   106596759.382       -3353.761          40.000                  
                                                
  21691480.396   113989633.135       -2496.790          30.000                  
                                                
  19402274.996   101959643.443       -2611.810          38.000                  
                                                
  21763193.427   114366235.967       -3014.270          27.000                  
                                                
  20401642.331                        2909.167          21.000                  
                                                
  20447705.935                       -4574.567          21.000                  
                                                
  19561346.749   104713256.164        2579.688          28.000                  
                                                
  21711700.068   114095816.4252      -3471.973          27.000                  
                                                
  17551266.520                       -1361.192          19.000                  
                                                
  18049103.300                       -1199.071          25.000                  
                                                
  18755199.938                        1499.897          14.000                  
                                                
 18  5  8 14 44 44.9930000  0 14R11G27R21G 4G31G26G22R22R 1R 3G14R 2
                                R12G23
  20372698.017   108865370.340       -2818.777          31.000                  
                                                
  19921642.851                        2766.355          22.000                  
                                                
  20550827.737   109971631.333        -136.896          38.000                  
                                                
  20285318.380   106600112.899       -3353.433          40.000                  
                                                
  21691959.658   113992130.012       -2497.260          30.000                  
                                                
  19402771.655   101962254.822       -2611.476          38.000                  
                                                
  21763769.843   114369250.039       -3014.093          27.000                  
                                                
  20401094.865                        2915.033          20.000                  
                                                
  20448557.820                       -4560.239          22.000                  
                                                
  19560865.332   104710676.491        2578.453          28.000                  
                                                
  21712359.486   114099288.2102      -3472.351          27.000                  
                                                
  17551522.174                       -1347.526          20.000                  
                                                
  18049323.085                       -1197.986          25.000                  
                                                
  18754914.086                        1499.897          12.000                  
                                                
 18  5  8 14 44 45.9930000  0 14R11G27R21G 4G31G26G22R22R 1R 3G14R 2
                                R12G23
  20373225.502   108868188.829       -2819.362          31.000                  
                                                
  19921117.189                        2766.360          23.000                  
                                                
  20550853.441   109971769.385        -139.048          38.000                  
                                                
  20285956.264   106603467.196       -3354.740          40.000                  
                                                
  21692438.989   113994627.428       -2497.925          31.000                  
                                                
  19403268.716   101964867.079       -2613.240          38.000                  
                                                
  21764341.835   114372264.611       -3014.636          27.000                  
                                                
  20400546.771                        2918.911          19.000                  
                                                
  20449406.258                       -4565.331          23.000                  
                                                
  19560383.994   104708098.080        2577.388          28.000                  
                                                
  21713018.005   114102760.7942      -3473.328          27.000                  
                                                
  17551780.193                       -1358.391          20.000                  
                                                
  18049548.272                       -1199.495          25.000                  
                                                
  18754629.045                        1495.914          14.000                  
                                                
 18  5  8 14 44 46.9930000  0 14R11G27R21G 4G31G26G22R22R 1R 3G14R 2
                                R12G23
  20373756.460   108871007.734       -2819.332          30.000                  
                                                
  19920592.906                        2773.569          23.000                  
                                                
  20550879.337   109971908.623        -139.056          37.000                  
                                                
  20286594.550   106606822.058       -3354.631          40.000                  
                                                
  21692917.003   113997125.335       -2498.102          31.000                  
                                                
  19403766.012   101967479.964       -2612.610          38.000                  
                                                
  21764916.296   114375279.779       -3014.886          27.000                  
                                                
  20399998.337                        2916.191          18.000                  
                                                
  20450261.197                       -4563.228          24.000                  
                                                
  19559903.162   104705520.714        2577.314          28.000                  
                                                
  21713678.094   114106233.9912      -3472.986          27.000                  
                                                
  17552038.273                       -1360.194          20.000                  
                                                
  18049772.254                       -1200.467          25.000                  
                                                
  18754345.890                        1489.969          17.000                  
                                                
 18  5  8 14 44 47.9930000  0 14R11G27R21G 4G31G26G22R22R 1R 3G14R 2
                                R12G23
  20374284.643   108873825.823       -2817.693          30.000                  
                                                
  19920066.172                        2767.031          24.000                  
                                                
  20550905.434   109972048.015        -139.532          38.000                  
                                                
  20287233.018   106610176.434       -3354.470          40.000                  
                                                
  21693392.705   113999622.584       -2497.162          32.000                  
                                                
  19404263.108   101970092.461       -2612.500          38.000                  
                                                
  21765489.230   114378294.236       -3014.539          27.000                  
                                                
  20399451.561                        2916.191          16.000                  
                                                
  20451115.926                       -4565.580          24.000                  
                                                
  19559424.154   104702943.264        2577.223          28.000                  
                                                
  21714337.948   114109706.7812      -3473.529          27.000                  
                                                
  17552291.912                       -1352.321          20.000                  
                                                
  18049994.578                       -1199.645          26.000                  
                                                
  18754062.481                        1495.536          19.000                  
                                                
 18  5  8 14 44 48.9930000  0 14R11G27R21G 4G31G26G22R22R 1R 3G14R 2
                                R12G23
  20374813.874   108876644.007       -2818.133          29.000                  
                                                
  19919539.280                        2764.740          24.000                  
                                                
  20550931.225   109972188.227        -140.537          38.000                  
                                                
  20287871.295   106613531.004       -3354.988          40.000                  
                                                
  21693865.920   114002119.951       -2498.816          32.000                  
                                                
  19404760.038   101972705.259       -2612.982          37.000                  
                                                
  21766063.421   114381308.795       -3015.015          27.000                  
                                                
  20398902.926                        2916.191          14.000                  
                                                
  20451969.783                       -4564.537          25.000                  
                                                
  19558944.901   104700366.624        2576.208          27.000                  
                                                
  21714999.442   114113179.756       -3472.986          27.000                  
                                                
  17552543.867                       -1355.673          21.000                  
                                                
  18050218.517                       -1199.701          26.000                  
                                                
  18753778.094                        1494.753          20.000                  
                                                
 18  5  8 14 44 49.9930000  0 14R11G27R21G 4G31G26G22R22R 1R 3G14R 2
                                R12G23
  20375345.730   108879462.216       -2818.183          29.000                  
                                                
  19919012.213                        2761.554          24.000                  
                                                
  20550957.575   109972329.308        -141.477          37.000                  
                                                
  20288509.624   106616885.831       -3354.808          40.000                  
                                                
  21694341.525   114004617.361       -2497.113          32.000                  
                                                
  19405257.343   101975318.403       -2613.187          37.000                  
                                                
  21766635.352   114384323.387       -3014.581          27.000                  
                                                
  20398356.664                        2916.301          14.000                  
                                                
  20452822.592                       -4564.403          26.000                  
                                                
  19558464.671   104697790.551        2576.156          27.000                  
                                                
  21715658.240   114116653.026       -3473.285          27.000                  
                                                
  17552793.100                       -1355.215          20.000                  
                                                
  18050442.264                       -1201.128          25.000                  
                                                
  18753496.465                        1487.542          21.000                  
                                                
 18  5  8 14 44 50.9930000  0 14R11G27R21G 4G31G26G22R22R 1R 3G14R 2
                                R12G23
  20375871.514   108882280.106       -2817.253          29.000                  
                                                
  19918484.702                        2767.136          24.000                  
                                                
  20550984.125   109972470.870        -141.590          37.000                  
                                                
  20289147.944   106620240.551       -3354.836          40.000                  
                                                
  21694816.896   114007114.575       -2496.942          32.000                  
                                                
  19405754.386   101977931.510       -2613.245          37.000                  
                                                
  21767205.276   114387337.788       -3013.800          27.000                  
                                                
  20397810.202                        2915.613          16.000                  
                                                
  20453677.461                       -4564.197          26.000                  
                                                
  19557981.788   104695214.927        2575.578          26.000                  
                                                
  21716317.030   114120126.257       -3473.108          27.000                  
                                                
  17553042.952                       -1362.617          21.000                  
                                                
  18050664.405                       -1200.731          25.000                  
                                                
  18753215.543                        1491.186          22.000                  
                                                
 18  5  8 14 44 51.9930000  0 14R11G27R21G 4G31G26G22R22R 1R 3G14R 2
                                R12G23
  20376406.843   108885097.842       -2817.729          28.000                  
                                                
  19917955.734                        2758.042          24.000                  
                                                
  20551010.903   109972613.169        -143.576          37.000                  
                                                
  20289786.142   106623595.304       -3355.102          40.000                  
                                                
  21695292.711   114009611.685       -2497.552          32.000                  
                                                
  19406251.700   101980544.768       -2613.707          38.000                  
                                                
  21767779.598   114390352.043       -3014.337          26.000                  
                                                
  20397261.654                        2918.273          16.000                  
                                                
  20454531.134                       -4565.925          26.000                  
                                                
  19557500.738   104692639.612        2575.695          25.000                  
                                                
  21716975.191   114123599.553       -3473.517          27.000                  
                                                
  17553292.822                       -1358.436          21.000                  
                                                
  18050889.530                       -1199.880          25.000                  
                                                
  18752932.884                        1495.712          22.000                  
                                                
 18  5  8 14 44 52.9930000  0 14R11G27R21G 4G31G26G22R22R 1R 3G14R 2
                                R12G23
  20376935.899   108887916.233       -2818.791          28.000                  
                                                
  19917427.009                        2771.284          25.000                  
                                                
  20551037.628   109972756.946        -144.481          37.000                  
                                                
  20290424.384   106626950.929       -3356.158          40.000                  
                                                
  21695768.168   114012109.544       -2497.937          32.000                  
                                                
  19406749.258   101983158.947       -2614.175          38.000                  
                                                
  21768352.846   114393367.049       -3014.752          27.000                  
                                                
  20396714.974                        2918.226          17.000                  
                                                
  20455384.720                       -4565.956          27.000                  
                                                
  19557016.652                        2573.931          24.000                  
                                                
  21717636.694   114127073.804       -3474.512          27.000                  
                                                
  17553542.124                       -1360.598          21.000                  
                                                
  18051113.705                       -1201.190          24.000                  
                                                
  18752651.124                        1494.948          22.000                  
                                                
 18  5  8 14 44 53.9930000  0 14R11G27R21G 4G31G26G22R22R 1R 3G14R 2
                                R12G23
  20377463.637   108890734.629       -2817.409          27.000                  
                                                
  19916898.861                        2765.246          25.000                  
                                                
  20551064.667   109972901.633        -144.851          37.000                  
                                                
  20291062.870   106630306.808       -3355.629          40.000                  
                                                
  21696243.713   114014607.517       -2497.363          33.000                  
                                                
  19407246.763   101985773.515       -2614.147          38.000                  
                                                
  21768926.234                       -3014.880          27.000                  
                                                
  20396169.419                        2909.397          18.000                  
                                                
  20456238.245   109350276.7272      -4565.566          27.000                  
                                                
  19556533.255                        2572.479          23.000                  
                                                
  21718296.643   114130548.334       -3473.889          27.000                  
                                                
  17553790.388                       -1365.030          21.000                  
                                                
  18051336.108                       -1201.417          23.000                  
                                                
  18752368.701                        1495.134          23.000                  
                                                
 18  5  8 14 44 54.9930000  0 14R11G27R21G 4G31G26G22R22R 1R 3G14R 2
                                R12G23
  20377994.307   108893552.691       -2817.240          26.000                  
                                                
  19916375.416                        2760.774          25.000                  
                                                
  20551091.724   109973046.732        -145.765          37.000                  
                                                
  20291701.391   106633662.532       -3355.589          40.000                  
                                                
  21696719.440   114017105.184       -2497.510          33.000                  
                                                
  19407744.164   101988388.003       -2614.836          39.000                  
                                                
  21769499.927   114399493.5313      -3014.178          27.000                  
                                                
  20395622.390                        2907.586          20.000                  
                                                
  20457091.509   109354842.2732      -4565.527          27.000                  
                                                
  19556050.503                        2572.285          22.000                  
                                                
  21718955.459   114134022.751       -3474.469          27.000                  
                                                
  17554040.066                       -1357.262          22.000                  
                                                
  18051561.015                       -1200.657          23.000                  
                                                
  18752084.568                        1504.348          23.000                  
                                                
 18  5  8 14 44 55.9930000  0 14R11G27R21G 4G31G26G22R22R 1R 3G14R 2
                                R12G23
  20378521.766   108896370.941       -2817.636          26.000                  
                                                
  19915847.494                        2763.726          25.000                  
                                                
  20551118.728   109973192.874        -146.339          37.000                  
                                                
  20292339.833   106637018.680       -3356.180          40.000                  
                                                
  21697195.386   114019603.167       -2498.340          33.000                  
                                                
  19408242.202   101991002.975       -2615.116          39.000                  
                                                
  21770074.842   114402508.6992      -3015.057          27.000                  
                                                
  20395076.660                        2915.762          22.000                  
                                                
  20457944.807   109359408.2762      -4565.861          27.000                  
                                                
  19555567.708                        2565.787          20.000                  
                                                
  21719614.144   114137497.642       -3475.018          27.000                  
                                                
  17554292.955                       -1365.045          24.000                  
                                                
  18051784.578                       -1203.412          23.000                  
                                                
  18751801.342                        1496.456          24.000                  
                                                
 18  5  8 14 44 56.9930000  0 14R11G27R21G 4G31G26G22R22R 1R 3G14R 2
                                R12G23
  20379049.268                       -2817.147          24.000                  
                                                
  19915318.177                        2765.623          26.000                  
                                                
  20551146.299   109973339.579        -146.832          37.000                  
                                                
  20292978.424   106640374.729       -3355.963          40.000                  
                                                
  21697671.315   114022100.935       -2498.132          33.000                  
                                                
  19408740.354   101993617.936       -2614.655          39.000                  
                                                
  21770648.440   114405523.5462      -3013.831          27.000                  
                                                
  20394532.074                        2912.527          23.000                  
                                                
  20458798.707   109363974.1272      -4565.131          28.000                  
                                                
  19555087.539                        2571.428          19.000                  
                                                
  21720274.085   114140972.433       -3474.017          27.000                  
                                                
  17554545.285                       -1364.126          25.000                  
                                                
  18052008.403                       -1202.430          23.000                  
                                                
  18751519.085                        1500.347          25.000                  
                                                
 18  5  8 14 44 57.9930000  0 14R11G27R21G 4G31G26G22R22R 1R 3G14R 2
                                R12G23
  20379576.186                       -2815.892          23.000                  
                                                
  19914792.419                        2763.042          26.000                  
                                                
  20551174.019   109973486.557        -147.677          36.000                  
                                                
  20293616.875   106643730.398       -3355.702          40.000                  
                                                
  21698147.182   114024598.102       -2497.583          34.000                  
                                                
  19409238.113   101996232.636       -2615.105          39.000                  
                                                
  21771221.985   114408537.9792      -3014.728          27.000                  
                                                
  20393988.482                        2907.406          24.000                  
                                                
  20459654.064   109368539.6082      -4565.697          28.000                  
                                                
  19554605.651                        2568.767          18.000                  
                                                
  21720934.322   114144446.930       -3474.414          26.000                  
                                                
  17554798.967                       -1364.463          26.000                  
                                                
  18052233.886                       -1201.361          22.000                  
                                                
  18751235.912                        1490.616          25.000                  
                                                
 18  5  8 14 44 58.9930000  0 14R11G27R21G 4G31G26G22R22R 1R 3G14R 2
                                R12G23
  20380102.258                       -2814.459          20.000                  
                                                
  19914265.588                        2763.462          26.000                  
                                                
  20551201.398   109973634.741        -149.031          36.000                  
                                                
  20294255.047   106647086.681       -3356.758          40.000                  
                                                
  21698622.832   114027095.799       -2497.870          34.000                  
                                                
  19409736.020   101998848.024       -2616.172          39.000                  
                                                
  21771795.940   114411552.7922      -3014.813          28.000                  
                                                
  20393445.309                        2903.890          24.000                  
                                                
  20460507.040   109373105.6772      -4566.486          28.000                  
                                                
  19554124.269                        2570.955          17.000                  
                                                
  21721595.764   114147922.066       -3475.201          26.000                  
                                                
  17555050.303    93677036.8123      -1366.100          27.000                  
                                                
  18052456.926                       -1205.151          22.000                  
                                                
  18750954.256                        1491.241          25.000                  
                                                
 18  5  8 14 44 59.9930000  0 14R11G27R21G 4G31G26G22R22R 1R 3G14R 2
                                R12G23
  20380628.696                       -2821.337          18.000                  
                                                
  19913740.319   104647410.7943       2761.907          27.000                  
                                                
  20551229.065   109973784.091        -149.547          36.000                  
                                                
  20294893.725   106650443.519       -3356.857          40.000                  
                                                
  21699099.048   114029593.923       -2498.102          34.000                  
                                                
  19410234.180   102001464.067       -2616.479          39.000                  
                                                
  21772367.312   114414568.0852      -3015.375          28.000                  
                                                
  20392901.831                        2913.250          24.000                  
                                                
  20461363.619   109377672.2782      -4567.042          29.000                  
                                                
  19553643.010                        2570.955          16.000                  
                                                
  21722256.316   114151397.885       -3476.001          26.000                  
                                                
  17555305.600    93678403.5602      -1367.496          27.000                  
                                                
  18052681.432                       -1208.808          22.000                  
                                                
  18750671.807                        1489.609          25.000                  
                                                
 18  5  8 14 45  0.9930000  0 14R11G27R21G 4G31G26G22R22R 1R 3G14R 2
                                R12G23
  20381158.816                       -2821.337          16.000                  
                                                
  19913216.630   104644648.5502       2762.096          27.000                  
                                                
  20551256.933   109973934.147        -150.170          35.000                  
                                                
  20295532.237   106653800.463       -3357.228          40.000                  
                                                
  21699575.509   114032092.021       -2497.852          35.000                  
                                                
  19410732.593   102004080.267       -2616.290          39.000                  
                                                
  21772941.433   114417583.2952      -3015.448          28.000                  
                                                
  20392353.562                        2919.323          24.000                  
                                                
  20462218.444   109382238.906       -4566.831          28.000                  
                                                
  19553162.178                        2568.952          16.000                  
                                                
  21722916.353   114154873.752       -3476.709          26.000                  
                                                
  17555563.453    93679771.0592      -1368.181          28.000                  
                                                
  18052906.461                       -1206.746          22.000                  
                                                
  18750388.887                        1488.777          25.000                  
                                                
 18  5  8 14 45  1.9930000  0 14R11G27R21G 4G31G26G22R22R 1R 3G14R 2
                                R12G23
  20381687.680                       -2821.337          13.000                  
                                                
  19912690.226   104641886.7942       2761.480          27.000                  
                                                
  20551284.705   109974085.095        -150.972          35.000                  
                                                
  20296170.819   106657157.596       -3356.667          40.000                  
                                                
  21700051.865   114034590.197       -2497.693          35.000                  
                                                
  19411230.744   102006696.789       -2616.334          40.000                  
                                                
  21773515.545   114420598.5532      -3014.783          28.000                  
                                                
  20391808.060                        2918.986          23.000                  
                                                
  20463075.232   109386805.775       -4566.631          28.000                  
                                                
  19552681.259                        2568.952          15.000                  
                                                
  21723576.809   114158349.861       -3475.128          25.000                  
                                                
  17555819.796    93681139.5602      -1368.562          28.000                  
                                                
  18053132.817                       -1203.170          21.000                  
                                                
  18750106.246                        1489.813          25.000                  
                                                
 18  5  8 14 45  2.9930000  0 14R11G27R21G 4G31G26G22R22R 1R 3G14R 2
                                R12G23
  20382214.633                       -2821.337          13.000                  
                                                
  19912165.847   104639124.9212       2761.888          27.000                  
                                                
  20551312.626   109974236.525        -151.765          34.000                  
                                                
  20296809.323   106660514.637       -3356.891          39.000                  
                                                
  21700528.116   114037088.093       -2497.583          35.000                  
                                                
  19411729.114   102009313.273       -2616.232          39.000                  
                                                
  21774088.340   114423613.5712      -3014.807          28.000                  
                                                
  20391260.114                        2912.159          22.000                  
                                                
  20463930.485   109391372.472       -4566.582          29.000                  
                                                
  19552201.762                        2568.952          14.000                  
                                                
  21724236.139   114161826.035       -3476.276          25.000                  
                                                
  17556077.676    93682508.5852      -1369.294          28.000                  
                                                
  18053360.315                       -1203.050          21.000                  
                                                
  18749823.927                        1489.592          25.000                  
                                                
 18  5  8 14 45  3.9930000  0 14R11G27R21G 4G31G26G22R22R 1R 3G14R 2
                                R12G23
  20382742.118                       -2811.263          15.000                  
                                                
  19911641.939   104636362.5162       2763.124          26.000                  
                                                
  20551340.494   109974387.879        -151.627          33.000                  
                                                
  20297447.922   106663870.974       -3356.469          39.000                  
                                                
  21701004.184   114039585.196       -2497.028          35.000                  
                                                
  19412227.125   102011929.166       -2615.989          39.000                  
                                                
  21774659.049   114426627.7502      -3013.977          28.000                  
                                                
  20390713.129                        2908.282          22.000                  
                                                
  20464787.098   109395938.472       -4566.167          28.000                  
                                                
  19551721.828                        2568.227          16.000                  
                                                
  21724895.522   114165301.497       -3476.160          25.000                  
                                                
  17556335.337    93683877.6192      -1369.295          28.000                  
                                                
  18053586.933                       -1202.339          20.000                  
                                                
  18749543.337                        1490.036          25.000                  
                                                
 18  5  8 14 45  4.9930000  0 14R11G27R21G 4G31G26G22R22R 1R 3G14R 2
                                R12G23
  20383272.395                       -2812.476          15.000                  
                                                
  19911115.143   104633601.1392       2760.647          27.000                  
                                                
  20551368.222   109974540.624        -154.233          33.000                  
                                                
  20298086.731   106667228.013       -3357.822          41.000                  
                                                
  21701480.453   114042082.838       -2498.267          38.000                  
                                                
  19412725.434   102014545.852       -2617.482          41.000                  
                                                
  21775231.460   114429642.5212      -3015.826          28.000                  
                                                
  20390165.759                        2911.560          21.000                  
                                                
  20465639.978   109400505.132       -4567.308          28.000                  
                                                
  19551243.177                        2568.544          19.000                  
                                                
  21725557.941   114168777.602       -3477.142          25.000                  
                                                
  17556593.661    93685248.0832      -1371.511          28.000                  
                                                
  18053810.374                       -1203.434          19.000                  
                                                
  18749260.355                        1486.916          25.000                  
                                                
 18  5  8 14 45  5.9930000  0 14R11G27R21G 4G31G26G22R22R 1R 3G14R 2
                                R12G23
  20383799.366                       -2815.394          16.000                  
                                                
  19910591.689   104630840.5402       2760.933          27.000                  
                                                
  20551396.343   109974694.754        -154.562          33.000                  
                                                
  20298725.732   106670585.841       -3358.140          40.000                  
                                                
  21701956.870   114044581.152       -2498.474          37.000                  
                                                
  19413223.603   102017163.410       -2617.758          40.000                  
                                                
  21775802.588   114432657.8992      -3015.656          28.000                  
                                                
  20389618.721                        2910.285          19.000                  
                                                
  20466493.747   109405072.567       -4567.379          28.000                  
                                                
  19550763.410                        2564.297          20.000                  
                                                
  21726218.606                       -3476.885          25.000                  
                                                
  17556852.125    93686619.9232      -1372.091          28.000                  
                                                
  18054034.644                       -1203.847          18.000                  
                                                
  18748980.602                        1487.956          25.000                  
                                                
 18  5  8 14 45  6.9930000  0 14R11G27R21G 4G31G26G22R22R 1R 3G14R 2
                                R12G23
  20384327.313                       -2812.843          17.000                  
                                                
  19910068.558   104628080.541        2759.917          26.000                  
                                                
  20551424.909   109974849.881        -155.891          33.000                  
                                                
  20299364.410   106673943.987       -3358.082          40.000                  
                                                
  21702432.991   114047079.659       -2498.492          36.000                  
                                                
  19413722.077   102019781.374       -2617.878          40.000                  
                                                
  21776374.755   114435672.991       -3015.607          28.000                  
                                                
  20389072.093                        2903.821          19.000                  
                                                
  20467348.153   109409640.343       -4567.611          28.000                  
                                                
  19550285.710                        2566.353          21.000                  
                                                
  21726881.522                       -3478.684          25.000                  
                                                
  17557110.964    93687992.910       -1373.504          28.000                  
                                                
  18054259.167                       -1203.847          16.000                  
                                                
  18748699.462                        1486.430          24.000                  
                                                
 18  5  8 14 45  7.9930000  0 14R11G27R21G 4G31G26G22R22R 1R 3G14R 2
                                R12G23
  20384854.310                       -2813.478          17.000                  
                                                
  19909546.308   104625320.714        2759.873          25.000                  
                                                
  20551453.571   109975005.656        -156.102          33.000                  
                                                
  20300003.620   106677302.184       -3358.009          40.000                  
                                                
  21702908.998   114049578.064       -2497.736          37.000                  
                                                
  19414220.752   102022399.495       -2617.726          40.000                  
                                                
  21776947.829   114438688.546       -3015.863          28.000                  
                                                
  20388528.134                        2897.530          19.000                  
                                                
  20468206.381   109414208.156       -4567.864          28.000                  
                                                
  19549807.182                        2563.660          21.000                  
                                                
  21727544.770                       -3483.570          24.000                  
                                                
  17557365.990    93689366.562       -1373.708          27.000                  
                                                
  18054484.293                       -1205.940          15.000                  
                                                
  18748419.106                        1486.949          24.000                  
                                                
 18  5  8 14 45  8.9930000  0 14R11G27R21G 4G31G26G22R22R 1R 3G14R 2
                                R12G23
  20385382.144                       -2815.623          16.000                  
                                                
  19909022.269                        2759.508          25.000                  
                                                
  20551482.713   109975162.342        -157.386          32.000                  
                                                
  20300643.083   106680660.666       -3359.399          41.000                  
                                                
  21703385.301   114052076.650       -2499.200          37.000                  
                                                
  19414719.095   102025017.975       -2618.948          40.000                  
                                                
  21777524.113   114441704.102       -3016.467          28.000                  
                                                
  20387985.991                        2907.495          20.000                  
                                                
  20469059.016   109418776.164       -4568.711          29.000                  
                                                
  19549328.714                        2557.381          22.000                  
                                                
  21728205.959                       -3479.651          25.000                  
                                                
  17557625.222    93690741.186       -1375.693          26.000                  
                                                
  18054712.428                       -1205.940          11.000                  
                                                
  18748134.214                        1485.046          23.000                  
                                                
 18  5  8 14 45  9.9930000  0 14R11G27R21G 4G31G26G22R22R 1R 3G14R 2
                                R12G23
  20385908.940                       -2817.232          16.000                  
                                                
  19908499.382                        2763.531          24.000                  
                                                
  20551511.968   109975320.673        -159.384          32.000                  
                                                
  20301282.485   106684020.155       -3360.023          41.000                  
                                                
  21703861.474   114054576.067       -2499.451          37.000                  
                                                
  19415217.491   102027637.578       -2620.096          39.000                  
                                                
  21778097.789   114444720.607       -3016.882          29.000                  
                                                
  20387443.813                        2914.424          21.000                  
                                                
  20469914.854   109423345.191       -4569.269          29.000                  
                                                
  19548849.296                        2560.958          22.000                  
                                                
  21728868.701                       -3480.804          25.000                  
                                                
  17557884.550    93692117.615       -1377.793          25.000                  
                                                
  18054938.531                       -1205.940          12.000                  
                                                
  18747854.749                        1490.300          22.000                  
                                                
 18  5  8 14 45 10.9930000  0 14R11G27R21G 4G31G26G22R22R 1R 3G14R 2
                                R12G23
  20386437.638                       -2817.232          16.000                  
                                                
  19907972.106                        2761.994          23.000                  
                                                
  20551541.389   109975480.063        -159.877          32.000                  
                                                
  20301921.783   106687380.069       -3359.692          40.000                  
                                                
  21704337.752   114057075.852       -2499.957          37.000                  
                                                
  19415715.860   102030257.681       -2619.966          39.000                  
                                                
  21778672.983   114447737.389       -3016.559          28.000                  
                                                
  20386902.402                        2908.662          22.000                  
                                                
  20470772.436   109427914.668       -4569.854          28.000                  
                                                
  19548374.161                        2560.998          22.000                  
                                                
  21729531.896                       -3479.964          25.000                  
                                                
  17558146.626    93693495.047       -1377.682          25.000                  
                                                
  18055163.473                       -1205.940          13.000                  
                                                
  18747574.106                        1482.359          21.000                  
                                                
 18  5  8 14 45 11.9930000  0 14R11G27R21G 4G31G26G22R22R 1R 3G14R 2
                                R12G23
  20386965.298                       -2817.232          14.000                  
                                                
  19907449.367                        2751.212          22.000                  
                                                
  20551571.133   109975640.008        -160.361          32.000                  
                                                
  20302561.621   106690739.892       -3359.718          41.000                  
                                                
  21704813.593   114059575.336       -2499.487          36.000                  
                                                
  19416214.727   102032877.780       -2619.803          39.000                  
                                                
  21779246.284   114450753.985       -3016.296          29.000                  
                                                
  20386360.582                        2915.722          22.000                  
                                                
  20471628.605   109432483.988       -4569.308          28.000                  
                                                
  19547896.487                        2560.573          23.000                  
                                                
  21730193.556                       -3480.946          25.000                  
                                                
  17558405.910    93694873.100       -1378.045          25.000                  
                                                
  18055390.186                       -1205.940          13.000                  
                                                
  18747291.028                        1484.223          20.000                  
                                                
 18  5  8 14 45 12.9930000  0 14R11G27R21G 4G31G26G22R22R 1R 3G14R 2
                                R12G23
  20387491.387                       -2817.232          13.000                  
                                                
  19906928.225                        2766.420          22.000                  
                                                
  20551600.616   109975800.033        -160.401          32.000                  
                                                
  20303201.172   106694099.170       -3359.945          41.000                  
                                                
  21705289.382   114062074.173       -2499.011          37.000                  
                                                
  19416713.384   102035497.424       -2619.656          39.000                  
                                                
  21779818.834   114453769.841       -3015.808          28.000                  
                                                
  20385818.875                        2911.039          23.000                  
                                                
  20472481.222   109437052.672       -4568.508          28.000                  
                                                
  19547422.321                        2559.507          23.000                  
                                                
  21730855.583                       -3478.666          25.000                  
                                                
  17558666.817                       -1379.210          25.000                  
                                                
  18055614.561                       -1205.940          13.000                  
                                                
  18747009.216                        1472.800          19.000                  
                                                
 18  5  8 14 45 13.9930000  0 13R11G27R21G 4G31G26G22R22R 1R 3G14R 2
                                R12
  20388019.788                       -2819.716          13.000                  
                                                
  19906407.110                        2752.181          22.000                  
                                                
  20551626.555   109975961.230        -161.595          33.000                  
                                                
  20303840.617   106697458.989       -3359.931          41.000                  
                                                
  21705764.900   114064573.429       -2499.310          37.000                  
                                                
  19417212.085   102038117.697       -2620.160          39.000                  
                                                
  21780394.561   114456786.146       -3015.918          28.000                  
                                                
  20385275.300                        2904.048          24.000                  
                                                
  20473336.457   109441621.977       -4569.165          28.000                  
                                                
  19546947.100                        2553.791          24.000                  
                                                
  21731519.546                       -3479.576          25.000                  
                                                
  17558926.406                       -1379.850          24.000                  
                                                
  18055842.077                       -1208.933          13.000                  
                                                
 18  5  8 14 45 14.9930000  0 13R11G27R21G 4G31G26G22R22R 1R 3G14R 2
                                R12
  20388546.296                       -2819.716          12.000                  
                                                
  19905885.392                        2753.074          22.000                  
                                                
  20551652.006   109976123.138        -162.223          33.000                  
                                                
  20304480.037   106700818.950       -3360.420          41.000                  
                                                
  21706240.759   114067072.692       -2499.561          37.000                  
                                                
  19417710.760   102040738.225       -2621.229          38.000                  
                                                
  21780967.643   114459802.442       -3016.363          28.000                  
                                                
  20384733.227                        2907.790          25.000                  
                                                
  20474190.148   109446191.332       -4568.946          28.000                  
                                                
  19546470.063                        2561.356          25.000                  
                                                
  21732182.410                       -3480.025          25.000                  
                                                
  17559189.198    93699011.069       -1380.603          24.000                  
                                                
  18056069.470                       -1208.933          14.000                  
                                                
 18  5  8 14 45 15.9930000  0 13R11G27R21G 4G31G26G22R22R 1R 3G14R 2
                                R12
  20389074.026                       -2819.716          10.000                  
                                                
  19905361.676                        2756.471          22.000                  
                                                
  20551684.577   109976286.236        -164.097          33.000                  
                                                
  20305119.465   106704179.393       -3360.884          41.000                  
                                                
  21706716.374   114069572.295       -2499.823          37.000                  
                                                
  19418209.758   102043359.263       -2621.121          38.000                  
                                                
  21781540.386   114462819.101       -3016.681          29.000                  
                                                
  20384192.471                        2907.745          27.000                  
                                                
  20475044.537   109450761.215       -4569.740          28.000                  
                                                
  19545992.974                        2562.005          25.000                  
                                                
  21732846.522                       -3480.139          25.000                  
                                                
  17559449.721                       -1381.956          23.000                  
                                                
  18056297.362                       -1205.076          17.000                  
                                                
 18  5  8 14 45 16.9930000  0 12G27R21G 4G31G26G22R22R 1R 3G14R 2R12
  19904837.445                        2753.360          24.000                  
                                                
  20551718.230   109976450.092        -164.587          32.000                  
                                                
  20305759.339   106707539.970       -3360.850          41.000                  
                                                
  21707192.276   114072071.912       -2500.092          37.000                  
                                                
  19418708.834   102045980.608       -2621.586          38.000                  
                                                
  21782113.180   114465835.726       -3017.029          29.000                  
                                                
  20383652.125   108809221.3573       2906.524          28.000                  
                                                
  20475897.102   109455331.205       -4569.938          28.000                  
                                                
  19545517.569                        2555.103          25.000                  
                                                
  21733508.190                       -3480.000          25.000                  
                                                
  17559711.465                       -1387.447          22.000                  
                                                
  18056521.850                       -1209.334          19.000                  
                                                
 18  5  8 14 45 17.9930000  0 12G27R21G 4G31G26G22R22R 1R 3G14R 2R12
  19904311.775                        2755.274          25.000                  
                                                
  20551747.651   109976614.789        -164.875          33.000                  
                                                
  20306398.907   106710900.769       -3360.361          41.000                  
                                                
  21707668.213   114074571.632       -2499.280          38.000                  
                                                
  19419207.753   102048602.228       -2621.172          37.000                  
                                                
  21782688.505   114468852.459       -3016.260          29.000                  
                                                
  20383109.545   108806314.9502       2906.728          29.000                  
                                                
  20476750.584   109459901.356       -4569.661          27.000                  
                                                
  19545042.626                        2553.058          24.000                  
                                                
  21734170.025                       -3480.355          25.000                  
                                                
  17559975.208                       -1387.956          21.000                  
                                                
  18056746.931                       -1207.891          20.000                  
                                                
 18  5  8 14 45 18.9930000  0 13R11G27R21G 4G31G26G22R22R 1R 3G14R 2
                                R12
  20390657.528                       -2819.716          10.000                  
                                                
  19903788.094                        2755.157          25.000                  
                                                
  20551779.428   109976779.537        -164.757          33.000                  
                                                
  20307038.352   106714260.994       -3360.283          41.000                  
                                                
  21708143.976   114077070.630       -2499.060          38.000                  
                                                
  19419706.393   102051223.406       -2621.552          37.000                  
                                                
  21783263.883   114471868.425       -3015.869          29.000                  
                                                
  20382567.262   108803408.1932       2906.135          31.000                  
                                                
  20477605.103   109464470.887       -4569.410          27.000                  
                                                
  19544568.173                        2561.388          24.000                  
                                                
  21734833.543                       -3479.594          25.000                  
                                                
  17560237.179                       -1388.676          20.000                  
                                                
  18056972.659                       -1204.020          21.000                  
                                                
 18  5  8 14 45 19.9930000  0 13R11G27R21G 4G31G26G22R22R 1R 3G14R 2
                                R12
  20391184.760                       -2819.716          11.000                  
                                                
  19903265.573                        2757.102          25.000                  
                                                
  20551807.994   109976945.015        -165.709          32.000                  
                                                
  20307678.287   106717621.285       -3360.044          41.000                  
                                                
  21708619.773   114079569.574       -2498.615          37.000                  
                                                
  19420205.225   102053844.685       -2621.453          37.000                  
                                                
  21783833.920   114474884.381       -3015.918          29.000                  
                                                
  20382023.644   108800501.6832       2906.525          31.000                  
                                                
  20478461.787   109469040.524       -4569.778          26.000                  
                                                
  19544095.193                        2551.539          23.000                  
                                                
  21735497.306                       -3478.713          25.000                  
                                                
  17560494.553                       -1385.198          17.000                  
                                                
  18057197.758                       -1202.072          22.000                  
                                                
 18  5  8 14 45 20.9930000  0 13R11G27R21G 4G31G26G22R22R 1R 3G14R 2
                                R12
  20391713.223                       -2819.716          13.000                  
                                                
  19902743.201                        2755.597          25.000                  
                                                
  20551838.418   109977111.197        -166.377          32.000                  
                                                
  20308318.195   106720981.711       -3360.378          42.000                  
                                                
  21709095.632   114082068.493       -2498.651          38.000                  
                                                
  19420704.049   102056466.213       -2621.592          36.000                  
                                                
  21784402.832   114477900.218       -3015.051          30.000                  
                                                
  20381475.699   108797595.4812       2905.732          32.000                  
                                                
  20479314.300   109473610.257       -4569.709          26.000                  
                                                
  19543620.277                        2556.319          22.000                  
                                                
  21736157.465                       -3482.731          24.000                  
                                                
  17560753.261                       -1385.198          16.000                  
                                                
  18057422.578                       -1187.788          23.000                  
                                                
 18  5  8 14 45 21.9930000  0 14R11G27R21G 4G31G26G22R22R 1R 3G14R 2
                                R12G23
  20392239.042                       -2819.716          14.000                  
                                                
  19902218.473                        2756.532          25.000                  
                                                
  20551869.523   109977277.124        -165.013          31.000                  
                                                
  20308957.711   106724341.271       -3359.139          42.000                  
                                                
  21709570.514   114084566.445       -2497.266          38.000                  
                                                
  19421202.828   102059086.949       -2620.183          36.000                  
                                                
  21784976.761   114480915.155       -3013.879          30.000                  
                                                
  20380923.556   108794688.6382       2907.071          32.000                  
                                                
  20480166.298   109478179.048       -4568.251          26.000                  
                                                
  19543144.383                        2559.689          21.000                  
                                                
  21736820.451                       -3479.199          25.000                  
                                                
  17561016.079                       -1385.198          12.000                  
                                                
  18057649.561                       -1206.118          25.000                  
                                                
  18744478.420                        1483.182          13.000                  
                                                
 18  5  8 14 45 22.9930000  0 14R11G27R21G 4G31G26G22R22R 1R 3G14R 2
                                R12G23
  20392766.335                       -2819.781          14.000                  
                                                
  19901693.919                        2756.625          26.000                  
                                                
  20551900.593   109977443.453        -166.329          31.000                  
                                                
  20309597.209   106727700.611       -3359.742          42.000                  
                                                
  21710046.207   114087064.054       -2498.340          38.000                  
                                                
  19421701.067   102061707.544       -2620.985          36.000                  
                                                
  21785547.994   114483929.745       -3015.625          30.000                  
                                                
  20380383.952   108791781.725        2906.846          33.000                  
                                                
  20481018.898   109482747.577       -4568.346          26.000                  
                                                
  19542671.133                        2558.120          21.000                  
                                                
  21737481.709                       -3480.253          25.000                  
                                                
  17561275.659                       -1385.198          14.000                  
                                                
  18057875.498                       -1206.065          26.000                  
                                                
  18744194.749                        1478.389          13.000                  
                                                
 18  5  8 14 45 23.9930000  0 14R11G27R21G 4G31G26G22R22R 1R 3G14R 2
                                R12G23
  20393290.653                       -2809.669          15.000                  
                                                
  19901171.119                        2754.251          26.000                  
                                                
  20551931.934   109977611.261        -168.231          31.000                  
                                                
  20310237.065   106731060.701       -3360.121          42.000                  
                                                
  21710521.769   114089562.258       -2498.633          38.000                  
                                                
  19422199.907   102064329.005       -2621.550          36.000                  
                                                
  21786125.710   114486944.921       -3015.662          30.000                  
                                                
  20379838.284   108788875.878        2905.146          33.000                  
                                                
  20481871.228   109487316.920       -4569.803          25.000                  
                                                
  19542195.466                        2556.226          19.000                  
                                                
  21738143.858                       -3481.949          25.000                  
                                                
  17561534.760                       -1384.904          14.000                  
                                                
  18058101.906    96463074.7762      -1206.554          27.000                  
                                                
  18743911.977                        1484.047          15.000                  
                                                
 18  5  8 14 45 24.9930000  0 14R11G27R21G 4G31G26G22R22R 1R 3G14R 2
                                R12G23
  20393814.857                       -2809.669          15.000                  
                                                
  19900649.358                        2754.857          26.000                  
                                                
  20551964.095   109977780.099        -169.761          31.000                  
                                                
  20310876.781   106734421.208       -3360.518          42.000                  
                                                
  21710997.427   114092060.748       -2498.071          39.000                  
                                                
  19422698.844   102066950.979       -2621.816          36.000                  
                                                
  21786700.921   114489960.367       -3016.272          30.000                  
                                                
  20379294.299   108785970.563        2905.414          34.000                  
                                                
  20482725.093   109491886.666       -4570.373          25.000                  
                                                
  19541718.508                        2556.226          17.000                  
                                                
  21738807.341                       -3480.137          25.000                  
                                                
  17561794.873                       -1384.904          14.000                  
                                                
  18058330.172    96464281.7692      -1207.391          27.000                  
                                                
  18743627.416                        1480.746          16.000                  
                                                
 18  5  8 14 45 25.9930000  0 14R11G27R21G 4G31G26G22R22R 1R 3G14R 2
                                R12G23
  20394339.114                       -2807.536          13.000                  
                                                
  19900124.010                        2754.626          27.000                  
                                                
  20551995.627   109977949.091        -169.367          31.000                  
                                                
  20311516.340   106737781.293       -3360.141          42.000                  
                                                
  21711472.762   114094558.671       -2497.711          38.000                  
                                                
  19423197.536   102069572.617       -2622.424          36.000                  
                                                
  21787272.608   114492975.181       -3014.972          30.000                  
                                                
  20378749.416   108783065.089        2905.053          34.000                  
                                                
  20483578.330                       -4568.703          25.000                  
                                                
  19541242.842                        2556.226          15.000                  
                                                
  21739471.889                       -3479.613          25.000                  
                                                
  17562052.988                       -1384.057          14.000                  
                                                
  18058552.680    96465488.2892      -1206.487          27.000                  
                                                
  18743343.056                        1478.401          17.000                  
                                                
