     2.10           OBSERVATION DATA    G                   RINEX VERSION / TYPE
BLANK OR G = GPS,  R = GLONASS,  E = GALILEO,  M = MIXED    COMMENT             
GNSS-SDR            heath                1-JUN-18 13:15     PGM / RUN BY / DATE 
GPS OBSERVATION DATA FILE GENERATED BY GNSS-SDR             COMMENT             
GNSS-SDR VERSION 0.0.9                                      COMMENT             
See http://gnss-sdr.org                                     COMMENT             
DEFAULT MARKER NAME                                         MARKER NAME         
heath               CTTC                                    OBSERVER / AGENCY   
GNSS-SDR            Software Receiver   0.0.9               REC # / TYPE / VERS 
Antenna number      Antenna type                            ANT # / TYPE        
        0.0000        0.0000        0.0000                  APPROX POSITION XYZ 
        0.0000        0.0000        0.0000                  ANTENNA: DELTA H/E/N
     1     1                                                WAVELENGTH FACT L1/2
     4    C1    L1    D1    S1                              # / TYPES OF OBSERV 
  2018    06    01    13    15   19.1118020     GPS         TIME OF FIRST OBS   
    18                                                      LEAP SECONDS        
                                                            END OF HEADER       
 18  6  1 13 15 19.1118020  0  4G04G23G26G27                                    
  22736106.932 6    414591.301 6     -2380.039 6        41.743                  
  20812592.648 7   -476784.742 7      2377.810 7        43.094                  
  21804023.152 6    305368.993 6     -1697.217 6        39.494                  
  21795283.486 7   -712618.785 7      3636.093 7        42.829                  
 18  6  1 13 15 19.2118020  0  4G04G23G26G27                                    
  22736194.460 6    414829.313 6     -2379.882 6        41.563                  
  20812598.593 7   -477022.473 7      2377.407 7        44.603                  
  21804105.498 5    305538.765 5     -1697.567 5        35.726                  
  21795260.004 7   -712982.376 7      3636.187 7        43.324                  
 18  6  1 13 15 19.3118020  0  4G04G23G26G27                                    
  22736278.814 6    415067.287 6     -2379.107 6        41.390                  
  20812590.426 6   -477260.242 6      2378.126 6        40.347                  
  21804180.679 6    305708.470 6     -1697.815 6        36.866                  
  21795225.709 7   -713346.010 7      3636.486 7        42.499                  
 18  6  1 13 15 19.4118020  0  4G04G23G26G27                                    
  22736297.287 6    415305.182 6     -2378.692 6        41.414                  
  20812520.322 7   -477498.091 7      2378.951 7        42.477                  
  21804177.172 6    305878.110 6     -1695.130 6        39.788                  
  21795125.787 7   -713709.721 7      3637.847 7        43.951                  
 18  6  1 13 15 19.5118020  0  4G04G23G26G27                                    
  22736383.163 6    415542.930 6     -2376.513 6        41.717                  
  20812516.159 6   -477736.080 6      2380.720 6        41.544                  
  21804256.042 6    306047.615 6     -1694.365 6        38.912                  
  21795104.426 6   -714073.574 6      3639.227 6        41.714                  
 18  6  1 13 15 19.6118020  0  4G04G23G26G27                                    
  22736446.801 7    415780.540 7     -2375.491 7        42.401                  
  20812484.397 7   -477974.208 7      2381.454 7        42.916                  
  21804305.827 6    306216.962 6     -1692.962 6        39.312                  
  21795051.928 7   -714437.558 7      3640.194 7        42.079                  
 18  6  1 13 15 19.7118020  0  4G04G23G26G27                                    
  22736513.593 7    416018.164 7     -2377.092 7        43.038                  
  20812460.928 7   -478212.323 7      2380.882 7        42.604                  
  21804360.525 6    306386.337 6     -1694.449 6        39.321                  
  21795002.086 6   -714801.536 6      3639.337 6        41.025                  
 18  6  1 13 15 19.8118020  0  4G04G23G26G27                                    
  22736584.659 6    416255.852 6     -2376.482 6        40.762                  
  20812440.948 7   -478450.364 7      2379.970 7        43.210                  
  21804420.277 6    306555.775 6     -1694.022 6        38.378                  
  21794957.107 7   -715165.452 7      3639.256 7        43.185                  
 18  6  1 13 15 19.9118020  0  4G04G23G26G27                                    
  22736618.212 6    416493.481 6     -2376.253 6        40.667                  
  20812385.415 6   -478688.455 6      2381.573 6        40.808                  
  21804435.103 6    306725.142 6     -1693.475 6        39.144                  
  21794874.271 6   -715529.415 6      3639.948 6        40.995                  
 18  6  1 13 15 20.0118020  0  4G04G23G26G27                                    
  22736640.434 6    416731.044 6     -2375.547 6        40.546                  
  20812319.491 7   -478926.613 7      2381.803 7        44.566                  
  21804436.939 6    306894.476 6     -1693.294 6        36.861                  
  21794784.433 6   -715893.431 6      3640.124 6        41.903                  
 18  6  1 13 15 20.1118020  0  4G04G23G26G27                                    
  22736719.587 6    416968.663 6     -2376.287 6        40.581                  
  20812303.782 6   -479164.714 6      2380.488 6        41.845                  
  21804505.690 6    307063.841 6     -1693.921 6        40.214                  
  21794748.322 7   -716257.406 7      3639.686 7        42.878                  
 18  6  1 13 15 20.2118020  0  4G04G23G26G27                                    
  22736757.808 6    417206.276 6     -2375.748 6        41.681                  
  20812247.189 7   -479402.810 7      2381.335 7        44.114                  
  21804525.602 6    307233.200 6     -1692.968 6        36.311                  
  21794676.669 6   -716621.368 6      3639.513 6        41.576                  
 18  6  1 13 15 20.3118020  0  4G04G23G26G27                                    
  22736844.835 6    417443.843 6     -2375.548 6        40.746                  
  20812247.977 6   -479640.958 6      2381.552 6        39.976                  
  21804606.002 6    307402.521 6     -1693.094 6        39.483                  
  21794650.123 6   -716985.390 6      3640.668 6        39.859                  
 18  6  1 13 15 20.4118020  0  4G04G23G26G27                                    
  22736900.834 7    417681.368 7     -2375.194 7        42.247                  
  20812219.504 7   -479879.154 7      2382.060 7        43.146                  
  21804649.117 6    307571.794 6     -1692.944 6        38.932                  
  21794590.857 6   -717349.443 6      3640.728 6        41.170                  
 18  6  1 13 15 20.5118020  0  4G04G23G26G27                                    
  22736961.741 7    417918.842 7     -2374.070 7        42.199                  
  20812189.177 7   -480117.377 7      2382.853 7        42.754                  
  21804696.415 6    307741.025 6     -1691.503 6        40.470                  
  21794534.526 7   -717713.544 7      3641.415 7        42.417                  
 18  6  1 13 15 20.6118020  0  4G04G23G26G27                                    
  22737082.848 6    418156.232 6     -2373.896 6        40.906                  
  20812216.969 7   -480355.679 7      2382.992 7        42.904                  
  21804816.481 6    307910.172 6     -1691.340 6        37.095                  
  21794542.719 7   -718077.720 7      3641.904 7        44.385                  
 18  6  1 13 15 20.7118020  0  4G04G23G26G27                                    
  22737134.466 6    418393.583 6     -2373.155 6        40.940                  
  20812171.324 7   -480594.024 7      2383.660 7        42.543                  
  21804851.125 6    308079.291 6     -1690.481 6        40.127                  
  21794476.520 7   -718441.942 7      3642.639 7        44.180                  
 18  6  1 13 15 20.8118020  0  4G04G23G26G27                                    
  22737170.545 6    418630.847 6     -2371.805 6        40.904                  
  20812111.250 7   -480832.451 7      2385.203 7        43.432                  
  21804866.437 6    308248.312 6     -1690.449 6        40.927                  
  21794387.585 7   -718806.241 7      3643.513 7        43.701                  
 18  6  1 13 15 20.9118020  0  4G04G23G26G27                                    
  22737231.861 6    418868.033 6     -2371.881 6        40.476                  
  20812092.767 6   -481070.958 6      2384.984 6        39.023                  
  21804918.386 6    308417.259 6     -1688.991 6        39.613                  
  21794345.656 6   -719170.623 6      3643.924 6        41.995                  
 18  6  1 13 15 21.0118020  0  4G04G23G26G27                                    
  22737314.294 6    419105.163 6     -2371.085 6        41.441                  
  20812092.529 7   -481309.495 7      2385.818 7        43.897                  
  21804994.382 6    308586.156 6     -1688.650 6        39.554                  
  21794317.569 7   -719535.039 7      3644.473 7        43.439                  
 18  6  1 13 15 21.1118020  0  4G04G23G26G27                                    
  22737377.150 6    419342.209 6     -2369.811 6        39.512                  
  20812063.237 7   -481548.129 7      2386.873 7        42.671                  
  21805044.647 6    308754.963 6     -1687.571 6        37.027                  
  21794270.433 7   -719899.554 7      3645.865 7        43.031                  
 18  6  1 13 15 21.2118020  0  4G04G23G26G27                                    
  22737420.638 6    419579.146 6     -2368.842 6        41.015                  
  20812014.316 7   -481786.872 7      2387.861 7        42.391                  
  21805070.503 6    308923.669 6     -1686.285 6        38.948                  
  21794195.525 7   -720264.174 7      3646.991 7        43.741                  
 18  6  1 13 15 21.3118020  0  4G04G23G26G27                                    
  22737454.176 6    419815.929 6     -2367.001 6        41.292                  
  20811950.324 6   -482025.757 6      2389.928 6        41.668                  
  21805083.300 6    309092.217 6     -1685.050 6        39.673                  
  21794111.722 7   -720628.940 7      3648.461 7        43.644                  
 18  6  1 13 15 21.4118020  0  4G04G23G26G27                                    
  22737545.331 6    420052.579 6     -2366.406 6        41.069                  
  20811959.898 7   -482264.768 7      2390.214 7        45.753                  
  21805169.589 6    309260.628 6     -1683.351 6        38.357                  
  21794088.005 6   -720993.829 6      3649.136 6        41.449                  
 18  6  1 13 15 21.5118020  0  4G04G23G26G27                                    
  22737616.566 6    420289.162 6     -2365.054 6        39.952                  
  20811939.487 7   -482503.856 7      2391.298 7        42.920                  
  21805229.341 6    309428.954 6     -1682.607 6        38.274                  
  21794042.605 7   -721358.816 7      3650.323 7        46.402                  
 18  6  1 13 15 21.6118020  0  4G04G23G26G27                                    
  22737675.243 6    420525.722 6     -2365.903 6        40.937                  
  20811898.918 7   -482742.960 7      2390.705 7        43.391                  
  21805272.451 6    309597.307 6     -1684.005 6        38.993                  
  21793986.810 7   -721723.788 7      3649.137 7        42.422                  
 18  6  1 13 15 21.7118020  0  4G04G23G26G27                                    
  22737722.631 7    420762.339 7     -2366.506 7        43.925                  
  20811859.163 6   -482982.005 6      2390.474 6        41.860                  
  21805305.219 6    309765.684 6     -1684.103 6        36.690                  
  21793924.779 7   -722088.724 7      3649.189 7        44.724                  
 18  6  1 13 15 21.8118020  0  4G04G23G26G27                                    
  22737794.260 6    420999.099 6     -2369.447 6        40.977                  
  20811843.532 6   -483220.918 6      2387.021 6        39.498                  
  21805367.037 6    309934.188 6     -1686.935 6        41.479                  
  21793885.108 7   -722453.516 7      3645.768 7        42.501                  
 18  6  1 13 15 21.9118020  0  4G04G23G26G27                                    
  22737846.126 6    421236.488 6     -2378.615 6        41.673                  
  20811804.555 6   -483459.214 6      2378.006 6        41.100                  
  21805403.757 6    310103.329 6     -1696.363 6        39.619                  
  21793822.026 7   -722817.695 7      3637.223 7        44.933                  
 18  6  1 13 15 22.0118020  0  4G04G23G26G27                                    
  22737935.833 6    421474.827 6     -2387.800 6        40.972                  
  20811800.150 7   -483696.555 7      2368.936 7        44.488                  
  21805484.909 6    310273.417 6     -1705.194 6        37.276                  
  21793791.872 7   -723180.920 7      3627.905 7        44.521                  
 18  6  1 13 15 22.1118020  0  4G04G23G26G27                                    
  22737972.973 6    421713.853 6     -2392.322 6        41.429                  
  20811749.242 6   -483933.189 6      2364.600 6        41.847                  
  21805504.948 6    310444.217 6     -1709.787 6        38.248                  
  21793718.348 7   -723543.443 7      3623.597 7        43.897                  
 18  6  1 13 15 22.2118020  0  4G04G23G26G27                                    
  22738022.833 6    421953.242 6     -2395.302 6        41.112                  
  20811703.111 7   -484169.452 7      2361.075 7        42.253                  
  21805538.010 6    310615.358 6     -1713.604 6        39.644                  
  21793652.604 7   -723905.597 7      3619.797 7        44.136                  
 18  6  1 13 15 22.3118020  0  4G04G23G26G27                                    
  22738096.009 6    422192.893 6     -2397.472 6        41.380                  
  20811689.703 7   -484405.438 7      2358.974 7        42.538                  
  21805601.493 6    310786.789 6     -1714.935 6        40.098                  
  21793611.321 7   -724267.469 7      3617.869 7        45.864                  
 18  6  1 13 15 22.4118020  0  4G04G23G26G27                                    
  22738144.438 6    422432.650 6     -2397.374 6        39.195                  
  20811654.570 6   -484641.330 6      2358.879 6        41.391                  
  21805635.811 6    310958.302 6     -1714.687 6        38.276                  
  21793545.790 7   -724629.246 7      3617.796 7        44.614                  
 18  6  1 13 15 22.5118020  0  4G04G23G26G27                                    
  22738196.035 6    422672.387 6     -2397.460 6        40.953                  
  20811621.940 6   -484877.214 6      2358.716 6        41.213                  
  21805673.782 6    311129.819 6     -1715.228 6        38.962                  
  21793483.208 6   -724991.020 6      3617.684 6        41.765                  
 18  6  1 13 15 22.6118020  0  4G04G23G26G27                                    
  22738283.705 6    422912.112 6     -2396.954 6        41.413                  
  20811612.962 7   -485113.124 7      2359.855 7        42.390                  
  21805751.557 6    311301.312 6     -1714.377 6        39.828                  
  21793447.967 6   -725352.831 6      3618.888 6        41.743                  
 18  6  1 13 15 22.7118020  0  4G04G23G26G27                                    
  22738379.152 6    423151.681 6     -2394.220 6        41.309                  
  20811612.242 7   -485349.165 7      2361.248 7        43.686                  
  21805844.416 6    311472.660 6     -1712.755 6        39.896                  
  21793431.350 7   -725714.767 7      3619.706 7        43.108                  
 18  6  1 13 15 22.8118020  0  4G04G23G26G27                                    
  22738441.723 6    423391.083 6     -2394.027 6        39.892                  
  20811581.900 7   -485585.374 7      2362.710 7        42.767                  
  21805889.645 6    311643.849 6     -1711.496 6        36.790                  
  21793382.433 7   -726076.876 7      3621.880 7        42.545                  
 18  6  1 13 15 22.9118020  0  4G04G23G26G27                                    
  22738478.808 6    423630.429 6     -2393.067 6        40.623                  
  20811528.231 7   -485821.652 7      2362.526 7        42.931                  
  21805908.975 6    311814.966 6     -1711.042 6        40.349                  
  21793308.615 6   -726439.040 6      3621.702 6        41.054                  
 18  6  1 13 15 23.0118020  0  4G04G23G26G27                                    
  22738545.504 6    423869.814 6     -2394.273 6        41.267                  
  20811505.821 7   -486057.879 7      2362.053 7        44.698                  
  21805964.088 6    311986.131 6     -1712.512 6        39.144                  
  21793261.118 7   -726801.175 7      3620.880 7        43.150                  
 18  6  1 13 15 23.1118020  0  4G04G23G26G27                                    
  22738599.539 7    424109.231 7     -2393.516 7        42.914                  
  20811471.125 6   -486294.072 6      2362.507 6        41.894                  
  21806003.500 6    312157.329 6     -1711.229 6        38.920                  
  21793196.628 6   -727163.263 6      3621.416 6        41.593                  
 18  6  1 13 15 23.2118020  0  4G04G23G26G27                                    
  22738636.179 7    424348.499 7     -2392.078 7        42.162                  
  20811416.613 7   -486530.397 7      2363.876 7        44.119                  
  21806021.391 6    312328.386 6     -1709.561 6        40.245                  
  21793115.119 7   -727525.492 7      3622.771 7        42.661                  
 18  6  1 13 15 23.3118020  0  4G04G23G26G27                                    
  22738697.730 6    424587.599 6     -2389.835 6        38.595                  
  20811390.735 6   -486766.889 6      2365.827 6        41.816                  
  21806070.864 6    312499.260 6     -1708.268 6        39.708                  
  21793064.239 7   -727887.884 7      3625.303 7        43.166                  
 18  6  1 13 15 23.4118020  0  4G04G23G26G27                                    
  22738761.487 6    424826.469 6     -2388.041 6        39.830                  
  20811360.489 7   -487003.603 7      2368.451 7        43.524                  
  21806121.414 6    312669.932 6     -1705.635 6        40.426                  
  21793014.604 7   -728250.499 7      3627.036 7        42.322                  
 18  6  1 13 15 23.5118020  0  4G04G23G26G27                                    
  22738824.938 6    425065.203 6     -2386.884 6        41.318                  
  20811330.129 7   -487240.468 7      2369.092 7        42.688                  
  21806171.228 6    312840.444 6     -1703.933 6        40.849                  
  21792961.032 7   -728613.268 7      3628.040 7        42.637                  
 18  6  1 13 15 23.6118020  0  4G04G23G26G27                                    
  22738875.455 7    425303.838 7     -2385.812 7        42.911                  
  20811297.563 7   -487477.432 7      2370.037 7        42.734                  
  21806209.228 6    313010.853 6     -1703.847 6        38.606                  
  21792906.910 7   -728976.125 7      3629.264 7        43.364                  
 18  6  1 13 15 23.7118020  0  4G04G23G26G27                                    
  22738973.684 6    425542.352 6     -2384.585 6        40.904                  
  20811307.915 7   -487714.484 7      2370.762 7        42.583                  
  21806302.579 6    313181.171 6     -1702.483 6        41.349                  
  21792889.713 7   -729339.089 7      3630.079 7        42.753                  
 18  6  1 13 15 23.8118020  0  4G04G23G26G27                                    
  22739044.604 7    425780.844 7     -2385.018 7        42.535                  
  20811289.245 6   -487951.588 6      2371.250 6        41.274                  
  21806366.779 6    313351.427 6     -1702.219 6        37.214                  
  21792844.139 7   -729702.095 7      3629.987 7        46.825                  
 18  6  1 13 15 23.9118020  0  4G04G23G26G27                                    
  22739131.169 6    426019.302 6     -2384.476 6        41.721                  
  20811285.371 7   -488188.684 7      2371.089 7        42.230                  
  21806445.729 6    313521.685 6     -1703.422 6        40.399                  
  21792817.496 6   -730065.110 6      3630.091 6        41.713                  
 18  6  1 13 15 24.0118020  0  4G04G23G26G27                                    
  22739183.137 6    426257.726 6     -2383.810 6        41.129                  
  20811245.131 7   -488425.844 7      2371.570 7        43.040                  
  21806482.168 6    313691.905 6     -1701.291 6        36.072                  
  21792753.754 7   -730428.169 7      3631.087 7        42.854                  
 18  6  1 13 15 24.1118020  0  4G04G23G26G27                                    
  22739196.936 7    426496.097 7     -2383.103 7        43.251                  
  20811163.959 6   -488663.043 6      2372.853 6        41.972                  
  21806467.350 6    313862.048 6     -1701.592 6        39.246                  
  21792650.397 7   -730791.277 7      3631.182 7        42.402                  
 18  6  1 13 15 24.2118020  0  4G04G23G26G27                                    
  22739264.166 7    426734.367 7     -2382.333 7        42.779                  
  20811139.073 7   -488900.349 7      2373.207 7        42.524                  
  21806522.195 6    314032.115 6     -1699.511 6        40.239                  
  21792601.346 6   -731154.484 6      3632.697 6        41.319                  
 18  6  1 13 15 24.3118020  0  4G04G23G26G27                                    
  22739307.758 6    426972.534 6     -2381.326 6        40.514                  
  20811098.039 6   -489137.730 6      2374.334 6        41.929                  
  21806550.528 6    314202.086 6     -1699.782 6        39.340                  
  21792531.876 6   -731517.787 6      3633.587 6        40.195                  
 18  6  1 13 15 24.4118020  0  4G04G23G26G27                                    
  22739391.702 6    427210.581 6     -2379.956 6        41.983                  
  20811091.537 7   -489375.237 7      2375.707 7        45.306                  
  21806626.443 6    314371.935 6     -1697.498 6        39.343                  
  21792503.965 7   -731881.200 7      3634.907 7        43.229                  
 18  6  1 13 15 24.5118020  0  4G04G23G26G27                                    
  22739466.969 6    427448.577 6     -2380.219 6        40.059                  
  20811070.796 7   -489612.817 7      2375.288 7        43.330                  
  21806689.695 6    314541.694 6     -1697.884 6        38.576                  
  21792459.174 7   -732244.690 7      3634.477 7        43.334                  
 18  6  1 13 15 24.6118020  0  4G04G23G26G27                                    
  22739529.859 6    427686.655 6     -2381.107 6        40.207                  
  20811045.208 7   -489850.303 7      2374.559 7        43.624                  
  21806740.887 6    314711.560 6     -1699.550 6        38.457                  
  21792412.622 7   -732608.087 7      3633.324 7        44.163                  
 18  6  1 13 15 24.7118020  0  4G04G23G26G27                                    
  22739575.743 6    427924.849 6     -2382.955 6        41.978                  
  20810996.982 6   -490087.652 6      2372.799 6        41.073                  
  21806769.370 6    314881.561 6     -1700.790 6        38.503                  
  21792341.160 7   -732971.345 7      3632.007 7        44.109                  
 18  6  1 13 15 24.8118020  0  4G04G23G26G27                                    
  22739632.323 6    428163.115 6     -2382.314 6        40.575                  
  20810960.241 7   -490324.933 7      2372.793 7        42.541                  
  21806811.241 6    315051.620 6     -1700.351 6        38.611                  
  21792282.939 7   -733334.550 7      3632.265 7        42.126                  
 18  6  1 13 15 24.9118020  0  4G04G23G26G27                                    
  22739689.420 6    428401.434 6     -2384.069 6        40.972                  
  20810925.048 7   -490562.166 7      2371.751 7        44.122                  
  21806854.173 6    315221.716 6     -1701.951 6        40.971                  
  21792227.038 7   -733697.699 7      3630.550 7        44.949                  
 18  6  1 13 15 25.0118020  0  4G04G23G26G27                                    
  22739763.483 6    428639.971 6     -2387.049 6        41.754                  
  20810908.604 6   -490799.180 6      2368.264 6        41.826                  
  21806917.535 6    315392.044 6     -1704.882 6        39.903                  
  21792183.932 6   -734060.623 6      3627.425 6        40.998                  
 18  6  1 13 15 25.1118020  0  4G04G23G26G27                                    
  22739844.029 7    428879.023 7     -2394.248 7        42.312                  
  20810902.512 7   -491035.685 7      2360.981 7        44.107                  
  21806990.042 6    315562.866 6     -1712.003 6        37.657                  
  21792151.219 7   -734423.037 7      3620.181 7        43.237                  
 18  6  1 13 15 25.2118020  0  4G04G23G26G27                                    
  22739911.844 6    429118.833 6     -2400.962 6        38.335                  
  20810879.329 6   -491271.430 6      2355.027 6        40.793                  
  21807045.314 6    315734.496 6     -1718.910 6        37.254                  
  21792098.049 7   -734784.698 7      3614.134 7        43.408                  
 18  6  1 13 15 25.3118020  0  4G04G23G26G27                                    
  22739971.188 6    429358.997 6     -2401.752 6        40.214                  
  20810851.326 7   -491506.801 7      2352.982 7        42.568                  
  21807096.873 6    315906.433 6     -1720.185 6        39.873                  
  21792048.303 6   -735145.981 6      3612.723 6        40.848                  
 18  6  1 13 15 25.4118020  0  4G04G23G26G27                                    
  22740045.344 7    429599.220 7     -2402.654 7        42.226                  
  20810836.571 7   -491742.101 7      2352.489 7        43.064                  
  21807160.605 6    316078.464 6     -1720.484 6        38.999                  
  21792004.390 7   -735507.205 7      3611.806 7        43.488                  
 18  6  1 13 15 25.5118020  0  4G04G23G26G27                                    
  22740099.984 6    429839.541 6     -2404.453 6        40.771                  
  20810802.777 7   -491977.317 7      2351.478 7        44.087                  
  21807201.107 6    316250.576 6     -1721.413 6        39.133                  
  21791943.155 7   -735868.344 7      3610.338 7        44.795                  
 18  6  1 13 15 25.6118020  0  4G04G23G26G27                                    
  22740165.960 6    430079.985 6     -2404.188 6        41.239                  
  20810772.235 7   -492212.381 7      2350.722 7        42.320                  
  21807248.883 6    316422.831 6     -1723.176 6        38.842                  
  21791890.963 7   -736229.335 7      3609.615 7        42.386                  
 18  6  1 13 15 25.7118020  0  4G04G23G26G27                                    
  22740211.058 6    430320.391 6     -2402.714 6        40.011                  
  20810731.857 7   -492447.496 7      2351.631 7        43.573                  
  21807284.205 6    316595.016 6     -1721.343 6        40.607                  
  21791831.983 7   -736590.380 7      3611.416 7        42.712                  
 18  6  1 13 15 25.8118020  0  4G04G23G26G27                                    
  22740286.297 7    430560.617 7     -2402.246 7        42.361                  
  20810714.833 6   -492682.758 6      2353.353 6        41.092                  
  21807344.916 6    316767.070 6     -1719.339 6        39.571                  
  21791796.027 7   -736951.558 7      3612.492 7        42.480                  
 18  6  1 13 15 25.9118020  0  4G04G23G26G27                                    
  22740344.898 6    430800.774 6     -2401.080 6        41.895                  
  20810688.759 6   -492918.115 6      2353.739 6        41.286                  
  21807391.703 6    316939.025 6     -1719.770 6        39.409                  
  21791744.508 7   -737312.844 7      3612.592 7        42.462                  
 18  6  1 13 15 26.0118020  0  4G04G23G26G27                                    
  22740365.490 6    431040.869 6     -2400.592 6        40.330                  
  20810613.837 7   -493153.528 7      2354.954 7        43.110                  
  21807388.720 5    317110.933 5     -1717.512 5        34.962                  
  21791642.571 6   -737674.180 6      3614.521 6        40.690                  
 18  6  1 13 15 26.1118020  0  4G04G23G26G27                                    
  22740468.845 6    431280.751 6     -2397.523 6        39.700                  
  20810619.445 6   -493389.130 6      2357.283 6        41.803                  
  21807485.648 6    317282.623 6     -1715.771 6        39.465                  
  21791627.041 7   -738035.715 7      3616.348 7        43.055                  
 18  6  1 13 15 26.2118020  0  4G04G23G26G27                                    
  22740495.750 6    431520.358 6     -2394.159 6        42.000                  
  20810554.130 7   -493625.008 7      2360.332 7        42.366                  
  21807491.725 6    317454.040 6     -1712.686 6        39.626                  
  21791537.485 6   -738397.518 6      3619.727 6        41.677                  
 18  6  1 13 15 26.3118020  0  4G04G23G26G27                                    
  22740577.179 6    431759.647 6     -2391.843 6        41.905                  
  20810547.395 6   -493861.200 6      2363.212 6        41.509                  
  21807565.161 6    317625.143 6     -1709.787 6        39.504                  
  21791507.490 7   -738759.642 7      3622.604 7        42.993                  
 18  6  1 13 15 26.4118020  0  4G04G23G26G27                                    
  22740639.774 7    431998.722 7     -2389.903 7        45.296                  
  20810528.477 7   -494097.606 7      2364.756 7        42.698                  
  21807622.250 6    317796.034 6     -1708.504 6        38.491                  
  21791463.589 7   -739121.981 7      3623.922 7        42.955                  
 18  6  1 13 15 26.5118020  0  4G04G23G26G27                                    
  22740698.999 6    432237.683 6     -2389.201 6        41.101                  
  20810503.175 6   -494334.137 6      2365.846 6        41.349                  
  21807669.662 6    317966.796 6     -1707.277 6        39.301                  
  21791411.245 6   -739484.435 6      3625.411 6        41.648                  
 18  6  1 13 15 26.6118020  0  4G04G23G26G27                                    
  22740761.551 6    432476.545 6     -2388.359 6        40.321                  
  20810474.047 6   -494570.750 6      2366.048 6        39.340                  
  21807719.437 6    318137.470 6     -1706.567 6        39.939                  
  21791361.822 7   -739846.980 7      3625.220 7        42.231                  
 18  6  1 13 15 26.7118020  0  4G04G23G26G27                                    
  22740833.503 6    432715.493 6     -2390.566 6        40.221                  
  20810450.478 6   -494807.286 6      2364.382 6        41.521                  
  21807779.225 6    318308.214 6     -1708.069 6        40.199                  
  21791317.595 6   -740209.446 6      3623.893 6        41.917                  
 18  6  1 13 15 26.8118020  0  4G04G23G26G27                                    
  22740908.014 6    432954.540 6     -2389.992 6        41.068                  
  20810440.388 7   -495043.710 7      2364.860 7        43.924                  
  21807845.212 6    318479.092 6     -1708.373 6        38.732                  
  21791281.527 7   -740571.811 7      3624.161 7        45.099                  
 18  6  1 13 15 26.9118020  0  4G04G23G26G27                                    
  22740946.716 7    433193.504 7     -2389.202 7        42.442                  
  20810392.611 6   -495280.215 6      2365.186 6        41.943                  
  21807866.488 6    318649.876 6     -1707.413 6        39.334                  
  21791200.831 7   -740934.256 7      3624.562 7        43.361                  
 18  6  1 13 15 27.0118020  0  4G04G23G26G27                                    
  22741013.732 6    433432.368 6     -2388.723 6        39.867                  
  20810363.639 6   -495516.824 6      2366.570 6        41.472                  
  21807920.349 6    318820.538 6     -1706.333 6        41.069                  
  21791152.883 6   -741296.802 6      3625.622 6        40.732                  
 18  6  1 13 15 27.1118020  0  4G04G23G26G27                                    
  22741061.826 7    433671.159 7     -2386.694 7        44.484                  
  20810315.641 6   -495753.483 6      2367.217 6        41.663                  
  21807946.307 6    318991.145 6     -1705.387 6        40.807                  
  21791080.133 6   -741659.395 6      3626.922 6        41.085                  
 18  6  1 13 15 27.2118020  0  4G04G23G26G27                                    
  22741111.655 6    433909.724 6     -2384.276 6        41.053                  
  20810272.630 7   -495990.359 7      2370.295 7        43.380                  
  21807979.773 6    319161.553 6     -1702.366 6        39.842                  
  21791012.005 7   -742022.207 7      3629.783 7        43.150                  
 18  6  1 13 15 27.3118020  0  4G04G23G26G27                                    
  22741160.914 6    434148.052 6     -2382.699 6        40.978                  
  20810227.440 7   -496227.488 7      2372.127 7        42.398                  
  21808012.281 6    319331.691 6     -1700.880 6        38.501                  
  21790944.146 7   -742385.286 7      3630.968 7        43.971                  
 18  6  1 13 15 27.4118020  0  4G04G23G26G27                                    
  22741254.962 6    434386.282 6     -2381.689 6        40.131                  
  20810226.870 6   -496464.706 6      2372.435 6        40.700                  
  21808098.982 6    319501.728 6     -1699.957 6        39.247                  
  21790922.092 6   -742748.441 6      3632.349 6        41.389                  
 18  6  1 13 15 27.5118020  0  4G04G23G26G27                                    
  22741324.204 6    434624.357 6     -2380.136 6        39.489                  
  20810217.516 7   -496702.078 7      2374.616 7        45.020                  
  21808164.979 6    319671.631 6     -1698.226 6        38.169                  
  21790886.837 7   -743111.747 7      3633.929 7        42.039                  
 18  6  1 13 15 27.6118020  0  4G04G23G26G27                                    
  22741380.341 6    434862.290 6     -2378.607 6        40.152                  
  20810177.059 6   -496939.579 6      2375.742 6        39.821                  
  21808205.287 6    319841.393 6     -1696.906 6        36.414                  
  21790825.602 7   -743475.193 7      3635.078 7        42.261                  
 18  6  1 13 15 27.7118020  0  4G04G23G26G27                                    
  22741439.921 6    435100.062 6     -2376.618 6        39.945                  
  20810143.727 7   -497177.253 7      2377.340 7        44.376                  
  21808246.348 7    320010.975 7     -1694.642 7        42.056                  
  21790768.860 6   -743838.812 6      3636.718 6        41.377                  
 18  6  1 13 15 27.8118020  0  4G04G23G26G27                                    
  22741499.656 6    435337.662 6     -2375.272 6        38.307                  
  20810124.841 6   -497415.086 6      2379.197 6        41.693                  
  21808300.553 6    320180.400 6     -1693.876 6        41.925                  
  21790721.409 7   -744202.588 7      3638.796 7        42.620                  
 18  6  1 13 15 27.9118020  0  4G04G23G26G27                                    
  22741531.545 6    435575.139 6     -2374.485 6        39.483                  
  20810062.796 7   -497653.025 7      2379.819 7        42.448                  
  21808307.679 6    320349.711 6     -1692.193 6        40.658                  
  21790634.800 7   -744566.480 7      3639.276 7        42.291                  
 18  6  1 13 15 28.0118020  0  4G04G23G26G27                                    
  22741619.792 6    435812.578 6     -2374.268 6        40.673                  
  20810057.405 6   -497891.021 6      2379.926 6        41.252                  
  21808387.509 6    320518.966 6     -1692.633 6        39.603                  
  21790606.228 7   -744930.416 7      3639.208 7        42.284                  
 18  6  1 13 15 28.1118020  0  4G04G23G26G27                                    
  22741691.912 7    436049.997 7     -2374.033 7        42.319                  
  20810040.856 7   -498129.035 7      2380.214 7        42.946                  
  21808449.624 6    320688.205 6     -1693.131 6        40.182                  
  21790567.304 7   -745294.374 7      3639.914 7        42.580                  
 18  6  1 13 15 28.2118020  0  4G04G23G26G27                                    
  22741743.348 6    436287.371 6     -2373.255 6        39.553                  
  20810006.175 7   -498367.080 7      2380.684 7        43.178                  
  21808491.468 6    320857.397 6     -1691.562 6        40.760                  
  21790505.840 7   -745658.375 7      3640.118 7        42.615                  
 18  6  1 13 15 28.3118020  0  4G04G23G26G27                                    
  22741824.597 6    436524.737 6     -2374.160 6        40.855                  
  20809993.717 7   -498605.128 7      2380.285 7        44.724                  
  21808563.080 6    321026.588 6     -1691.576 6        38.506                  
  21790472.472 7   -746022.375 7      3639.823 7        43.723                  
 18  6  1 13 15 28.4118020  0  4G04G23G26G27                                    
  22741903.710 7    436762.073 7     -2372.963 7        43.845                  
  20809982.173 7   -498843.205 7      2381.307 7        43.025                  
  21808631.999 6    321195.761 6     -1691.330 6        39.511                  
  21790429.814 6   -746386.398 6      3640.637 6        41.428                  
 18  6  1 13 15 28.5118020  0  4G04G23G26G27                                    
  22741975.945 6    436999.314 6     -2371.748 6        39.532                  
  20809968.046 7   -499081.369 7      2382.201 7        44.967                  
  21808694.828 6    321364.842 6     -1690.471 6        39.344                  
  21790391.407 7   -746750.514 7      3642.071 7        42.005                  
 18  6  1 13 15 28.6118020  0  4G04G23G26G27                                    
  22742003.159 6    437236.458 6     -2370.693 6        41.018                  
  20809895.753 7   -499319.641 7      2383.296 7        42.983                  
  21808699.545 6    321533.793 6     -1688.991 6        39.745                  
  21790301.546 7   -747114.736 7      3642.806 7        43.468                  
 18  6  1 13 15 28.7118020  0  4G04G23G26G27                                    
  22742051.182 7    437473.447 7     -2369.312 7        42.353                  
  20809861.764 7   -499558.045 7      2384.816 7        42.516                  
  21808734.421 6    321702.630 6     -1687.221 6        37.822                  
  21790241.908 7   -747479.090 7      3644.759 7        42.788                  
 18  6  1 13 15 28.8118020  0  4G04G23G26G27                                    
  22742126.631 6    437710.257 6     -2366.834 6        40.395                  
  20809846.946 7   -499796.626 7      2386.664 7        43.263                  
  21808795.664 6    321871.268 6     -1685.484 6        39.262                  
  21790204.665 6   -747843.635 6      3645.914 6        39.860                  
 18  6  1 13 15 28.9118020  0  4G04G23G26G27                                    
  22742174.681 6    437946.885 6     -2365.838 6        40.847                  
  20809803.972 6   -500035.396 6      2388.697 6        40.527                  
  21808832.254 6    322039.730 6     -1684.259 6        39.150                  
  21790139.352 6   -748208.364 6      3648.226 6        41.704                  
 18  6  1 13 15 29.0118020  0  4G04G23G26G27                                    
  22742238.182 6    438183.412 6     -2364.508 6        39.162                  
  20809773.900 6   -500274.256 6      2388.761 6        41.322                  
  21808878.012 6    322208.078 6     -1682.675 6        38.876                  
  21790087.529 7   -748573.183 7      3648.342 7        42.247                  
 18  6  1 13 15 29.1118020  0  4G04G23G26G27                                    
  22742310.472 6    438419.886 6     -2364.706 6        41.665                  
  20809765.650 7   -500513.182 7      2389.508 7        42.017                  
  21808946.280 6    322376.390 6     -1683.150 6        40.189                  
  21790046.638 7   -748938.058 7      3649.102 7        42.153                  
 18  6  1 13 15 29.2118020  0  4G04G23G26G27                                    
  22742373.326 6    438656.317 6     -2364.464 6        41.533                  
  20809735.518 7   -500752.125 7      2389.372 7        42.694                  
  21808991.927 6    322544.655 6     -1682.773 6        38.629                  
  21789998.924 7   -749302.964 7      3648.835 7        42.652                  
 18  6  1 13 15 29.3118020  0  4G04G23G26G27                                    
  22742426.226 6    438892.727 6     -2363.612 6        40.692                  
  20809693.187 6   -500991.091 6      2390.269 6        41.925                  
  21809028.641 6    322712.911 6     -1681.650 6        40.221                  
  21789934.623 7   -749667.884 7      3650.000 7        42.947                  
 18  6  1 13 15 29.4118020  0  4G04G23G26G27                                    
  22742484.732 6    439129.013 6     -2362.510 6        41.736                  
  20809657.691 7   -501230.186 7      2391.654 7        43.095                  
  21809076.586 6    322881.030 6     -1681.060 6        40.121                  
  21789874.316 7   -750032.939 7      3651.013 7        43.936                  
 18  6  1 13 15 29.5118020  0  4G04G23G26G27                                    
  22742537.384 7    439365.174 7     -2361.067 7        43.352                  
  20809616.233 6   -501469.399 6      2392.359 6        40.357                  
  21809108.578 6    323049.022 6     -1679.283 6        38.631                  
  21789806.863 7   -750398.109 7      3652.053 7        43.007                  
 18  6  1 13 15 29.6118020  0  4G04G23G26G27                                    
  22742610.443 6    439601.317 6     -2361.571 6        38.924                  
  20809604.972 6   -501708.633 6      2391.955 6        41.269                  
  21809177.309 7    323216.994 7     -1679.976 7        42.047                  
  21789770.180 6   -750763.309 6      3651.817 6        40.114                  
 18  6  1 13 15 29.7118020  0  4G04G23G26G27                                    
  22742674.091 6    439837.498 6     -2361.389 6        39.297                  
  20809578.299 7   -501947.809 7      2392.067 7        42.407                  
  21809228.332 6    323385.025 6     -1680.506 6        41.297                  
  21789718.488 7   -751128.444 7      3651.441 7        42.379                  
 18  6  1 13 15 29.8118020  0  4G04G23G26G27                                    
  22742774.292 7    440073.605 7     -2360.456 7        43.499                  
  20809584.260 7   -502187.076 7      2393.230 7        43.242                  
  21809323.022 6    323552.959 6     -1677.989 6        37.233                  
  21789706.639 7   -751493.670 7      3652.759 7        42.059                  
 18  6  1 13 15 29.9118020  0  4G04G23G26G27                                    
  22742807.571 6    440309.569 6     -2359.202 6        40.192                  
  20809522.555 7   -502426.456 7      2394.045 7        43.157                  
  21809331.237 6    323720.788 6     -1678.058 6        41.314                  
  21789618.406 7   -751859.023 7      3654.255 7        42.468                  
 18  6  1 13 15 30.0118020  0  4G04G23G26G27                                    
  22742852.292 7    440545.415 7     -2358.052 7        42.338                  
  20809477.797 7   -502665.961 7      2396.183 7        42.275                  
  21809359.202 6    323888.459 6     -1675.952 6        40.017                  
  21789544.491 6   -752224.493 6      3655.314 6        41.970                  
 18  6  1 13 16  0.1118020  0  4G04G23G26G27                                    
  22761418.675 6    512324.624 6     -2405.490 6        40.354                  
  20800850.289 6   -573802.631 6      2337.104 6        41.185                  
  21824034.153 6    375277.564 6     -1709.710 6        39.210                  
  21773698.138 6   -861321.053 6      3600.027 6        41.125                  
 18  6  1 13 16  0.2118020  0  4G04G23G26G27                                    
  22761466.351 6    512565.090 6     -2404.205 6        41.627                  
  20800805.979 7   -574036.400 7      2337.933 7        43.391                  
  21824061.770 6    375364.746 6     -1725.501 6        39.454                  
  21773636.373 7   -861681.086 7      3600.471 7        42.479                  
 18  6  1 13 16  0.3118020  0  4G04G23G26G27                                    
  22761509.935 6    512805.411 6     -2402.217 6        40.584                  
  20800767.604 7   -574270.317 7      2340.600 7        44.201                  
  21824094.686 6    375537.190 6     -1723.222 6        38.767                  
  21773563.893 7   -862041.266 7      3602.866 7        42.388                  
 18  6  1 13 16  0.4118020  0  4G04G23G26G27                                    
  22761590.629 6    513045.491 6     -2399.805 6        39.971                  
  20800763.496 7   -574504.463 7      2342.389 7        43.306                  
  21824167.917 6    375709.392 6     -1721.048 6        41.552                  
  21773532.892 7   -862401.669 7      3605.104 7        42.541                  
 18  6  1 13 16  0.5118020  0  4G04G23G26G27                                    
  22761647.467 6    513285.395 6     -2397.846 6        41.773                  
  20800727.108 7   -574738.782 7      2344.048 7        42.926                  
  21824205.522 6    375881.410 6     -1719.272 6        38.001                  
  21773473.101 7   -862762.252 7      3607.167 7        42.073                  
 18  6  1 13 16  0.6118020  0  4G04G23G26G27                                    
  22761715.422 6    513525.071 6     -2395.554 6        39.537                  
  20800700.615 6   -574973.319 6      2346.821 6        41.633                  
  21824265.151 6    376053.202 6     -1716.706 6        40.283                  
  21773425.742 6   -863123.058 6      3609.006 6        41.005                  
 18  6  1 13 16  0.7118020  0  4G04G23G26G27                                    
  22761763.065 6    513764.637 6     -2396.821 6        39.869                  
  20800656.321 7   -575208.000 7      2345.836 7        42.423                  
  21824291.986 6    376224.889 6     -1717.476 6        39.808                  
  21773357.187 6   -863483.998 6      3608.585 6        41.225                  
 18  6  1 13 16  0.8118020  0  4G04G23G26G27                                    
  22761807.132 6    514004.453 6     -2398.663 6        39.998                  
  20800605.478 7   -575442.410 7      2343.192 7        43.234                  
  21824317.203 6    376396.806 6     -1720.175 6        38.239                  
  21773276.086 6   -863844.678 6      3605.710 6        41.529                  
 18  6  1 13 16  0.9118020  0  4G04G23G26G27                                    
  22761906.721 6    514244.324 6     -2398.400 6        40.559                  
  20800618.964 7   -575676.766 7      2344.070 7        43.708                  
  21824418.350 6    376568.798 6     -1719.378 6        40.746                  
  21773273.204 7   -864205.296 7      3606.625 7        44.259                  
 18  6  1 13 16  1.0118020  0  4G04G23G26G27                                    
  22761958.657 6    514483.963 6     -2394.264 6        40.181                  
  20800582.882 7   -575911.320 7      2347.167 7        43.979                  
  21824456.321 6    376740.567 6     -1715.699 6        39.497                  
  21773215.301 7   -864566.124 7      3610.435 7        43.661                  
 18  6  1 13 16  1.1118020  0  4G04G23G26G27                                    
  22762038.847 6    514723.280 6     -2391.732 6        38.345                  
  20800572.220 6   -576146.204 6      2350.295 6        41.103                  
  21824527.195 6    376912.011 6     -1712.882 6        39.236                  
  21773180.272 6   -864927.271 6      3612.843 6        41.862                  
 18  6  1 13 16  1.2118020  0  4G04G23G26G27                                    
  22762085.452 6    514962.273 6     -2388.481 6        38.092                  
  20800531.290 7   -576381.401 7      2353.686 7        43.747                  
  21824558.697 6    377083.143 6     -1710.360 6        40.144                  
  21773115.825 7   -865288.741 7      3616.178 7        44.654                  
 18  6  1 13 16  1.3118020  0  4G04G23G26G27                                    
  22762149.479 6    515201.042 6     -2386.934 6        39.402                  
  20800512.681 7   -576616.844 7      2355.086 7        42.164                  
  21824611.907 6    377254.014 6     -1707.699 6        37.936                  
  21773064.786 7   -865650.445 7      3617.872 7        42.306                  
 18  6  1 13 16  1.4118020  0  4G04G23G26G27                                    
  22762161.685 6    515439.644 6     -2385.459 6        37.815                  
  20800426.283 7   -576852.431 7      2356.643 7        43.669                  
  21824593.438 6    377424.752 6     -1706.785 6        41.844                  
  21772951.782 7   -866012.311 7      3619.526 7        42.721                  
 18  6  1 13 16  1.5118020  0  4G04G23G26G27                                    
  22762282.292 7    515678.048 7     -2382.758 7        42.338                  
  20800454.771 7   -577088.211 7      2358.857 7        43.647                  
  21824717.801 6    377595.298 6     -1704.629 6        38.897                  
  21772962.579 6   -866374.363 6      3621.460 6        41.558                  
 18  6  1 13 16  1.6118020  0  4G04G23G26G27                                    
  22762342.160 6    515916.304 6     -2382.987 6        38.550                  
  20800431.313 7   -577324.158 7      2359.175 7        42.629                  
  21824765.535 6    377765.669 6     -1703.137 6        39.517                  
  21772904.739 7   -866736.589 7      3622.153 7        44.344                  
 18  6  1 13 16  1.7118020  0  4G04G23G26G27                                    
  22762394.343 7    516154.674 7     -2383.868 7        42.240                  
  20800386.810 7   -577559.968 7      2357.731 7        42.732                  
  21824801.062 6    377936.167 6     -1705.594 6        39.618                  
  21772840.010 6   -867098.668 6      3620.015 6        40.200                  
 18  6  1 13 16  1.8118020  0  4G04G23G26G27                                    
  22762437.444 6    516393.043 6     -2383.095 6        38.349                  
  20800331.065 7   -577795.793 7      2358.923 7        43.162                  
  21824821.738 6    378106.656 6     -1704.137 6        39.863                  
  21772774.803 7   -867460.774 7      3621.870 7        43.851                  
 18  6  1 13 16  1.9118020  0  4G04G23G26G27                                    
  22762500.477 6    516631.219 6     -2380.999 6        41.426                  
  20800303.144 7   -578031.794 7      2361.052 7        42.355                  
  21824871.879 6    378276.960 6     -1702.375 6        41.353                  
  21772722.837 7   -867823.049 7      3623.606 7        42.676                  
 18  6  1 13 16  2.0118020  0  4G04G23G26G27                                    
  22762571.019 6    516869.302 6     -2380.680 6        38.730                  
  20800288.650 6   -578267.889 6      2361.362 6        41.383                  
  21824937.078 6    378447.168 6     -1702.210 6        37.674                  
  21772681.046 7   -868185.415 7      3624.301 7        43.459                  
 18  6  1 13 16  2.1118020  0  4G04G23G26G27                                    
  22762615.218 6    517107.319 6     -2380.003 6        40.407                  
  20800250.013 6   -578504.038 6      2360.906 6        40.787                  
  21824966.409 6    378617.330 6     -1701.213 6        41.727                  
  21772611.232 7   -868547.836 7      3624.045 7        42.829                  
 18  6  1 13 16  2.2118020  0  4G04G23G26G27                                    
  22762721.518 6    517345.506 6     -2383.746 6        38.619                  
  20800266.004 6   -578740.039 6      2358.151 6        41.851                  
  21825070.092 6    378787.635 6     -1705.279 6        39.083                  
  21772612.593 6   -868910.130 6      3620.698 6        41.985                  
 18  6  1 13 16  2.3118020  0  4G04G23G26G27                                    
  22762747.741 6    517584.144 6     -2389.096 6        41.152                  
  20800194.359 7   -578975.587 7      2353.124 7        42.700                  
  21825073.232 6    378958.394 6     -1710.018 6        38.073                  
  21772515.080 7   -869271.937 7      3615.524 7        42.351                  
 18  6  1 13 16  2.4118020  0  4G04G23G26G27                                    
  22762813.099 6    517823.165 6     -2391.216 6        40.010                  
  20800175.431 7   -579210.749 7      2350.914 7        42.828                  
  21825127.925 6    379129.537 6     -1712.103 6        37.133                  
  21772467.673 6   -869633.378 6      3613.745 6        40.433                  
 18  6  1 13 16  2.5118020  0  4G04G23G26G27                                    
  22762866.167 7    518062.271 7     -2390.420 7        42.211                  
  20800139.513 7   -579445.788 7      2350.279 7        42.182                  
  21825166.816 6    379300.780 6     -1711.819 6        37.579                  
  21772408.769 7   -869994.710 7      3613.138 7        43.484                  
 18  6  1 13 16  2.6118020  0  4G04G23G26G27                                    
  22762933.223 6    518301.363 6     -2391.291 6        39.931                  
  20800115.130 6   -579680.851 6      2350.679 6        41.612                  
  21825217.144 6    379471.999 6     -1712.659 6        39.092                  
  21772358.993 7   -870356.059 7      3613.966 7        42.241                  
 18  6  1 13 16  2.7118020  0  4G04G23G26G27                                    
  22763004.739 6    518540.410 6     -2389.528 6        39.547                  
  20800098.880 7   -579915.954 7      2351.462 7        42.078                  
  21825282.739 6    379643.197 6     -1711.725 6        38.096                  
  21772316.694 7   -870717.447 7      3614.047 7        42.759                  
 18  6  1 13 16  2.8118020  0  4G04G23G26G27                                    
  22763093.247 6    518779.403 6     -2390.123 6        41.078                  
  20800098.026 6   -580151.128 6      2352.323 6        40.792                  
  21825364.698 6    379814.311 6     -1710.684 6        37.625                  
  21772296.266 7   -871078.894 7      3614.754 7        43.163                  
 18  6  1 13 16  2.9118020  0  4G04G23G26G27                                    
  22763154.832 6    519018.235 6     -2387.565 6        37.019                  
  20800062.487 7   -580386.417 7      2353.610 7        42.763                  
  21825411.889 6    379985.291 6     -1708.624 6        39.154                  
  21772244.541 7   -871440.475 7      3616.960 7        43.631                  
 18  6  1 13 16  3.0118020  0  4G04G23G26G27                                    
  22763209.459 6    519256.887 6     -2385.369 6        40.027                  
  20800030.364 7   -580621.905 7      2355.807 7        42.508                  
  21825453.040 6    380156.070 6     -1706.824 6        39.745                  
  21772186.153 6   -871802.252 6      3618.703 6        41.933                  
 18  6  1 13 16  3.1118020  0  4G04G23G26G27                                    
  22763280.693 6    519495.327 6     -2383.469 6        39.963                  
  20800005.642 6   -580857.590 6      2357.955 6        41.703                  
  21825511.032 6    380326.676 6     -1705.582 6        41.138                  
  21772134.015 6   -872164.225 6      3620.802 6        41.448                  
 18  6  1 13 16  3.2118020  0  4G04G23G26G27                                    
  22763325.508 6    519733.641 6     -2382.386 6        39.162                  
  20799960.171 7   -581093.417 7      2358.882 7        42.620                  
  21825539.002 6    380497.119 6     -1703.619 6        41.247                  
  21772061.074 6   -872526.347 6      3621.787 6        41.235                  
 18  6  1 13 16  3.3118020  0  4G04G23G26G27                                    
  22763362.721 6    519971.829 6     -2381.489 6        38.832                  
  20799902.483 7   -581329.352 7      2359.306 7        43.447                  
  21825556.569 6    380667.444 6     -1702.906 6        41.064                  
  21771978.854 6   -872888.564 6      3622.143 6        41.158                  
 18  6  1 13 16  3.4118020  0  4G04G23G26G27                                    
  22763439.843 6    520209.948 6     -2381.183 6        39.356                  
  20799890.705 7   -581565.349 7      2360.451 7        42.159                  
  21825620.572 6    380837.719 6     -1702.069 6        39.519                  
  21771947.633 6   -873250.840 6      3622.946 6        40.941                  
 18  6  1 13 16  3.5118020  0  4G04G23G26G27                                    
  22763501.995 6    520448.082 6     -2380.594 6        39.269                  
  20799865.045 7   -581801.358 7      2360.184 7        43.333                  
  21825669.986 6    381007.976 6     -1702.861 6        39.982                  
  21771891.471 6   -873613.152 6      3623.471 6        41.056                  
 18  6  1 13 16  3.6118020  0  4G04G23G26G27                                    
  22763543.884 6    520686.149 6     -2381.295 6        41.057                  
  20799821.236 7   -582037.407 7      2360.221 7        42.694                  
  21825700.664 6    381178.187 6     -1702.543 6        39.771                  
  21771823.154 7   -873975.489 7      3623.250 7        42.316                  
 18  6  1 13 16  3.7118020  0  4G04G23G26G27                                    
  22763622.052 6    520924.211 6     -2380.156 6        38.357                  
  20799813.520 7   -582273.469 7      2361.155 7        44.882                  
  21825770.727 6    381348.384 6     -1701.195 6        39.713                  
  21771790.823 7   -874337.848 7      3623.748 7        43.459                  
 18  6  1 13 16  3.8118020  0  4G04G23G26G27                                    
  22763689.018 6    521162.233 6     -2379.873 6        41.630                  
  20799784.931 7   -582509.545 7      2360.597 7        45.349                  
  21825824.760 6    381518.545 6     -1701.903 6        38.782                  
  21771744.372 6   -874700.224 6      3624.304 6        41.211                  
 18  6  1 13 16  3.9118020  0  4G04G23G26G27                                    
  22763776.616 6    521400.207 6     -2379.191 6        38.439                  
  20799784.548 7   -582745.680 7      2361.964 7        45.033                  
  21825905.371 6    381688.665 6     -1700.351 6        40.406                  
  21771718.031 7   -875062.649 7      3624.421 7        43.728                  
 18  6  1 13 16  4.0118020  0  4G04G23G26G27                                    
  22763837.633 6    521638.111 6     -2379.306 6        40.062                  
  20799760.942 7   -582981.868 7      2361.667 7        44.219                  
  21825954.751 6    381858.722 6     -1700.793 6        40.113                  
  21771666.294 6   -875425.147 6      3625.081 6        41.843                  
 18  6  1 13 16  4.1118020  0  4G04G23G26G27                                    
  22763881.242 6    521876.043 6     -2379.314 6        38.094                  
  20799717.732 7   -583218.051 7      2362.033 7        42.594                  
  21825982.523 6    382028.798 6     -1700.670 6        39.785                  
  21771596.440 7   -875787.615 7      3624.624 7        42.887                  
 18  6  1 13 16  4.2118020  0  4G04G23G26G27                                    
  22763915.538 6    522113.913 6     -2378.015 6        41.493                  
  20799660.153 7   -583454.265 7      2362.561 7        42.509                  
  21825997.920 6    382198.822 6     -1699.934 6        39.350                  
  21771517.420 7   -876150.129 7      3625.497 7        42.208                  
 18  6  1 13 16  4.3118020  0  4G04G23G26G27                                    
  22763976.308 7    522351.645 7     -2376.496 7        42.006                  
  20799628.295 7   -583690.624 7      2364.355 7        42.648                  
  21826040.277 6    382368.711 6     -1697.528 6        39.455                  
  21771460.377 7   -876512.777 7      3627.698 7        42.490                  
 18  6  1 13 16  4.4118020  0  4G04G23G26G27                                    
  22764055.043 6    522589.273 6     -2375.889 6        40.233                  
  20799617.951 7   -583927.083 7      2364.537 7        44.075                  
  21826114.576 6    382538.488 6     -1697.953 6        39.565                  
  21771427.748 7   -876875.546 7      3627.332 7        44.417                  
 18  6  1 13 16  4.5118020  0  4G04G23G26G27                                    
  22764142.560 6    522827.003 6     -2378.784 6        40.432                  
  20799600.839 7   -584163.451 7      2362.419 7        44.626                  
  21826190.139 6    382708.368 6     -1699.873 6        40.623                  
  21771390.553 7   -877238.198 7      3625.654 7        42.123                  
 18  6  1 13 16  4.6118020  0  4G04G23G26G27                                    
  22764196.288 6    523064.974 6     -2380.205 6        38.508                  
  20799565.053 7   -584399.563 7      2360.495 7        43.438                  
  21826229.213 7    382878.480 7     -1702.314 7        42.198                  
  21771327.963 7   -877600.624 7      3623.410 7        44.410                  
 18  6  1 13 16  4.7118020  0  4G04G23G26G27                                    
  22764256.578 6    523302.995 6     -2380.338 6        39.964                  
  20799537.703 7   -584635.617 7      2360.989 7        43.650                  
  21826277.276 6    383048.656 6     -1701.774 6        36.768                  
  21771277.670 7   -877962.984 7      3623.762 7        42.736                  
 18  6  1 13 16  4.8118020  0  4G04G23G26G27                                    
  22764357.048 6    523540.928 6     -2379.102 6        40.075                  
  20799555.105 6   -584871.753 6      2361.443 6        41.447                  
  21826375.714 6    383218.748 6     -1700.439 6        37.443                  
  21771274.699 7   -878325.422 7      3624.570 7        43.990                  
 18  6  1 13 16  4.9118020  0  4G04G23G26G27                                    
  22764404.582 6    523778.890 6     -2379.388 6        41.048                  
  20799514.607 7   -585107.880 7      2360.952 7        42.507                  
  21826407.968 6    383388.861 6     -1700.675 6        38.417                  
  21771208.881 7   -878687.848 7      3624.394 7        44.510                  
 18  6  1 13 16  5.0118020  0  4G04G23G26G27                                    
  22764427.251 6    524016.809 6     -2378.841 6        40.380                  
  20799434.513 6   -585344.026 6      2362.093 6        40.620                  
  21826405.877 6    383558.929 6     -1700.578 6        38.481                  
  21771109.380 7   -879050.299 7      3624.827 7        42.593                  
 18  6  1 13 16  5.1118020  0  4G04G23G26G27                                    
  22764510.254 6    524254.618 6     -2377.987 6        40.266                  
  20799429.230 7   -585580.266 7      2362.847 7        42.863                  
  21826480.968 6    383728.905 6     -1699.063 6        39.956                  
  21771079.360 6   -879412.855 6      3626.240 6        41.282                  
 18  6  1 13 16  5.2118020  0  4G04G23G26G27                                    
  22764584.808 6    524492.388 6     -2377.701 6        38.110                  
  20799413.532 6   -585816.581 6      2363.163 6        40.375                  
  21826544.678 6    383898.816 6     -1699.615 6        37.530                  
  21771034.361 6   -879775.471 6      3626.132 6        41.727                  
 18  6  1 13 16  5.3118020  0  4G04G23G26G27                                    
  22764637.560 7    524730.220 7     -2378.713 7        42.835                  
  20799382.583 7   -586052.791 7      2361.202 7        42.396                  
  21826585.207 6    384068.810 6     -1700.338 6        40.290                  
  21770982.701 7   -880137.990 7      3624.137 7        42.214                  
 18  6  1 13 16  5.4118020  0  4G04G23G26G27                                    
  22764715.561 6    524968.136 6     -2379.004 6        40.144                  
  20799367.186 6   -586288.929 6      2361.551 6        41.789                  
  21826652.749 6    384238.874 6     -1700.567 6        39.506                  
  21770944.518 6   -880500.446 6      3624.891 6        40.363                  
 18  6  1 13 16  5.5118020  0  4G04G23G26G27                                    
  22764759.736 6    525205.934 6     -2377.367 6        40.025                  
  20799313.231 6   -586525.167 6      2363.372 6        41.726                  
  21826677.671 6    384408.853 6     -1698.804 6        37.609                  
  21770866.374 6   -880862.988 6      3626.056 6        41.211                  
 18  6  1 13 16  5.6118020  0  4G04G23G26G27                                    
  22764791.204 6    525443.568 6     -2375.419 6        41.842                  
  20799258.296 7   -586761.573 7      2365.173 7        44.017                  
  21826690.542 6    384578.648 6     -1696.779 6        38.248                  
  21770781.464 7   -881225.717 7      3628.400 7        42.892                  
 18  6  1 13 16  5.7118020  0  4G04G23G26G27                                    
  22764848.331 6    525681.029 6     -2373.783 6        39.228                  
  20799231.542 7   -586998.153 7      2366.501 7        42.399                  
  21826736.108 6    384748.267 6     -1696.085 6        39.742                  
  21770732.311 7   -881588.599 7      3629.292 7        42.340                  
 18  6  1 13 16  5.8118020  0  4G04G23G26G27                                    
  22764886.124 7    525918.346 7     -2372.601 7        44.056                  
  20799174.834 7   -587234.869 7      2367.518 7        43.207                  
  21826750.205 6    384917.764 6     -1693.716 6        39.733                  
  21770651.488 6   -881951.618 6      3631.166 6        41.828                  
 18  6  1 13 16  5.9118020  0  4G04G23G26G27                                    
  22764954.580 6    526155.570 6     -2371.521 6        40.710                  
  20799148.291 7   -587471.684 7      2368.704 7        42.788                  
  21826805.426 6    385087.137 6     -1692.997 6        39.107                  
  21770599.936 7   -882314.756 7      3631.975 7        42.822                  
 18  6  1 13 16  6.0118020  0  4G04G23G26G27                                    
  22765032.707 6    526392.668 6     -2370.311 6        39.787                  
  20799139.492 6   -587708.612 6      2369.919 6        40.614                  
  21826874.949 6    385256.390 6     -1692.225 6        41.845                  
  21770565.341 6   -882678.011 6      3632.859 6        41.407                  
 18  6  1 13 16  6.1118020  0  4G04G23G26G27                                    
  22765091.929 6    526629.628 6     -2369.223 6        41.630                  
  20799109.068 7   -587945.660 7      2370.742 7        44.169                  
  21826925.834 6    385425.527 6     -1691.169 6        39.067                  
  21770515.758 7   -883041.379 7      3634.350 7        43.362                  
 18  6  1 13 16  6.2118020  0  4G04G23G26G27                                    
  22765173.203 6    526866.466 6     -2367.785 6        39.685                  
  20799105.955 6   -588182.848 6      2372.704 6        40.343                  
  21827000.031 6    385594.548 6     -1689.609 6        37.833                  
  21770486.966 7   -883404.876 7      3635.157 7        42.833                  
 18  6  1 13 16  6.3118020  0  4G04G23G26G27                                    
  22765239.814 6    527103.252 6     -2367.857 6        40.709                  
  20799083.917 6   -588420.081 6      2372.075 6        40.690                  
  21827055.066 6    385763.511 6     -1689.902 6        39.657                  
  21770439.065 7   -883768.415 7      3635.374 7        42.121                  
 18  6  1 13 16  6.4118020  0  4G04G23G26G27                                    
  22765317.485 6    527340.079 6     -2367.968 6        40.261                  
  20799065.869 7   -588657.273 7      2372.100 7        42.687                  
  21827121.526 6    385932.484 6     -1689.285 6        39.203                  
  21770399.108 7   -884131.934 7      3635.695 7        43.002                  
 18  6  1 13 16  6.5118020  0  4G04G23G26G27                                    
  22765401.953 6    527576.879 6     -2368.302 6        38.659                  
  20799056.762 6   -588894.487 6      2371.832 6        41.323                  
  21827197.901 6    386101.442 6     -1689.587 6        37.476                  
  21770376.907 7   -884495.470 7      3635.109 7        42.815                  
 18  6  1 13 16  6.6118020  0  4G04G23G26G27                                    
  22765435.820 6    527813.640 6     -2367.216 6        39.781                  
  20798999.010 6   -589131.728 6      2373.066 6        41.935                  
  21827212.154 6    386270.386 6     -1689.342 6        39.862                  
  21770291.340 6   -884859.028 6      3635.763 6        41.803                  
 18  6  1 13 16  6.7118020  0  4G04G23G26G27                                    
  22765514.098 6    528050.356 6     -2367.059 6        40.278                  
  20798996.409 7   -589369.005 7      2373.053 7        42.417                  
  21827283.064 6    386439.269 6     -1688.362 6        40.395                  
  21770255.370 7   -885222.641 7      3636.529 7        43.184                  
 18  6  1 13 16  6.8118020  0  4G04G23G26G27                                    
  22765563.151 6    528287.024 6     -2366.635 6        40.136                  
  20798961.510 7   -589606.327 7      2373.092 7        43.465                  
  21827318.793 6    386608.123 6     -1688.397 6        41.186                  
  21770197.573 7   -885586.284 7      3636.556 7        42.605                  
 18  6  1 13 16  6.9118020  0  4G04G23G26G27                                    
  22765605.757 7    528523.715 7     -2366.792 7        42.788                  
  20798910.301 7   -589843.645 7      2373.243 7        42.088                  
  21827343.854 6    386776.967 6     -1688.955 6        39.934                  
  21770127.412 7   -885949.928 7      3636.345 7        42.331                  
 18  6  1 13 16  7.0118020  0  4G04G23G26G27                                    
  22765674.438 6    528760.418 6     -2367.493 6        40.030                  
  20798890.129 6   -590080.933 6      2372.466 6        40.990                  
  21827400.712 6    386945.852 6     -1689.014 6        40.321                  
  21770075.913 7   -886313.535 7      3635.758 7        42.362                  
 18  6  1 13 16  7.1118020  0  4G04G23G26G27                                    
  22765733.554 6    528997.192 6     -2368.328 6        38.366                  
  20798855.868 7   -590318.148 7      2371.840 7        42.110                  
  21827445.832 6    387114.812 6     -1689.420 6        38.316                  
  21770022.377 7   -886677.059 7      3634.696 7        43.685                  
 18  6  1 13 16  7.2118020  0  4G04G23G26G27                                    
  22765819.961 6    529234.058 6     -2368.798 6        41.210                  
  20798854.105 6   -590555.288 6      2370.756 6        41.337                  
  21827524.824 6    387283.830 6     -1691.257 6        39.138                  
  21769993.664 6   -887040.528 6      3634.537 6        41.455                  
 18  6  1 13 16  7.3118020  0  4G04G23G26G27                                    
  22765840.091 6    529470.981 6     -2369.770 6        40.173                  
  20798776.149 7   -590792.336 7      2370.416 7        42.318                  
  21827520.409 6    387452.951 6     -1691.555 6        37.070                  
  21769888.837 7   -887403.918 7      3633.121 7        42.028                  
 18  6  1 13 16  7.4118020  0  4G04G23G26G27                                    
  22765888.631 6    529707.994 6     -2370.234 6        40.560                  
  20798730.839 7   -591029.319 7      2369.256 7        42.602                  
  21827552.205 6    387622.112 6     -1691.603 6        36.409                  
  21769820.702 6   -887767.220 6      3632.948 6        41.940                  
 18  6  1 13 16  7.5118020  0  4G04G23G26G27                                    
  22766003.812 6    529945.170 6     -2373.681 6        38.040                  
  20798754.858 7   -591266.114 7      2365.856 7        42.216                  
  21827665.928 6    387791.468 6     -1695.795 6        38.992                  
  21769826.571 7   -888130.345 7      3629.144 7        42.214                  
 18  6  1 13 16  7.6118020  0  4G04G23G26G27                                    
  22766032.776 7    530182.840 7     -2379.565 7        42.381                  
  20798698.449 7   -591502.431 7      2360.867 7        43.253                  
  21827676.191 6    387961.319 6     -1700.564 6        39.596                  
  21769740.844 7   -888492.997 7      3623.893 7        42.495                  
 18  6  1 13 16  7.7118020  0  4G04G23G26G27                                    
  22766086.734 6    530420.822 6     -2379.742 6        39.751                  
  20798663.230 6   -591738.427 6      2359.448 6        41.314                  
  21827716.214 6    388131.465 6     -1701.921 6        38.679                  
  21769683.847 6   -888855.323 6      3623.107 6        40.926                  
 18  6  1 13 16  7.8118020  0  4G04G23G26G27                                    
  22766152.342 6    530658.818 6     -2380.264 6        41.518                  
  20798632.767 6   -591974.387 6      2359.392 6        40.707                  
  21827768.019 6    388301.638 6     -1702.066 6        36.830                  
  21769631.845 7   -889217.605 7      3623.005 7        43.946                  
 18  6  1 13 16  7.9118020  0  4G04G23G26G27                                    
  22766223.215 6    530896.950 6     -2382.352 6        41.041                  
  20798618.566 7   -592210.231 7      2357.743 7        42.089                  
  21827829.536 6    388471.953 6     -1704.231 6        36.934                  
  21769592.969 6   -889579.793 6      3620.375 6        40.663                  
 18  6  1 13 16  8.0118020  0  4G04G23G26G27                                    
  22766262.004 6    531135.207 6     -2382.212 6        37.708                  
  20798570.568 6   -592445.919 6      2357.172 6        41.773                  
  21827851.203 6    388642.391 6     -1704.069 6        39.248                  
  21769515.734 7   -889941.815 7      3620.799 7        42.506                  
 18  6  1 13 16  8.1118020  0  4G04G23G26G27                                    
  22766337.407 6    531373.301 6     -2379.919 6        39.225                  
  20798547.784 7   -592681.769 7      2359.091 7        44.092                  
  21827909.552 6    388812.677 6     -1701.919 6        40.976                  
  21769469.429 7   -890304.006 7      3622.699 7        43.643                  
 18  6  1 13 16  8.2118020  0  4G04G23G26G27                                    
  22766393.007 6    531611.231 6     -2378.355 6        41.309                  
  20798516.184 7   -592917.784 7      2360.879 7        44.604                  
  21827956.109 6    388982.790 6     -1700.262 6        38.289                  
  21769411.808 7   -890666.354 7      3624.285 7        44.057                  
 18  6  1 13 16  8.3118020  0  4G04G23G26G27                                    
  22766456.018 6    531849.006 6     -2376.968 6        41.983                  
  20798491.521 6   -593153.957 6      2362.746 6        40.421                  
  21828007.554 6    389152.742 6     -1698.308 6        37.532                  
  21769365.178 7   -891028.864 7      3626.089 7        42.561                  
 18  6  1 13 16  8.4118020  0  4G04G23G26G27                                    
  22766524.294 6    532086.575 6     -2374.801 6        40.191                  
  20798462.617 7   -593390.305 7      2364.776 7        42.062                  
  21828057.807 6    389322.514 6     -1697.129 6        38.839                  
  21769314.355 6   -891391.558 6      3628.030 6        41.561                  
 18  6  1 13 16  8.5118020  0  4G04G23G26G27                                    
  22766571.192 6    532323.966 6     -2372.939 6        41.722                  
  20798419.052 7   -593626.855 7      2365.769 7        42.975                  
  21828088.854 6    389492.093 6     -1694.952 6        38.872                  
  21769248.863 7   -891754.438 7      3629.775 7        42.645                  
 18  6  1 13 16  8.6118020  0  4G04G23G26G27                                    
  22766635.983 6    532561.189 6     -2371.851 6        40.088                  
  20798392.911 7   -593863.556 7      2367.918 7        43.746                  
  21828141.510 6    389661.503 6     -1693.266 6        39.136                  
  21769202.193 7   -892117.481 7      3630.814 7        42.350                  
 18  6  1 13 16  8.7118020  0  4G04G23G26G27                                    
  22766710.731 6    532798.279 6     -2370.063 6        41.690                  
  20798377.733 6   -594100.393 6      2369.053 6        40.451                  
  21828211.392 6    389830.781 6     -1692.162 6        38.693                  
  21769170.948 6   -892480.661 6      3632.623 6        39.882                  
 18  6  1 13 16  8.8118020  0  4G04G23G26G27                                    
  22766777.900 6    533035.267 6     -2369.430 6        40.907                  
  20798363.529 6   -594337.329 6      2369.520 6        40.414                  
  21828268.287 6    389999.970 6     -1691.313 6        37.828                  
  21769119.580 7   -892843.937 7      3632.639 7        42.594                  
 18  6  1 13 16  8.9118020  0  4G04G23G26G27                                    
  22766834.155 6    533272.204 6     -2369.330 6        37.888                  
  20798336.691 7   -594574.311 7      2370.243 7        43.801                  
  21828312.356 6    390169.088 6     -1690.932 6        39.139                  
  21769064.013 6   -893207.263 6      3633.740 6        41.884                  
 18  6  1 13 16  9.0118020  0  4G04G23G26G27                                    
  22766905.617 6    533509.049 6     -2367.625 6        40.615                  
  20798315.705 7   -594811.380 7      2370.944 7        43.147                  
  21828372.688 6    390338.118 6     -1690.387 6        39.558                  
  21769023.606 6   -893570.675 6      3634.752 6        41.946                  
 18  6  1 13 16  9.1118020  0  4G04G23G26G27                                    
  22766930.876 6    533745.809 6     -2367.738 6        40.408                  
  20798246.416 7   -595048.544 7      2372.044 7        44.328                  
  21828376.207 6    390507.071 6     -1688.806 6        39.858                  
  21768932.293 6   -893934.184 6      3635.147 6        41.312                  
 18  6  1 13 16  9.2118020  0  4G04G23G26G27                                    
  22767000.057 6    533982.514 6     -2366.719 6        40.861                  
  20798217.379 7   -595285.746 7      2372.692 7        44.587                  
  21828431.787 6    390675.967 6     -1688.418 6        38.246                  
  21768883.336 7   -894297.739 7      3636.477 7        42.624                  
 18  6  1 13 16  9.3118020  0  4G04G23G26G27                                    
  22767082.590 6    534219.120 6     -2364.963 6        39.239                  
  20798210.582 7   -595523.046 7      2373.160 7        42.565                  
  21828506.039 6    390844.778 6     -1687.798 6        40.783                  
  21768852.665 6   -894661.380 6      3636.383 6        40.387                  
 18  6  1 13 16  9.4118020  0  4G04G23G26G27                                    
  22767143.026 6    534455.726 6     -2367.471 6        40.006                  
  20798180.093 7   -595760.354 7      2371.739 7        42.662                  
  21828552.599 6    391013.556 6     -1688.904 6        40.025                  
  21768794.118 7   -895025.038 7      3635.826 7        43.703                  
 18  6  1 13 16  9.5118020  0  4G04G23G26G27                                    
  22767206.593 6    534692.626 6     -2370.232 6        39.626                  
  20798154.685 6   -595997.360 6      2369.209 6        41.492                  
  21828604.571 6    391182.666 6     -1692.515 6        39.323                  
  21768749.386 7   -895388.389 7      3631.840 7        42.113                  
 18  6  1 13 16  9.6118020  0  4G04G23G26G27                                    
  22767266.980 6    534929.676 6     -2370.116 6        38.616                  
  20798124.559 6   -596234.199 6      2368.217 6        41.471                  
  21828652.001 6    391351.910 6     -1692.066 6        40.596                  
  21768698.310 7   -895751.580 7      3632.197 7        42.620                  
 18  6  1 13 16  9.7118020  0  4G04G23G26G27                                    
  22767316.537 6    535166.662 6     -2370.180 6        38.556                  
  20798088.690 6   -596471.101 6      2369.508 6        41.274                  
  21828687.062 5    391521.100 5     -1692.096 5        35.601                  
  21768632.541 7   -896114.833 7      3632.742 7        42.630                  
 18  6  1 13 16  9.8118020  0  4G04G23G26G27                                    
  22767374.721 6    535403.626 6     -2368.812 6        38.011                  
  20798055.657 6   -596708.047 6      2369.721 6        41.588                  
  21828726.625 6    391690.250 6     -1691.093 6        36.327                  
  21768573.030 7   -896478.118 7      3632.840 7        42.374                  
 18  6  1 13 16  9.9118020  0  4G04G23G26G27                                    
  22767431.140 6    535640.573 6     -2371.100 6        41.030                  
  20798016.977 7   -596944.966 7      2367.783 7        42.415                  
  21828767.782 6    391859.407 6     -1692.481 6        39.093                  
  21768513.978 7   -896841.402 7      3632.171 7        45.106                  
 18  6  1 13 16 10.0118020  0  4G04G23G26G27                                    
  22767440.579 6    535877.890 6     -2375.664 6        39.771                  
  20797933.808 6   -597181.566 6      2363.946 6        40.986                  
  21828752.042 6    392028.901 6     -1697.426 6        38.977                  
  21768401.314 7   -897204.345 7      3626.572 7        43.022                  
 18  6  1 13 16 10.1118020  0  4G04G23G26G27                                    
  22767572.528 6    536115.658 6     -2378.788 6        37.424                  
  20797979.006 6   -597417.690 6      2359.607 6        40.761                  
  21828891.376 6    392198.858 6     -1701.111 6        38.664                  
  21768424.329 7   -897566.824 7      3623.595 7        42.302                  
 18  6  1 13 16 10.2118020  0  4G04G23G26G27                                    
  22767658.474 6    536353.578 6     -2379.415 6        38.914                  
  20797979.079 6   -597653.635 6      2359.202 6        41.243                  
  21828971.303 6    392368.989 6     -1700.984 6        38.230                  
  21768403.962 6   -897929.128 6      3623.329 6        41.919                  
 18  6  1 13 16 10.3118020  0  4G04G23G26G27                                    
  22767715.080 6    536591.506 6     -2378.982 6        39.056                  
  20797943.983 7   -597889.585 7      2359.754 7        43.390                  
  21829013.547 6    392539.110 6     -1701.233 6        40.597                  
  21768345.953 7   -898291.430 7      3622.898 7        43.345                  
 18  6  1 13 16 10.4118020  0  4G04G23G26G27                                    
  22767744.151 6    536829.471 6     -2380.680 6        40.262                  
  20797877.005 6   -598125.483 6      2358.374 6        41.867                  
  21829016.146 7    392709.287 7     -1702.694 7        42.368                  
  21768251.043 7   -898653.690 7      3621.710 7        43.790                  
 18  6  1 13 16 10.5118020  0  4G04G23G26G27                                    
  22767804.828 6    537067.553 6     -2380.901 6        40.508                  
  20797853.988 7   -598361.272 7      2357.566 7        43.478                  
  21829066.190 6    392879.580 6     -1702.793 6        38.411                  
  21768206.797 7   -899015.832 7      3621.331 7        42.876                  
 18  6  1 13 16 10.6118020  0  4G04G23G26G27                                    
  22767865.276 6    537305.645 6     -2380.801 6        41.681                  
  20797823.577 7   -598597.041 7      2357.436 7        42.472                  
  21829117.207 6    393049.860 6     -1703.232 6        37.796                  
  21768148.856 6   -899377.965 6      3621.467 6        40.562                  
 18  6  1 13 16 10.7118020  0  4G04G23G26G27                                    
  22767930.597 6    537543.726 6     -2380.377 6        41.100                  
  20797802.575 6   -598832.822 6      2358.302 6        41.385                  
  21829171.661 6    393220.141 6     -1702.523 6        38.210                  
  21768103.869 6   -899740.109 6      3621.590 6        41.404                  
 18  6  1 13 16 10.8118020  0  4G04G23G26G27                                    
  22768003.088 6    537781.768 6     -2380.883 6        41.440                  
  20797783.202 6   -599068.625 6      2357.621 6        41.334                  
  21829232.783 6    393390.395 6     -1702.754 6        39.001                  
  21768059.260 6   -900102.268 6      3621.026 6        41.231                  
 18  6  1 13 16 10.9118020  0  4G04G23G26G27                                    
  22768079.223 6    538019.882 6     -2381.252 6        38.973                  
  20797773.262 6   -599304.370 6      2357.068 6        41.045                  
  21829301.054 6    393560.705 6     -1703.055 6        39.744                  
  21768031.271 6   -900464.377 6      3621.130 6        41.809                  
 18  6  1 13 16 11.0118020  0  4G04G23G26G27                                    
  22768146.598 6    538258.012 6     -2380.717 6        40.959                  
  20797752.715 7   -599540.071 7      2357.276 7        44.103                  
  21829357.158 6    393731.047 6     -1703.223 6        40.535                  
  21767984.017 6   -900826.443 6      3620.735 6        40.680                  
 18  6  1 13 16 11.1118020  0  4G04G23G26G27                                    
  22768191.689 7    538496.118 7     -2381.467 7        42.152                  
  20797696.600 7   -599775.806 7      2357.369 7        43.585                  
  21829382.458 6    393901.373 6     -1703.525 6        37.717                  
  21767906.481 6   -901188.530 6      3620.835 6        40.895                  
 18  6  1 13 16 11.2118020  0  4G04G23G26G27                                    
  22768246.285 6    538734.303 6     -2382.850 6        40.836                  
  20797655.323 6   -600011.477 6      2355.681 6        40.470                  
  21829420.700 6    394071.765 6     -1704.755 6        39.265                  
  21767840.774 6   -901550.566 6      3619.516 6        41.106                  
 18  6  1 13 16 11.3118020  0  4G04G23G26G27                                    
  22768315.474 6    538972.680 6     -2384.472 6        41.450                  
  20797634.845 7   -600246.933 7      2353.747 7        45.440                  
  21829477.917 6    394242.328 6     -1706.625 6        38.940                  
  21767789.181 7   -901912.395 7      3617.259 7        42.320                  
 18  6  1 13 16 11.4118020  0  4G04G23G26G27                                    
  22768365.653 6    539211.216 6     -2386.057 6        39.389                  
  20797597.198 7   -600482.234 7      2352.564 7        42.011                  
  21829513.804 6    394413.086 6     -1708.438 6        37.499                  
  21767729.573 7   -902274.062 7      3616.319 7        42.605                  
 18  6  1 13 16 11.5118020  0  4G04G23G26G27                                    
  22768426.748 6    539449.794 6     -2385.434 6        40.554                  
  20797572.743 6   -600717.482 6      2352.360 6        39.990                  
  21829558.882 6    394583.876 6     -1707.519 6        39.643                  
  21767679.511 7   -902635.691 7      3616.377 7        43.535                  
 18  6  1 13 16 11.6118020  0  4G04G23G26G27                                    
  22768478.654 6    539688.382 6     -2386.354 6        41.772                  
  20797538.019 7   -600952.718 7      2352.210 7        43.184                  
  21829601.728 6    394754.686 6     -1708.243 6        39.563                  
  21767623.783 7   -902997.289 7      3615.621 7        42.592                  
 18  6  1 13 16 11.7118020  0  4G04G23G26G27                                    
  22768532.623 6    539926.928 6     -2384.854 6        39.750                  
  20797514.232 7   -601187.980 7      2353.372 7        42.018                  
  21829644.891 6    394925.448 6     -1707.282 6        41.839                  
  21767571.923 6   -903358.915 6      3616.678 6        40.811                  
 18  6  1 13 16 11.8118020  0  4G04G23G26G27                                    
  22768607.414 6    540165.403 6     -2384.114 6        40.603                  
  20797486.631 6   -601423.317 6      2353.456 6        40.005                  
  21829701.311 6    395096.137 6     -1706.053 6        38.644                  
  21767522.821 7   -903720.629 7      3617.969 7        42.375                  
 18  6  1 13 16 11.9118020  0  4G04G23G26G27                                    
  22768674.465 6    540403.771 6     -2383.439 6        40.057                  
  20797460.565 7   -601658.753 7      2354.787 7        42.855                  
  21829755.410 6    395266.712 6     -1705.577 6        38.837                  
  21767471.282 7   -904082.450 7      3618.282 7        43.246                  
 18  6  1 13 16 12.0118020  0  4G04G23G26G27                                    
  22768745.633 6    540642.035 6     -2382.153 6        41.903                  
  20797436.649 7   -601894.301 7      2356.006 7        42.904                  
  21829813.627 6    395437.205 6     -1704.320 6        40.912                  
  21767420.149 7   -904444.363 7      3620.172 7        42.271                  
 18  6  1 13 16 12.1118020  0  4G04G23G26G27                                    
  22768809.421 6    540880.195 6     -2381.473 6        40.909                  
  20797411.247 7   -602129.958 7      2357.177 7        42.018                  
  21829870.637 6    395607.567 6     -1703.569 6        37.724                  
  21767379.807 7   -904806.386 7      3620.456 7        42.042                  
 18  6  1 13 16 12.2118020  0  4G04G23G26G27                                    
  22768832.735 7    541118.295 7     -2380.723 7        42.299                  
  20797345.828 7   -602365.639 7      2356.933 7        46.493                  
  21829868.978 6    395777.888 6     -1702.926 6        40.016                  
  21767288.477 6   -905168.450 6      3620.640 6        41.291                  
 18  6  1 13 16 12.3118020  0  4G04G23G26G27                                    
  22768916.201 7    541356.395 7     -2380.609 7        43.342                  
  20797337.399 6   -602601.329 6      2356.871 6        40.481                  
  21829943.659 6    395948.218 6     -1702.691 6        39.666                  
  21767257.753 7   -905530.518 7      3620.828 7        45.136                  
 18  6  1 13 16 12.4118020  0  4G04G23G26G27                                    
  22769003.988 6    541594.483 6     -2381.684 6        39.225                  
  20797340.082 6   -602837.037 6      2357.064 6        40.934                  
  21830029.512 6    396118.526 6     -1704.146 6        38.033                  
  21767231.776 7   -905892.600 7      3620.302 7        43.004                  
 18  6  1 13 16 12.5118020  0  4G04G23G26G27                                    
  22769039.165 7    541832.676 7     -2382.678 7        42.208                  
  20797278.104 6   -603072.640 6      2354.782 6        41.529                  
  21830043.268 6    396288.945 6     -1705.026 6        39.892                  
  21767139.956 6   -906254.576 6      3618.856 6        41.564                  
 18  6  1 13 16 12.6118020  0  4G04G23G26G27                                    
  22769126.596 6    542071.049 6     -2384.134 6        38.328                  
  20797281.178 6   -603308.052 6      2353.403 6        41.374                  
  21830124.935 6    396459.538 6     -1706.176 6        39.212                  
  21767117.624 7   -906616.363 7      3617.299 7        42.418                  
 18  6  1 13 16 12.7118020  0  4G04G23G26G27                                    
  22769170.201 6    542309.593 6     -2386.608 6        41.532                  
  20797226.771 6   -603543.299 6      2351.592 6        41.366                  
  21830149.635 6    396630.299 6     -1709.045 6        36.978                  
  21767042.894 6   -906978.001 6      3615.466 6        41.078                  
 18  6  1 13 16 12.8118020  0  4G04G23G26G27                                    
  22769221.187 6    542548.355 6     -2388.382 6        41.157                  
  20797191.466 7   -603778.342 7      2349.232 7        43.302                  
  21830186.972 6    396801.275 6     -1710.462 6        37.615                  
  21766985.196 7   -907339.419 7      3612.864 7        42.722                  
 18  6  1 13 16 12.9118020  0  4G04G23G26G27                                    
  22769285.682 6    542787.275 6     -2390.209 6        40.746                  
  20797157.380 6   -604013.187 6      2347.404 6        39.738                  
  21830233.061 6    396972.416 6     -1712.713 6        41.065                  
  21766937.128 7   -907700.648 7      3611.418 7        42.648                  
 18  6  1 13 16 13.0118020  0  4G04G23G26G27                                    
  22769349.794 6    543026.423 6     -2392.774 6        39.659                  
  20797135.949 7   -604247.802 7      2345.166 7        43.312                  
  21830285.605 6    397143.797 6     -1714.499 6        36.478                  
  21766885.288 6   -908061.650 6      3608.867 6        40.788                  
 18  6  1 13 16 13.1118020  0  4G04G23G26G27                                    
  22769416.830 6    543265.787 6     -2394.514 6        40.047                  
  20797117.824 6   -604482.219 6      2343.388 6        40.988                  
  21830347.803 6    397315.383 6     -1716.462 6        38.986                  
  21766851.442 7   -908422.446 7      3607.577 7        43.445                  
 18  6  1 13 16 13.2118020  0  4G04G23G26G27                                    
  22769491.244 6    543505.305 6     -2395.559 6        40.970                  
  20797108.111 7   -604716.484 7      2341.811 7        47.041                  
  21830413.729 6    397487.125 6     -1718.550 6        39.359                  
  21766815.435 6   -908783.097 6      3604.923 6        41.348                  
 18  6  1 13 16 13.3118020  0  4G04G23G26G27                                    
  22769547.619 6    543744.942 6     -2396.897 6        40.547                  
  20797075.815 7   -604950.603 7      2340.673 7        45.396                  
  21830455.405 6    397658.981 6     -1719.390 6        37.780                  
  21766748.490 7   -909143.600 7      3605.402 7        42.158                  
 18  6  1 13 16 13.4118020  0  4G04G23G26G27                                    
  22769604.371 6    543984.581 6     -2396.604 6        40.290                  
  20797038.658 6   -605184.713 6      2341.430 6        41.266                  
  21830492.407 6    397830.859 6     -1718.371 6        39.612                  
  21766685.622 6   -909504.098 6      3604.619 6        41.994                  
 18  6  1 13 16 13.5118020  0  4G04G23G26G27                                    
  22769677.181 6    544224.263 6     -2396.791 6        40.178                  
  20797025.811 6   -605418.782 6      2340.388 6        40.510                  
  21830560.991 6    398002.762 6     -1719.401 6        39.000                  
  21766653.218 6   -909864.560 6      3604.700 6        40.967                  
 18  6  1 13 16 13.6118020  0  4G04G23G26G27                                    
  22769716.637 6    544463.895 6     -2395.354 6        39.500                  
  20796978.288 6   -605652.892 6      2342.132 6        41.115                  
  21830583.260 6    398174.627 6     -1717.226 6        39.717                  
  21766575.227 6   -910225.051 6      3605.313 6        41.256                  
 18  6  1 13 16 13.7118020  0  4G04G23G26G27                                    
  22769757.941 7    544703.383 7     -2394.631 7        43.123                  
  20796919.273 7   -605887.147 7      2342.804 7        42.924                  
  21830600.109 6    398346.363 6     -1717.047 6        39.062                  
  21766496.325 6   -910585.692 6      3606.832 6        41.178                  
 18  6  1 13 16 13.8118020  0  4G04G23G26G27                                    
  22769802.096 6    544942.860 6     -2395.036 6        41.847                  
  20796869.517 6   -606121.410 6      2342.602 6        41.196                  
  21830627.145 6    398518.059 6     -1717.292 6        38.909                  
  21766428.763 7   -910946.351 7      3606.741 7        42.973                  
 18  6  1 13 16 13.9118020  0  4G04G23G26G27                                    
  22769875.366 6    545182.383 6     -2396.182 6        40.440                  
  20796854.380 6   -606355.636 6      2341.457 6        41.741                  
  21830690.206 6    398689.819 6     -1718.425 6        40.043                  
  21766387.024 6   -911306.969 6      3605.065 6        41.891                  
 18  6  1 13 16 14.0118020  0  4G04G23G26G27                                    
  22769950.524 6    545422.152 6     -2398.131 6        39.121                  
  20796842.141 6   -606589.614 6      2338.512 6        41.267                  
  21830755.747 6    398861.802 6     -1721.084 6        38.482                  
  21766346.927 6   -911667.345 6      3603.355 6        41.597                  
 18  6  1 13 16 14.1118020  0  4G04G23G26G27                                    
  22770041.745 6    545661.988 6     -2398.109 6        40.166                  
  20796847.248 7   -606823.501 7      2339.561 7        42.619                  
  21830845.961 6    399033.895 6     -1720.400 6        37.992                  
  21766328.461 7   -912027.614 7      3602.830 7        43.983                  
 18  6  1 13 16 14.2118020  0  4G04G23G26G27                                    
  22770118.066 6    545901.606 6     -2394.356 6        41.666                  
  20796830.572 7   -607057.597 7      2342.392 7        43.071                  
  21830911.248 6    399205.750 6     -1716.507 6        39.776                  
  21766285.840 6   -912388.118 6      3606.644 6        41.011                  
 18  6  1 13 16 14.3118020  0  4G04G23G26G27                                    
  22770170.367 6    546140.919 6     -2392.261 6        38.098                  
  20796790.500 7   -607291.996 7      2344.958 7        42.470                  
  21830948.304 6    399377.317 6     -1715.189 6        39.335                  
  21766225.048 6   -912748.890 6      3609.037 6        40.672                  
 18  6  1 13 16 14.4118020  0  4G04G23G26G27                                    
  22770238.801 6    546380.146 6     -2391.859 6        39.446                  
  20796772.591 7   -607526.479 7      2344.929 7        43.595                  
  21831006.322 7    399548.779 7     -1714.454 7        42.224                  
  21766181.403 6   -913109.781 6      3609.030 6        39.823                  
 18  6  1 13 16 14.5118020  0  4G04G23G26G27                                    
  22770292.210 6    546619.391 6     -2393.203 6        38.262                  
  20796732.923 6   -607760.957 6      2344.597 6        41.225                  
  21831043.837 6    399720.263 6     -1715.150 6        40.998                  
  21766115.227 7   -913470.660 7      3607.957 7        43.142                  
 18  6  1 13 16 14.6118020  0  4G04G23G26G27                                    
  22770359.517 6    546858.748 6     -2394.435 6        37.598                  
  20796714.740 7   -607995.312 7      2342.412 7        42.760                  
  21831100.584 6    399891.848 6     -1717.076 6        39.059                  
  21766069.552 7   -913831.403 7      3606.491 7        42.334                  
 18  6  1 13 16 14.7118020  0  4G04G23G26G27                                    
  22770429.689 7    547098.207 7     -2394.873 7        43.426                  
  20796690.031 6   -608229.566 6      2342.376 6        41.148                  
  21831159.482 6    400063.556 6     -1716.773 6        37.390                  
  21766033.977 7   -914192.054 7      3606.597 7        42.034                  
 18  6  1 13 16 14.8118020  0  4G04G23G26G27                                    
  22770445.505 6    547337.720 6     -2395.464 6        39.727                  
  20796620.280 7   -608463.759 7      2341.518 7        43.074                  
  21831153.917 6    400235.290 6     -1717.724 6        38.836                  
  21765935.956 6   -914552.654 6      3605.645 6        40.999                  
 18  6  1 13 16 14.9118020  0  4G04G23G26G27                                    
  22770510.891 6    547577.309 6     -2396.041 6        38.684                  
  20796594.681 6   -608697.872 6      2340.822 6        40.726                  
  21831206.510 6    400407.140 6     -1718.765 6        38.887                  
  21765882.983 7   -914913.160 7      3604.494 7        42.727                  
 18  6  1 13 16 15.0118020  0  4G04G23G26G27                                    
  22770576.759 7    547816.926 7     -2396.629 7        42.639                  
  20796569.281 7   -608931.942 7      2340.883 7        42.006                  
  21831259.092 6    400579.013 6     -1718.653 6        38.025                  
  21765825.738 7   -915273.639 7      3605.058 7        44.119                  
 18  6  1 13 16 15.1118020  0  4G04G23G26G27                                    
  22770692.075 6    548056.588 6     -2396.548 6        40.708                  
  20796598.996 7   -609165.978 7      2339.959 7        42.319                  
  21831373.989 6    400750.902 6     -1719.245 6        39.738                  
  21765829.720 7   -915634.068 7      3603.902 7        43.111                  
 18  6  1 13 16 15.2118020  0  4G04G23G26G27                                    
  22770716.841 6    548296.248 6     -2395.923 6        39.849                  
  20796529.404 7   -609400.002 7      2340.566 7        42.731                  
  21831377.397 6    400922.802 6     -1719.076 6        39.571                  
  21765741.970 7   -915994.511 7      3604.683 7        42.488                  
 18  6  1 13 16 15.3118020  0  4G04G23G26G27                                    
  22770808.004 6    548535.789 6     -2395.090 6        40.622                  
  20796529.349 7   -609634.144 7      2342.101 7        44.735                  
  21831462.154 6    401094.610 6     -1717.448 6        40.464                  
  21765724.465 6   -916355.050 6      3605.664 6        41.995                  
 18  6  1 13 16 15.4118020  0  4G04G23G26G27                                    
  22770881.657 6    548775.262 6     -2394.379 6        40.198                  
  20796516.197 6   -609868.343 6      2342.202 6        41.474                  
  21831527.153 6    401266.325 6     -1716.754 6        36.770                  
  21765693.082 6   -916715.660 6      3606.753 6        40.636                  
 18  6  1 13 16 15.5118020  0  4G04G23G26G27                                    
  22770890.848 6    549014.698 6     -2394.512 6        38.036                  
  20796435.597 6   -610102.594 6      2342.429 6        40.787                  
  21831512.008 6    401438.005 6     -1716.349 6        40.273                  
  21765582.882 6   -917076.317 6      3606.552 6        39.951                  
 18  6  1 13 16 15.6118020  0  4G04G23G26G27                                    
  22770953.837 6    549254.109 6     -2393.973 6        40.928                  
  20796413.226 7   -610336.852 7      2342.877 7        42.209                  
  21831564.463 6    401609.661 6     -1716.770 6        40.085                  
  21765540.966 7   -917436.982 7      3606.661 7        42.590                  
 18  6  1 13 16 15.7118020  0  4G04G23G26G27                                    
  22771016.821 6    549493.597 6     -2395.779 6        37.009                  
  20796382.588 7   -610571.032 7      2340.299 7        43.248                  
  21831613.301 6    401781.422 6     -1718.612 6        40.767                  
  21765483.269 7   -917797.558 7      3604.597 7        42.544                  
 18  6  1 13 16 15.8118020  0  4G04G23G26G27                                    
  22771066.569 7    549733.331 7     -2398.644 7        42.723                  
  20796330.176 6   -610804.982 6      2338.379 6        41.814                  
  21831639.189 6    401953.376 6     -1720.481 6        37.874                  
  21765406.145 7   -918157.928 7      3602.426 7        43.521                  
 18  6  1 13 16 15.9118020  0  4G04G23G26G27                                    
  22771138.550 7    549973.268 7     -2400.051 7        42.271                  
  20796315.380 6   -611038.705 6      2336.553 6        40.408                  
  21831701.210 6    402125.567 6     -1722.885 6        40.989                  
  21765364.445 6   -918518.055 6      3600.867 6        41.360                  
 18  6  1 13 16 16.0118020  0  4G04G23G26G27                                    
  22771183.128 7    550213.332 7     -2401.261 7        42.067                  
  20796263.109 7   -611272.301 7      2335.171 7        42.170                  
  21831727.501 6    402297.897 6     -1724.167 6        38.807                  
  21765291.992 6   -918878.068 6      3599.819 6        41.662                  
 18  6  1 13 16 16.1118020  0  4G04G23G26G27                                    
  22771249.736 6    550453.450 6     -2401.214 6        40.675                  
  20796238.293 6   -611505.844 6      2336.152 6        41.600                  
  21831781.412 6    402470.260 6     -1722.783 6        41.785                  
  21765239.744 7   -919238.024 7      3599.090 7        42.852                  
 18  6  1 13 16 16.2118020  0  4G04G23G26G27                                    
  22771336.588 6    550693.528 6     -2400.609 6        41.818                  
  20796239.431 7   -611739.416 7      2335.604 7        42.293                  
  21831862.078 6    402642.596 6     -1723.351 6        39.277                  
  21765216.982 6   -919598.012 6      3600.563 6        40.846                  
 18  6  1 13 16 16.3118020  0  4G04G23G26G27                                    
  22771400.037 6    550933.563 6     -2399.938 6        40.104                  
  20796219.413 6   -611973.013 6      2336.012 6        40.810                  
  21831919.947 6    402814.900 6     -1722.768 6        37.192                  
  21765176.157 6   -919958.016 6      3599.885 6        40.166                  
 18  6  1 13 16 16.4118020  0  4G04G23G26G27                                    
  22771479.101 6    551173.585 6     -2399.665 6        41.611                  
  20796218.646 6   -612206.631 6      2336.504 6        41.675                  
  21831993.177 6    402987.167 6     -1722.876 6        37.382                  
  21765151.328 7   -920318.060 7      3600.527 7        42.065                  
 18  6  1 13 16 16.5118020  0  4G04G23G26G27                                    
  22771552.534 6    551413.542 6     -2399.471 6        41.165                  
  20796204.157 6   -612440.308 6      2337.258 6        40.971                  
  21832056.745 6    403159.396 6     -1721.557 6        38.656                  
  21765111.511 6   -920678.154 6      3601.475 6        38.567                  
 18  6  1 13 16 16.6118020  0  4G04G23G26G27                                    
  22771570.484 6    551653.416 6     -2398.476 6        40.960                  
  20796122.615 7   -612674.076 7      2337.820 7        43.540                  
  21832049.302 6    403331.516 6     -1721.056 6        40.731                  
  21765003.785 6   -921038.334 6      3602.008 6        41.403                  
 18  6  1 13 16 16.7118020  0  4G04G23G26G27                                    
  22771636.940 6    551893.223 6     -2397.592 6        40.318                  
  20796098.501 7   -612907.891 7      2338.467 7        42.869                  
  21832103.272 6    403503.599 6     -1720.413 6        37.596                  
  21764951.831 7   -921398.562 7      3602.744 7        43.100                  
 18  6  1 13 16 16.8118020  0  4G04G23G26G27                                    
  22771701.248 6    552133.052 6     -2398.654 6        40.249                  
  20796065.904 6   -613141.697 6      2337.446 6        41.807                  
  21832148.500 6    403675.658 6     -1720.956 6        39.671                  
  21764894.451 6   -921758.806 6      3602.283 6        41.709                  
 18  6  1 13 16 16.9118020  0  4G04G23G26G27                                    
  22771765.472 6    552372.948 6     -2400.707 6        40.416                  
  20796047.451 6   -613375.427 6      2335.759 6        40.752                  
  21832206.891 6    403847.846 6     -1723.269 6        39.296                  
  21764849.109 6   -922118.951 6      3599.844 6        41.838                  
 18  6  1 13 16 17.0118020  0  4G04G23G26G27                                    
  22771854.968 6    552613.244 6     -2405.320 6        40.870                  
  20796045.976 6   -613608.758 6      2331.602 6        41.381                  
  21832289.211 6    404020.397 6     -1727.940 6        41.535                  
  21764825.649 7   -922478.693 7      3595.357 7        42.548                  
 18  6  1 13 16 17.1118020  0  4G04G23G26G27                                    
  22771890.595 6    552853.880 6     -2406.407 6        41.133                  
  20795993.105 6   -613841.750 6      2329.451 6        41.736                  
  21832307.297 6    404193.276 6     -1729.344 6        40.901                  
  21764750.924 6   -922838.125 6      3593.874 6        41.141                  
 18  6  1 13 16 17.2118020  0  4G04G23G26G27                                    
  22771942.585 6    553094.478 6     -2405.669 6        38.690                  
  20795946.267 7   -614074.765 7      2330.192 7        42.320                  
  21832341.985 6    404366.145 6     -1728.116 6        38.158                  
  21764684.969 6   -923197.555 6      3594.564 6        41.421                  
 18  6  1 13 16 17.3118020  0  4G04G23G26G27                                    
  22772037.337 6    553335.012 6     -2404.925 6        39.141                  
  20795961.791 7   -614307.837 7      2331.531 7        43.588                  
  21832434.315 6    404538.954 6     -1727.588 6        38.152                  
  21764675.946 7   -923557.052 7      3595.371 7        45.059                  
 18  6  1 13 16 17.4118020  0  4G04G23G26G27                                    
  22772122.074 6    553575.464 6     -2404.123 6        41.577                  
  20795959.655 6   -614540.992 6      2331.681 6        41.766                  
  21832511.801 6    404711.656 6     -1726.931 6        38.550                  
  21764647.667 7   -923916.623 7      3596.138 7        43.537                  
 18  6  1 13 16 17.5118020  0  4G04G23G26G27                                    
  22772174.832 6    553815.839 6     -2403.001 6        41.206                  
  20795913.825 7   -614774.206 7      2333.014 7        43.994                  
  21832546.875 6    404884.311 6     -1725.658 6        39.331                  
  21764577.109 6   -924276.278 6      3596.983 6        39.138                  
 18  6  1 13 16 17.6118020  0  4G04G23G26G27                                    
  22772201.714 6    554056.172 6     -2403.492 6        41.001                  
  20795845.765 7   -615007.471 7      2332.206 7        43.727                  
  21832551.948 6    405056.914 6     -1726.865 6        39.061                  
  21764484.650 7   -924635.961 7      3596.954 7        43.063                  
 18  6  1 13 16 17.7118020  0  4G04G23G26G27                                    
  22772259.428 6    554296.524 6     -2403.503 6        38.473                  
  20795814.428 6   -615240.713 6      2332.270 6        41.857                  
  21832596.225 6    405229.527 6     -1725.403 6        38.902                  
  21764428.696 7   -924995.642 7      3596.582 7        42.769                  
 18  6  1 13 16 17.8118020  0  4G04G23G26G27                                    
  22772300.896 7    554536.876 7     -2404.209 7        43.583                  
  20795765.597 6   -615473.962 6      2332.344 6        40.914                  
  21832620.206 6    405402.152 6     -1726.650 6        41.804                  
  21764352.922 6   -925355.309 6      3596.479 6        41.088                  
 18  6  1 13 16 17.9118020  0  4G04G23G26G27                                    
  22772395.394 6    554777.252 6     -2403.270 6        38.049                  
  20795771.261 7   -615707.169 7      2332.530 7        42.282                  
  21832709.420 6    405574.801 6     -1725.927 6        39.815                  
  21764337.892 7   -925714.951 7      3596.846 7        42.381                  
 18  6  1 13 16 18.0118020  0  4G04G23G26G27                                    
  22772473.269 7    555017.519 7     -2401.616 7        42.648                  
  20795765.513 7   -615940.479 7      2333.472 7        42.580                  
  21832780.180 6    405747.338 6     -1725.097 6        39.536                  
  21764310.264 7   -926074.678 7      3597.768 7        42.213                  
 18  6  1 13 17 12.1118020  0  4G04G23G26G27                                    
  22805899.517 6    683418.402 6     -2348.061 6        40.702                  
  20780540.595 7   -743196.289 7      2368.134 7        44.749                  
  21859251.202 6    497722.346 6     -1670.452 6        39.799                  
  21736045.798 6  -1121868.897 6      3637.255 6        41.495                  
 18  6  1 13 17 12.2118020  0  4G04G23G26G27                                    
  22805982.583 6    683653.139 6     -2346.978 6        40.747                  
  20780532.008 6   -743433.077 6      2367.731 6        41.242                  
  21859324.850 6    497806.971 6     -1674.805 6        40.911                  
  21736009.712 6  -1122232.657 6      3637.519 6        40.855                  
 18  6  1 13 17 12.3118020  0  4G04G23G26G27                                    
  22806040.756 7    683887.867 7     -2347.527 7        42.096                  
  20780508.309 7   -743669.884 7      2367.827 7        43.122                  
  21859371.225 6    497974.468 6     -1675.882 6        40.384                  
  21735954.116 7  -1122596.390 7      3637.514 7        42.060                  
 18  6  1 13 17 12.4118020  0  4G04G23G26G27                                    
  22806137.418 6    684122.676 6     -2348.297 6        38.750                  
  20780517.064 6   -743906.630 6      2366.829 6        41.635                  
  21859463.493 6    498142.028 6     -1675.468 6        38.924                  
  21735944.187 6  -1122960.086 6      3636.093 6        41.695                  
 18  6  1 13 17 12.5118020  0  4G04G23G26G27                                    
  22806174.775 7    684357.585 7     -2349.767 7        43.079                  
  20780455.844 7   -744143.242 7      2365.751 7        43.897                  
  21859479.981 6    498309.676 6     -1676.548 6        38.076                  
  21735858.485 6  -1123323.650 6      3635.717 6        41.321                  
 18  6  1 13 17 12.6118020  0  4G04G23G26G27                                    
  22806221.001 6    684592.471 6     -2348.264 6        38.435                  
  20780412.437 7   -744379.865 7      2366.674 7        43.931                  
  21859509.643 6    498477.343 6     -1676.274 6        40.431                  
  21735785.894 6  -1123687.224 6      3635.753 6        41.303                  
 18  6  1 13 17 12.7118020  0  4G04G23G26G27                                    
  22806276.233 6    684827.310 6     -2348.398 6        40.298                  
  20780378.056 7   -744616.551 7      2367.152 7        43.962                  
  21859551.029 6    498644.940 6     -1675.887 6        38.802                  
  21735730.092 6  -1124050.850 6      3636.514 6        41.842                  
 18  6  1 13 17 12.8118020  0  4G04G23G26G27                                    
  22806337.645 6    685062.168 6     -2348.918 6        39.108                  
  20780357.141 7   -744853.198 7      2365.819 7        42.502                  
  21859601.543 6    498812.575 6     -1676.569 6        37.270                  
  21735680.776 6  -1124414.445 6      3635.602 6        40.975                  
 18  6  1 13 17 12.9118020  0  4G04G23G26G27                                    
  22806399.921 6    685297.075 6     -2349.074 6        40.011                  
  20780328.189 6   -745089.796 6      2366.073 6        41.978                  
  21859651.196 6    498980.256 6     -1677.180 6        37.244                  
  21735633.177 6  -1124777.998 6      3635.454 6        41.559                  
 18  6  1 13 17 13.0118020  0  4G04G23G26G27                                    
  22806454.511 7    685531.939 7     -2348.324 7        42.117                  
  20780287.597 7   -745326.431 7      2366.787 7        42.174                  
  21859689.924 6    499147.887 6     -1675.938 6        39.277                  
  21735570.911 7  -1125141.591 7      3636.371 7        43.906                  
 18  6  1 13 17 13.1118020  0  4G04G23G26G27                                    
  22806522.383 6    685766.707 6     -2347.363 6        41.717                  
  20780266.394 7   -745563.156 7      2367.690 7        43.196                  
  21859746.319 6    499315.410 6     -1675.030 6        38.061                  
  21735524.340 7  -1125505.276 7      3637.113 7        42.293                  
 18  6  1 13 17 13.2118020  0  4G04G23G26G27                                    
  22806609.957 6    686001.457 6     -2347.231 6        39.837                  
  20780271.264 7   -745799.897 7      2367.653 7        46.321                  
  21859827.998 6    499482.950 6     -1675.218 6        39.492                  
  21735498.127 7  -1125868.972 7      3636.998 7        43.161                  
 18  6  1 13 17 13.3118020  0  4G04G23G26G27                                    
  22806668.496 6    686236.148 6     -2346.390 6        41.406                  
  20780233.098 7   -746036.707 7      2368.448 7        43.428                  
  21859870.810 5    499650.412 5     -1673.807 5        34.201                  
  21735436.668 6  -1126232.727 6      3638.274 6        39.407                  
 18  6  1 13 17 13.4118020  0  4G04G23G26G27                                    
  22806710.830 6    686470.728 6     -2344.968 6        41.143                  
  20780179.986 6   -746273.615 6      2369.500 6        41.868                  
  21859894.779 6    499817.747 6     -1673.245 6        36.929                  
  21735363.037 6  -1126596.597 6      3639.300 6        41.862                  
 18  6  1 13 17 13.5118020  0  4G04G23G26G27                                    
  22806824.731 6    686705.197 6     -2344.798 6        39.798                  
  20780211.969 7   -746510.619 7      2370.288 7        42.756                  
  21860008.871 6    499985.006 6     -1671.505 6        36.547                  
  21735367.324 7  -1126960.561 7      3639.914 7        44.800                  
 18  6  1 13 17 13.6118020  0  4G04G23G26G27                                    
  22806842.092 6    686939.591 6     -2343.571 6        40.527                  
  20780133.697 7   -746747.705 7      2371.551 7        42.314                  
  21860002.590 6    500152.173 6     -1671.858 6        37.116                  
  21735268.162 7  -1127324.603 7      3640.949 7        42.488                  
 18  6  1 13 17 13.7118020  0  4G04G23G26G27                                    
  22806903.507 6    687173.910 6     -2342.487 6        40.627                  
  20780104.229 6   -746984.869 6      2371.751 6        41.509                  
  21860050.402 6    500319.274 6     -1670.401 6        40.866                  
  21735211.629 7  -1127688.721 7      3641.873 7        42.121                  
 18  6  1 13 17 13.8118020  0  4G04G23G26G27                                    
  22806944.593 6    687408.099 6     -2341.177 6        40.968                  
  20780062.670 7   -747222.145 7      2373.488 7        43.021                  
  21860076.318 6    500486.258 6     -1668.866 6        36.740                  
  21735142.105 7  -1128052.961 7      3642.736 7        42.822                  
 18  6  1 13 17 13.9118020  0  4G04G23G26G27                                    
  22807020.443 6    687642.218 6     -2341.208 6        38.752                  
  20780047.064 6   -747459.501 6      2373.979 6        41.479                  
  21860141.934 6    500653.130 6     -1668.689 6        40.093                  
  21735104.660 6  -1128417.279 6      3643.266 6        41.741                  
 18  6  1 13 17 14.0118020  0  4G04G23G26G27                                    
  22807108.123 7    687876.293 7     -2340.692 7        42.908                  
  20780045.024 6   -747696.889 6      2373.681 6        41.844                  
  21860221.974 6    500819.990 6     -1668.552 6        39.397                  
  21735076.787 6  -1128781.626 6      3643.445 6        41.138                  
 18  6  1 13 17 14.1118020  0  4G04G23G26G27                                    
  22807173.172 6    688110.408 6     -2341.015 6        40.383                  
  20780022.855 7   -747934.249 7      2373.514 7        43.645                  
  21860275.619 6    500986.876 6     -1668.797 6        37.870                  
  21735029.630 6  -1129145.934 6      3643.034 6        41.451                  
 18  6  1 13 17 14.2118020  0  4G04G23G26G27                                    
  22807194.654 7    688344.577 7     -2342.419 7        43.865                  
  20779947.386 7   -748171.540 7      2372.385 7        43.332                  
  21860273.906 6    501153.807 6     -1670.138 6        38.901                  
  21734933.560 7  -1129510.200 7      3642.088 7        42.864                  
 18  6  1 13 17 14.3118020  0  4G04G23G26G27                                    
  22807231.824 7    688578.849 7     -2342.990 7        42.576                  
  20779898.156 7   -748408.723 7      2371.185 7        46.175                  
  21860295.066 6    501320.889 6     -1671.009 6        39.743                  
  21734867.610 7  -1129874.345 7      3640.867 7        42.596                  
 18  6  1 13 17 14.4118020  0  4G04G23G26G27                                    
  22807306.213 6    688813.171 6     -2343.611 6        41.809                  
  20779889.093 6   -748645.857 6      2371.452 6        41.628                  
  21860360.745 6    501487.965 6     -1671.096 6        38.202                  
  21734828.997 6  -1130238.444 6      3640.913 6        41.623                  
 18  6  1 13 17 14.5118020  0  4G04G23G26G27                                    
  22807402.635 6    689047.525 6     -2343.578 6        39.833                  
  20779889.647 7   -748882.958 7      2370.716 7        43.683                  
  21860449.422 6    501655.095 6     -1672.342 6        39.179                  
  21734804.924 7  -1130602.505 7      3640.272 7        42.926                  
 18  6  1 13 17 14.6118020  0  4G04G23G26G27                                    
  22807437.024 6    689281.876 6     -2343.438 6        39.692                  
  20779837.744 6   -749120.041 6      2370.963 6        41.571                  
  21860466.270 6    501822.235 6     -1670.553 6        39.317                  
  21734727.189 6  -1130966.559 6      3640.974 6        41.462                  
 18  6  1 13 17 14.7118020  0  4G04G23G26G27                                    
  22807492.128 6    689516.264 6     -2344.526 6        40.666                  
  20779801.959 7   -749357.107 7      2370.133 7        45.369                  
  21860507.223 6    501989.404 6     -1671.986 6        39.025                  
  21734671.353 6  -1131330.579 6      3639.936 6        41.972                  
 18  6  1 13 17 14.8118020  0  4G04G23G26G27                                    
  22807571.284 6    689750.721 6     -2345.370 6        41.025                  
  20779785.380 7   -749594.077 7      2369.060 7        43.344                  
  21860575.323 6    502156.640 6     -1673.507 6        38.085                  
  21734632.192 6  -1131694.532 6      3638.935 6        41.511                  
 18  6  1 13 17 14.9118020  0  4G04G23G26G27                                    
  22807656.349 6    689985.326 6     -2346.120 6        41.750                  
  20779777.866 7   -749830.917 7      2368.002 7        44.238                  
  21860651.321 6    502324.028 6     -1674.531 6        37.634                  
  21734599.466 6  -1132058.332 6      3637.170 6        40.925                  
 18  6  1 13 17 15.0118020  0  4G04G23G26G27                                    
  22807701.109 6    690220.059 6     -2348.274 6        39.469                  
  20779741.015 7   -750067.625 7      2366.297 7        42.858                  
  21860681.854 6    502491.533 6     -1675.425 6        40.054                  
  21734533.158 6  -1132422.018 6      3636.275 6        41.083                  
 18  6  1 13 17 15.1118020  0  4G04G23G26G27                                    
  22807761.692 7    690454.942 7     -2349.182 7        43.148                  
  20779714.814 7   -750304.184 7      2364.926 7        43.447                  
  21860730.263 6    502659.206 6     -1677.055 6        38.334                  
  21734482.082 6  -1132785.548 6      3634.567 6        41.438                  
 18  6  1 13 17 15.2118020  0  4G04G23G26G27                                    
  22807843.644 6    690689.908 6     -2350.128 6        39.136                  
  20779704.471 7   -750540.626 7      2364.137 7        42.893                  
  21860802.987 6    502826.969 6     -1677.928 6        41.401                  
  21734450.109 7  -1133148.962 7      3633.645 7        43.335                  
 18  6  1 13 17 15.3118020  0  4G04G23G26G27                                    
  22807900.895 6    690924.931 6     -2350.606 6        41.767                  
  20779670.367 7   -750777.027 7      2363.818 7        43.921                  
  21860846.250 6    502994.767 6     -1677.898 6        36.046                  
  21734394.800 6  -1133512.325 6      3633.592 6        41.855                  
 18  6  1 13 17 15.4118020  0  4G04G23G26G27                                    
  22807957.385 6    691159.982 6     -2350.148 6        40.870                  
  20779639.302 7   -751013.396 7      2363.517 7        45.784                  
  21860889.160 6    503162.606 6     -1678.985 6        38.287                  
  21734336.092 7  -1133875.666 7      3633.162 7        42.090                  
 18  6  1 13 17 15.5118020  0  4G04G23G26G27                                    
  22808019.831 6    691395.051 6     -2351.033 6        41.807                  
  20779611.542 7   -751249.738 7      2363.517 7        43.219                  
  21860938.315 6    503330.462 6     -1678.521 6        38.020                  
  21734280.103 7  -1134238.995 7      3633.310 7        42.047                  
 18  6  1 13 17 15.6118020  0  4G04G23G26G27                                    
  22808111.872 6    691630.105 6     -2349.942 6        39.007                  
  20779621.176 7   -751486.082 7      2363.536 7        43.281                  
  21861026.359 5    503498.324 5     -1678.560 5        35.777                  
  21734266.720 7  -1134602.307 7      3633.433 7        42.816                  
 18  6  1 13 17 15.7118020  0  4G04G23G26G27                                    
  22808158.222 7    691865.079 7     -2349.283 7        42.566                  
  20779572.294 7   -751722.507 7      2364.465 7        43.760                  
  21861055.557 6    503666.070 6     -1676.840 6        39.102                  
  21734200.183 6  -1134965.703 6      3634.468 6        41.404                  
 18  6  1 13 17 15.8118020  0  4G04G23G26G27                                    
  22808171.349 6    692099.970 6     -2349.141 6        41.446                  
  20779489.572 6   -751959.008 6      2365.510 6        41.974                  
  21861044.134 6    503833.780 6     -1677.064 6        39.267                  
  21734096.947 6  -1135329.185 6      3635.002 6        41.603                  
 18  6  1 13 17 15.9118020  0  4G04G23G26G27                                    
  22808259.840 7    692334.807 7     -2347.538 7        42.123                  
  20779492.004 7   -752195.568 7      2366.176 7        44.287                  
  21861126.236 5    504001.379 5     -1675.808 5        33.566                  
  21734072.315 6  -1135692.721 6      3636.077 6        40.372                  
 18  6  1 13 17 16.0118020  0  4G04G23G26G27                                    
  22808315.119 6    692569.575 6     -2347.552 6        40.612                  
  20779458.165 6   -752432.195 6      2366.213 6        41.423                  
  21861166.802 6    504168.957 6     -1674.729 6        36.210                  
  21734007.507 6  -1136056.339 6      3635.997 6        40.852                  
 18  6  1 13 17 16.1118020  0  4G04G23G26G27                                    
  22808367.486 6    692804.304 6     -2346.834 6        41.518                  
  20779419.500 7   -752668.855 7      2367.102 7        44.434                  
  21861203.594 5    504336.470 5     -1675.206 5        35.612                  
  21733941.349 6  -1136419.988 6      3637.114 6        41.181                  
 18  6  1 13 17 16.2118020  0  4G04G23G26G27                                    
  22808404.786 6    693038.911 6     -2345.561 6        40.666                  
  20779372.229 7   -752905.619 7      2368.619 7        43.797                  
  21861224.195 6    504503.910 6     -1673.149 6        38.961                  
  21733865.181 7  -1136783.720 7      3637.848 7        43.601                  
 18  6  1 13 17 16.3118020  0  4G04G23G26G27                                    
  22808496.039 6    693273.362 6     -2343.507 6        39.861                  
  20779369.025 6   -753142.536 6      2369.611 6        41.353                  
  21861307.258 5    504671.163 5     -1671.625 5        35.037                  
  21733838.816 6  -1137147.622 6      3639.971 6        39.452                  
 18  6  1 13 17 16.4118020  0  4G04G23G26G27                                    
  22808556.836 6    693507.659 6     -2342.228 6        41.141                  
  20779336.224 7   -753379.615 7      2371.451 7        43.913                  
  21861354.851 6    504838.232 6     -1670.427 6        39.969                  
  21733792.135 6  -1137511.685 6      3641.339 6        40.386                  
 18  6  1 13 17 16.5118020  0  4G04G23G26G27                                    
  22808632.243 6    693741.854 6     -2341.564 6        40.684                  
  20779324.750 7   -753616.794 7      2372.522 7        42.174                  
  21861421.779 6    505005.236 6     -1669.600 6        38.034                  
  21733761.840 6  -1137875.852 6      3642.263 6        41.882                  
 18  6  1 13 17 16.6118020  0  4G04G23G26G27                                    
  22808699.457 6    693975.901 6     -2339.843 6        41.397                  
  20779304.058 7   -753854.100 7      2373.662 7        42.224                  
  21861477.692 6    505172.085 6     -1668.035 6        37.568                  
  21733715.115 7  -1138240.139 7      3643.389 7        42.015                  
 18  6  1 13 17 16.7118020  0  4G04G23G26G27                                    
  22808763.844 6    694209.861 6     -2339.481 6        39.621                  
  20779280.398 7   -754091.497 7      2373.891 7        43.611                  
  21861529.731 6    505338.845 6     -1667.128 6        36.570                  
  21733661.607 6  -1138604.527 6      3643.860 6        41.735                  
 18  6  1 13 17 16.8118020  0  4G04G23G26G27                                    
  22808815.684 6    694443.763 6     -2338.287 6        41.033                  
  20779243.048 7   -754328.963 7      2375.042 7        43.484                  
  21861567.183 6    505505.546 6     -1666.608 6        36.175                  
  21733603.058 6  -1138968.980 6      3644.711 6        39.550                  
 18  6  1 13 17 16.9118020  0  4G04G23G26G27                                    
  22808837.220 6    694677.616 6     -2338.594 6        39.991                  
  20779165.533 7   -754566.448 7      2374.880 7        42.897                  
  21861564.613 6    505672.214 6     -1666.774 6        37.137                  
  21733502.893 7  -1139333.460 7      3645.166 7        42.579                  
 18  6  1 13 17 17.0118020  0  4G04G23G26G27                                    
  22808899.000 7    694911.453 7     -2337.994 7        42.040                  
  20779137.874 7   -754803.965 7      2375.347 7        42.635                  
  21861613.925 6    505838.873 6     -1666.548 6        38.124                  
  21733453.523 6  -1139697.954 6      3645.083 6        40.941                  
 18  6  1 13 17 17.1118020  0  4G04G23G26G27                                    
  22808973.032 6    695145.280 6     -2338.350 6        41.151                  
  20779125.262 7   -755041.493 7      2375.373 7        42.401                  
  21861678.442 6    506005.485 6     -1666.180 6        37.048                  
  21733414.452 7  -1140062.476 7      3645.251 7        43.441                  
 18  6  1 13 17 17.2118020  0  4G04G23G26G27                                    
  22809038.404 6    695379.080 6     -2338.102 6        39.656                  
  20779098.156 7   -755279.030 7      2375.383 7        44.258                  
  21861731.059 6    506172.101 6     -1665.583 6        37.423                  
  21733365.464 7  -1140427.012 7      3645.801 7        42.192                  
 18  6  1 13 17 17.3118020  0  4G04G23G26G27                                    
  22809143.216 6    695612.882 6     -2338.069 6        40.538                  
  20779121.539 7   -755516.579 7      2375.141 7        43.287                  
  21861834.742 6    506338.699 6     -1665.999 6        38.812                  
  21733364.905 7  -1140791.546 7      3644.937 7        44.194                  
 18  6  1 13 17 17.4118020  0  4G04G23G26G27                                    
  22809203.479 6    695846.658 6     -2337.515 6        40.830                  
  20779085.662 7   -755754.144 7      2375.901 7        43.410                  
  21861879.640 6    506505.282 6     -1666.095 6        38.689                  
  21733304.077 7  -1141156.107 7      3645.899 7        42.268                  
 18  6  1 13 17 17.5118020  0  4G04G23G26G27                                    
  22809295.763 6    696080.395 6     -2337.181 6        40.773                  
  20779095.015 7   -755991.728 7      2376.228 7        42.310                  
  21861966.947 5    506671.839 5     -1665.321 5        35.650                  
  21733282.579 6  -1141520.672 6      3645.444 6        40.315                  
 18  6  1 13 17 17.6118020  0  4G04G23G26G27                                    
  22809327.434 6    696314.102 6     -2336.305 6        39.375                  
  20779045.527 7   -756229.355 7      2376.542 7        42.192                  
  21861981.666 6    506838.364 6     -1665.130 6        37.119                  
  21733202.146 6  -1141885.298 6      3646.981 6        41.515                  
 18  6  1 13 17 17.7118020  0  4G04G23G26G27                                    
  22809418.533 6    696547.743 6     -2336.576 6        40.014                  
  20779037.392 7   -756467.030 7      2377.209 7        46.353                  
  21862063.860 6    507004.804 6     -1664.059 6        39.174                  
  21733179.214 7  -1142249.981 7      3647.031 7        42.923                  
 18  6  1 13 17 17.8118020  0  4G04G23G26G27                                    
  22809459.184 6    696781.325 6     -2335.897 6        41.992                  
  20778982.926 7   -756704.774 7      2377.634 7        42.936                  
  21862085.548 6    507171.183 6     -1663.418 6        38.523                  
  21733100.940 6  -1142614.700 6      3647.273 6        40.480                  
 18  6  1 13 17 17.9118020  0  4G04G23G26G27                                    
  22809453.411 6    697014.854 6     -2334.721 6        41.100                  
  20778886.408 6   -756942.563 6      2377.909 6        41.137                  
  21862052.663 6    507337.554 6     -1662.786 6        37.033                  
  21732980.727 6  -1142979.489 6      3648.043 6        40.137                  
 18  6  1 13 17 18.0118020  0  4G04G23G26G27                                    
  22809575.778 6    697248.377 6     -2335.171 6        39.678                  
  20778922.846 7   -757180.351 7      2377.844 7        43.605                  
  21862176.581 6    507503.883 6     -1663.816 6        36.988                  
  21732998.229 6  -1143344.273 6      3648.014 6        41.673                  
 18  6  1 13 17 18.1118020  0  4G04G23G26G27                                    
  22809621.211 6    697481.931 6     -2336.062 6        41.501                  
  20778877.729 6   -757418.108 6      2377.293 6        41.902                  
  21862205.241 6    507670.241 6     -1664.039 6        39.035                  
  21732926.355 6  -1143709.043 6      3647.218 6        41.298                  
 18  6  1 13 17 18.2118020  0  4G04G23G26G27                                    
  22809688.810 7    697715.526 7     -2335.881 7        42.268                  
  20778851.465 7   -757655.829 7      2376.974 7        45.044                  
  21862259.963 6    507836.636 6     -1663.709 6        36.604                  
  21732877.088 7  -1144073.765 7      3647.084 7        43.754                  
 18  6  1 13 17 18.3118020  0  4G04G23G26G27                                    
  22809760.932 6    697949.125 6     -2336.190 6        38.789                  
  20778847.305 7   -757893.536 7      2377.084 7        42.273                  
  21862325.168 6    508003.069 6     -1665.016 6        37.747                  
  21732842.295 7  -1144438.468 7      3647.067 7        42.411                  
 18  6  1 13 17 18.4118020  0  4G04G23G26G27                                    
  22809814.052 7    698182.743 7     -2336.155 7        42.010                  
  20778807.707 6   -758131.207 6      2376.679 6        41.399                  
  21862363.103 6    508169.505 6     -1663.684 6        38.440                  
  21732782.552 7  -1144803.139 7      3647.009 7        42.998                  
 18  6  1 13 17 18.5118020  0  4G04G23G26G27                                    
  22809838.808 7    698416.391 7     -2336.641 7        42.761                  
  20778737.085 7   -758368.862 7      2376.530 7        43.376                  
  21862365.340 6    508335.951 6     -1664.882 6        36.061                  
  21732686.499 6  -1145167.804 6      3646.083 6        41.240                  
 18  6  1 13 17 18.6118020  0  4G04G23G26G27                                    
  22809929.952 6    698650.066 6     -2337.254 6        39.449                  
  20778736.505 7   -758606.473 7      2375.438 7        42.596                  
  21862449.554 6    508502.448 6     -1665.329 6        36.676                  
  21732666.216 7  -1145532.419 7      3645.868 7        43.010                  
 18  6  1 13 17 18.7118020  0  4G04G23G26G27                                    
  22809977.681 7    698883.795 7     -2337.069 7        42.713                  
  20778695.121 7   -758844.035 7      2375.887 7        42.981                  
  21862481.296 6    508668.999 6     -1665.178 6        39.393                  
  21732596.522 6  -1145896.985 6      3645.656 6        41.773                  
 18  6  1 13 17 18.8118020  0  4G04G23G26G27                                    
  22810038.302 6    699117.501 6     -2336.718 6        39.340                  
  20778664.558 7   -759081.619 7      2375.968 7        42.808                  
  21862528.367 6    508835.505 6     -1665.110 6        37.547                  
  21732541.868 7  -1146261.561 7      3646.322 7        43.297                  
 18  6  1 13 17 18.9118020  0  4G04G23G26G27                                    
  22810108.853 6    699351.172 6     -2337.014 6        40.225                  
  20778645.544 7   -759319.216 7      2375.744 7        42.258                  
  21862588.016 6    509002.039 6     -1666.485 6        37.075                  
  21732499.231 7  -1146626.178 7      3645.585 7        42.219                  
 18  6  1 13 17 19.0118020  0  4G04G23G26G27                                    
  22810186.915 6    699584.936 6     -2338.159 6        41.111                  
  20778637.980 6   -759556.743 6      2374.729 6        41.327                  
  21862657.550 6    509168.610 6     -1665.662 6        38.206                  
  21732463.520 7  -1146990.714 7      3645.107 7        43.082                  
 18  6  1 13 17 19.1118020  0  4G04G23G26G27                                    
  22810236.808 7    699818.780 7     -2339.294 7        42.181                  
  20778604.483 7   -759794.160 7      2373.744 7        43.902                  
  21862694.479 5    509335.270 5     -1667.569 5        35.945                  
  21732407.898 6  -1147355.142 6      3643.922 6        41.657                  
 18  6  1 13 17 19.2118020  0  4G04G23G26G27                                    
  22810298.073 6    700052.748 6     -2339.784 6        40.709                  
  20778573.617 7   -760031.470 7      2372.219 7        43.249                  
  21862742.378 6    509502.042 6     -1666.994 6        39.917                  
  21732356.307 7  -1147719.468 7      3642.388 7        44.095                  
 18  6  1 13 17 19.3118020  0  4G04G23G26G27                                    
  22810328.298 7    700286.750 7     -2340.473 7        42.202                  
  20778508.767 7   -760268.729 7      2372.670 7        42.137                  
  21862751.712 6    509668.891 6     -1668.952 6        40.120                  
  21732269.660 6  -1148083.733 6      3642.819 6        41.589                  
 18  6  1 13 17 19.4118020  0  4G04G23G26G27                                    
  22810425.187 7    700520.808 7     -2340.126 7        43.402                  
  20778514.373 6   -760505.935 6      2371.761 6        40.249                  
  21862842.179 6    509835.761 6     -1668.917 6        40.323                  
  21732247.936 7  -1148447.950 7      3642.025 7        43.205                  
 18  6  1 13 17 19.5118020  0  4G04G23G26G27                                    
  22810474.368 7    700754.829 7     -2340.201 7        42.890                  
  20778465.216 7   -760743.167 7      2373.075 7        42.673                  
  21862874.035 5    510002.736 5     -1673.542 5        32.731                  
  21732183.668 7  -1148812.195 7      3642.639 7        43.172                  
 18  6  1 13 17 19.6118020  0  4G04G23G26G27                                    
  22810573.883 6    700988.821 6     -2339.669 6        38.599                  
  20778481.087 7   -760980.434 7      2372.484 7        43.454                  
  21862970.314 6    510169.941 6     -1667.824 6        40.452                  
  21732173.146 7  -1149176.475 7      3642.722 7        42.412                  
 18  6  1 13 17 19.7118020  0  4G04G23G26G27                                    
  22810614.811 6    701222.820 6     -2340.475 6        39.408                  
  20778438.050 7   -761217.682 7      2372.294 7        42.756                  
  21862995.287 6    510336.763 6     -1668.394 6        40.321                  
  21732099.302 6  -1149540.743 6      3642.605 6        40.519                  
 18  6  1 13 17 19.8118020  0  4G04G23G26G27                                    
  22810674.813 6    701456.832 6     -2339.807 6        41.319                  
  20778413.632 7   -761454.907 7      2372.361 7        42.644                  
  21863043.325 5    510503.591 5     -1668.529 5        35.864                  
  21732045.844 6  -1149904.978 6      3642.607 6        40.536                  
 18  6  1 13 17 20.5118020  0  4G04G23G26G27                                    
  22811089.664 6    703094.870 6     -2343.090 6        39.959                  
  20778194.578 7   -763115.490 7      2368.999 7        44.497                  
  21863364.187 5    511754.129 5     -1689.628 5        35.066                  
  21731670.813 7  -1152454.691 7      3639.947 7        42.856                  
 18  6  1 13 17 20.6118020  0  4G04G23G26G27                                    
  22811164.246 6    703329.211 6     -2344.101 6        39.636                  
  20778182.609 6   -763352.366 6      2368.354 6        41.809                  
  21863429.352 6    511838.638 6     -1672.851 6        36.942                  
  21731631.998 6  -1152818.595 6      3637.699 6        41.338                  
 18  6  1 13 17 20.7118020  0  4G04G23G26G27                                    
  22811230.309 6    703563.721 6     -2345.758 6        39.368                  
  20778154.035 6   -763589.079 6      2366.371 6        41.621                  
  21863481.879 6    512005.965 6     -1673.532 6        38.323                  
  21731579.670 7  -1153182.343 7      3637.487 7        42.419                  
 18  6  1 13 17 20.8118020  0  4G04G23G26G27                                    
  22811283.477 6    703798.244 6     -2344.645 6        41.228                  
  20778112.291 6   -763825.766 6      2367.478 6        41.674                  
  21863517.888 6    512173.332 6     -1674.076 6        39.455                  
  21731506.239 6  -1153546.045 6      3637.200 6        40.361                  
 18  6  1 13 17 20.9118020  0  4G04G23G26G27                                    
  22811373.455 6    704032.726 6     -2344.644 6        41.451                  
  20778117.674 7   -764062.479 7      2367.170 7        42.595                  
  21863602.323 6    512340.657 6     -1672.333 6        37.410                  
  21731485.101 6  -1153909.798 6      3637.619 6        41.213                  
 18  6  1 13 17 21.0118020  0  4G04G23G26G27                                    
  22811452.618 6    704267.123 6     -2343.866 6        40.255                  
  20778100.243 7   -764299.280 7      2368.542 7        42.016                  
  21863670.743 6    512507.893 6     -1670.805 6        37.990                  
  21731450.656 7  -1154273.610 7      3638.449 7        44.307                  
 18  6  1 13 17 21.1118020  0  4G04G23G26G27                                    
  22811535.284 6    704501.473 6     -2343.089 6        38.808                  
  20778099.262 7   -764536.122 7      2368.394 7        42.930                  
  21863746.569 6    512675.090 6     -1673.086 6        39.474                  
  21731422.253 6  -1154637.477 6      3638.998 6        40.665                  
 18  6  1 13 17 21.2118020  0  4G04G23G26G27                                    
  22811558.727 6    704735.828 6     -2343.792 6        41.095                  
  20778036.563 7   -764772.963 7      2368.314 7        42.633                  
  21863749.905 6    512842.265 6     -1672.183 6        37.092                  
  21731330.539 7  -1155001.352 7      3638.266 7        42.177                  
 18  6  1 13 17 21.3118020  0  4G04G23G26G27                                    
  22811603.639 7    704970.189 7     -2343.257 7        42.241                  
  20777988.820 6   -765009.782 6      2368.110 6        41.307                  
  21863778.369 6    513009.486 6     -1671.724 6        38.838                  
  21731266.510 7  -1155365.195 7      3638.875 7        43.107                  
 18  6  1 13 17 21.4118020  0  4G04G23G26G27                                    
  22811613.610 6    705204.504 6     -2342.954 6        41.568                  
  20777909.744 7   -765246.661 7      2369.478 7        43.000                  
  21863764.520 6    513176.650 6     -1670.898 6        36.852                  
  21731158.816 7  -1155729.104 7      3639.300 7        43.870                  
 18  6  1 13 17 21.5118020  0  4G04G23G26G27                                    
  22811676.233 6    705438.736 6     -2341.425 6        40.986                  
  20777879.870 7   -765483.610 7      2369.898 7        42.264                  
  21863814.279 6    513343.723 6     -1670.550 6        37.824                  
  21731111.404 6  -1156093.090 6      3640.552 6        41.856                  
 18  6  1 13 17 21.6118020  0  4G04G23G26G27                                    
  22811769.542 6    705672.863 6     -2341.143 6        39.436                  
  20777890.719 7   -765720.652 7      2370.650 7        42.454                  
  21863903.215 6    513510.686 6     -1669.431 6        38.054                  
  21731093.616 7  -1156457.169 7      3641.442 7        42.530                  
 18  6  1 13 17 21.7118020  0  4G04G23G26G27                                    
  22811825.944 6    705906.874 6     -2339.697 6        39.582                  
  20777854.214 7   -765957.807 7      2372.343 7        44.073                  
  21863944.423 5    513677.544 5     -1667.384 5        35.551                  
  21731031.222 6  -1156821.355 6      3642.225 6        40.214                  
 18  6  1 13 17 21.8118020  0  4G04G23G26G27                                    
  22811872.803 6    706140.782 6     -2338.183 6        38.255                  
  20777809.841 7   -766195.069 7      2373.071 7        43.156                  
  21863974.746 6    513844.290 6     -1667.293 6        38.923                  
  21730961.669 6  -1157185.649 6      3643.143 6        40.818                  
 18  6  1 13 17 21.9118020  0  4G04G23G26G27                                    
  22811934.293 6    706374.585 6     -2337.870 6        40.382                  
  20777783.093 7   -766432.416 7      2373.390 7        43.387                  
  21864023.571 6    514010.971 6     -1666.099 6        36.797                  
  21730908.310 7  -1157550.039 7      3644.342 7        42.898                  
 18  6  1 13 17 22.0118020  0  4G04G23G26G27                                    
  22812037.605 6    706608.328 6     -2336.906 6        38.535                  
  20777798.342 7   -766669.837 7      2375.106 7        42.783                  
  21864123.242 5    514177.539 5     -1665.492 5        35.968                  
  21730899.763 7  -1157914.499 7      3645.132 7        42.920                  
 18  6  1 13 17 22.1118020  0  4G04G23G26G27                                    
  22812108.584 6    706841.960 6     -2335.634 6        41.044                  
  20777776.153 6   -766907.362 6      2375.436 6        40.942                  
  21864182.701 6    514344.026 6     -1664.085 6        36.429                  
  21730858.536 7  -1158279.047 7      3646.210 7        42.940                  
 18  6  1 13 17 22.2118020  0  4G04G23G26G27                                    
  22812155.428 6    707075.431 6     -2333.940 6        41.512                  
  20777734.366 7   -767145.027 7      2377.599 7        44.659                  
  21864214.015 6    514510.356 6     -1662.762 6        36.839                  
  21730792.892 7  -1158643.755 7      3647.477 7        43.693                  
 18  6  1 13 17 22.3118020  0  4G04G23G26G27                                    
  22812231.147 7    707308.814 7     -2333.676 7        43.648                  
  20777724.074 7   -767382.797 7      2378.162 7        43.056                  
  21864280.642 6    514676.590 6     -1662.464 6        39.909                  
  21730754.948 6  -1159008.567 6      3648.591 6        40.842                  
 18  6  1 13 17 22.4118020  0  4G04G23G26G27                                    
  22812284.698 6    707542.106 6     -2332.512 6        39.608                  
  20777686.511 7   -767620.657 7      2379.062 7        42.752                  
  21864319.446 6    514842.726 6     -1660.647 6        39.317                  
  21730695.567 6  -1159373.469 6      3649.730 6        40.123                  
 18  6  1 13 17 22.5118020  0  4G04G23G26G27                                    
  22812345.029 6    707775.323 6     -2332.096 6        40.730                  
  20777657.294 7   -767858.574 7      2379.330 7        43.300                  
  21864366.842 6    515008.805 6     -1660.359 6        37.985                  
  21730643.490 6  -1159738.425 6      3649.566 6        41.451                  
 18  6  1 13 17 22.6118020  0  4G04G23G26G27                                    
  22812390.264 6    708008.509 6     -2331.742 6        41.224                  
  20777606.683 6   -768096.526 6      2379.817 6        41.911                  
  21864393.865 6    515174.834 6     -1660.247 6        37.414                  
  21730569.499 7  -1160103.436 7      3650.289 7        42.802                  
 18  6  1 13 17 22.7118020  0  4G04G23G26G27                                    
  22812494.385 7    708241.680 7     -2331.303 7        42.825                  
  20777629.384 7   -768334.496 7      2379.481 7        43.195                  
  21864496.067 5    515340.872 5     -1661.255 5        35.631                  
  21730562.375 6  -1160468.417 6      3649.747 6        40.305                  
 18  6  1 13 17 22.8118020  0  4G04G23G26G27                                    
  22812507.982 6    708474.857 6     -2332.162 6        41.812                  
  20777545.005 6   -768572.440 6      2379.215 6        40.900                  
  21864483.948 6    515506.900 6     -1659.705 6        36.097                  
  21730452.376 7  -1160833.424 7      3650.143 7        42.154                  
 18  6  1 13 17 22.9118020  0  4G04G23G26G27                                    
  22812563.253 6    708708.063 6     -2332.008 6        38.935                  
  20777515.036 7   -768810.365 7      2379.422 7        43.933                  
  21864526.542 6    515672.958 6     -1660.640 6        37.097                  
  21730398.377 6  -1161198.385 6      3649.438 6        41.055                  
 18  6  1 13 17 23.0118020  0  4G04G23G26G27                                    
  22812655.795 6    708941.241 6     -2331.333 6        39.997                  
  20777523.457 7   -769048.309 7      2379.653 7        42.707                  
  21864614.465 5    515838.996 5     -1660.254 5        34.256                  
  21730382.484 6  -1161563.375 6      3650.523 6        41.406                  
 18  6  1 13 17 23.1118020  0  4G04G23G26G27                                    
  22812740.079 6    709174.342 6     -2330.911 6        39.702                  
  20777520.578 7   -769286.316 7      2380.311 7        42.429                  
  21864691.151 6    516004.960 6     -1658.240 6        37.804                  
  21730352.907 6  -1161928.438 6      3650.523 6        39.518                  
 18  6  1 13 17 23.2118020  0  4G04G23G26G27                                    
  22812770.044 6    709407.415 6     -2330.523 6        40.728                  
  20777458.220 7   -769524.371 7      2380.704 7        42.905                  
  21864701.031 6    516170.887 6     -1659.741 6        37.890                  
  21730268.254 7  -1162293.526 7      3651.108 7        42.717                  
 18  6  1 13 17 23.3118020  0  4G04G23G26G27                                    
  22812827.812 7    709640.443 7     -2329.804 7        42.412                  
  20777430.669 6   -769762.444 6      2381.225 6        41.010                  
  21864746.489 5    516336.766 5     -1658.839 5        33.629                  
  21730215.545 7  -1162658.658 7      3651.766 7        44.065                  
 18  6  1 13 17 23.4118020  0  4G04G23G26G27                                    
  22812889.550 6    709873.374 6     -2328.942 6        40.773                  
  20777400.041 7   -770000.613 7      2381.778 7        46.043                  
  21864794.886 6    516502.576 6     -1657.149 6        36.414                  
  21730164.278 6  -1163023.876 6      3652.668 6        41.382                  
 18  6  1 13 17 23.5118020  0  4G04G23G26G27                                    
  22812956.195 6    710106.272 6     -2328.578 6        40.293                  
  20777375.357 7   -770238.827 7      2382.378 7        43.155                  
  21864849.771 6    516668.315 6     -1657.162 6        37.874                  
  21730120.983 6  -1163389.143 6      3652.817 6        41.313                  
 18  6  1 13 17 23.6118020  0  4G04G23G26G27                                    
  22812996.287 6    710339.119 6     -2328.625 6        39.672                  
  20777312.648 6   -770477.075 6      2382.513 6        41.570                  
  21864868.284 6    516834.050 6     -1657.726 6        36.214                  
  21730035.011 6  -1163754.443 6      3652.661 6        41.612                  
 18  6  1 13 17 23.7118020  0  4G04G23G26G27                                    
  22813026.653 6    710571.968 6     -2328.216 6        41.601                  
  20777254.340 7   -770715.325 7      2382.685 7        42.943                  
  21864879.191 6    516999.749 6     -1656.853 6        40.284                  
  21729948.217 6  -1164119.729 6      3652.963 6        40.841                  
 18  6  1 13 17 23.8118020  0  4G04G23G26G27                                    
  22813112.934 6    710804.778 6     -2328.530 6        41.371                  
  20777250.396 7   -770953.609 7      2383.020 7        45.416                  
  21864957.393 5    517165.430 5     -1656.501 5        34.263                  
  21729918.731 6  -1164485.063 6      3653.772 6        41.546                  
 18  6  1 13 17 23.9118020  0  4G04G23G26G27                                    
  22813216.952 6    711037.541 6     -2326.742 6        38.279                  
  20777277.078 7   -771191.934 7      2383.331 7        43.183                  
  21865061.322 6    517331.069 6     -1656.133 6        37.716                  
  21729920.167 7  -1164850.451 7      3654.242 7        43.441                  
 18  6  1 13 17 24.0118020  0  4G04G23G26G27                                    
  22813256.229 6    711270.250 6     -2327.259 6        40.843                  
  20777221.144 7   -771430.298 7      2383.874 7        43.061                  
  21865081.330 5    517496.644 5     -1655.929 5        35.526                  
  21729840.546 6  -1165215.883 6      3654.812 6        40.161                  
