     2.10           OBSERVATION DATA    G                   RINEX VERSION / TYPE
BLANK OR G = GPS,  R = GLONASS,  E = GALILEO,  M = MIXED    COMMENT             
GNSS-SDR            heath                4-JUN-18 18:06     PGM / RUN BY / DATE 
GPS OBSERVATION DATA FILE GENERATED BY GNSS-SDR             COMMENT             
GNSS-SDR VERSION 0.0.9                                      COMMENT             
See http://gnss-sdr.org                                     COMMENT             
DEFAULT MARKER NAME                                         MARKER NAME         
heath               CTTC                                    OBSERVER / AGENCY   
GNSS-SDR            Software Receiver   0.0.9               REC # / TYPE / VERS 
Antenna number      Antenna type                            ANT # / TYPE        
        0.0000        0.0000        0.0000                  APPROX POSITION XYZ 
        0.0000        0.0000        0.0000                  ANTENNA: DELTA H/E/N
     1     1                                                WAVELENGTH FACT L1/2
     4    C1    L1    D1    S1                              # / TYPES OF OBSERV 
  2018    06    04    18    06   49.1238020     GPS         TIME OF FIRST OBS   
    18                                                      LEAP SECONDS        
                                                            END OF HEADER       
 18  6  4 18 06 49.1238020  0  4G01G07G11G30                                    
  20748463.561 6    -43901.199 6       837.806 6        40.447                  
  21184190.252 7     77837.102 7     -1692.357 7        45.024                  
  20867896.985 6     23478.932 6      -575.000 6        38.263                  
  20370693.813 6     -5885.278 6        58.156 6        41.463                  
 18  6  4 18 06 49.2238020  0  4G01G07G11G30                                    
  20748468.361 6    -43985.089 6       840.226 6        40.543                  
  21184240.568 7     78006.210 7     -1689.653 7        44.470                  
  20867927.262 6     23536.297 6      -572.593 6        40.783                  
  20370706.157 7     -5891.250 7        60.875 7        42.515                  
 18  6  4 18 06 49.3238020  0  4G01G07G11G30                                    
  20748474.942 7    -44069.219 7       842.092 7        43.093                  
  21184298.777 7     78175.078 7     -1687.779 7        43.346                  
  20867959.070 6     23593.419 6      -570.048 6        40.129                  
  20370730.459 7     -5897.463 7        63.139 7        44.012                  
 18  6  4 18 06 49.4238020  0  4G01G07G11G30                                    
  20748416.914 6    -44153.531 6       843.825 6        41.788                  
  21184289.163 7     78343.741 7     -1685.457 7        46.341                  
  20867935.680 6     23650.336 6      -568.300 6        41.010                  
  20370688.774 7     -5903.862 7        64.983 7        44.235                  
 18  6  4 18 06 49.5238020  0  4G01G07G11G30                                    
  20748479.379 7    -44238.038 7       846.269 7        42.191                  
  21184395.795 7     78512.229 7     -1683.931 7        42.766                  
  20868019.022 6     23707.089 6      -566.492 6        39.495                  
  20370764.117 7     -5910.454 7        66.828 7        42.388                  
 18  6  4 18 06 49.6238020  0  4G01G07G11G30                                    
  20748460.760 6    -44322.747 6       847.882 6        41.897                  
  21184429.076 7     78680.505 7     -1681.813 7        43.789                  
  20868028.297 6     23763.624 6      -564.735 6        41.345                  
  20370762.293 7     -5917.238 7        68.962 7        43.121                  
 18  6  4 18 06 49.7238020  0  4G01G07G11G30                                    
  20748502.400 7    -44407.587 7       848.957 7        42.507                  
  21184520.183 7     78848.656 7     -1681.154 7        44.195                  
  20868090.895 6     23820.028 6      -563.212 6        40.464                  
  20370818.318 7     -5924.170 7        69.542 7        43.802                  
 18  6  4 18 06 49.8238020  0  4G01G07G11G30                                    
  20748486.007 6    -44492.443 6       848.094 6        40.536                  
  21184553.107 7     79016.775 7     -1681.254 7        44.634                  
  20868102.568 6     23876.408 6      -564.359 6        38.952                  
  20370815.706 7     -5931.108 7        69.307 7        44.264                  
 18  6  4 18 06 49.9238020  0  4G01G07G11G30                                    
  20748505.923 7    -44577.223 7       847.224 7        43.904                  
  21184610.389 7     79184.970 7     -1682.877 7        45.912                  
  20868152.280 6     23932.871 6      -565.398 6        40.143                  
  20370847.747 6     -5937.986 6        68.066 6        41.722                  
 18  6  4 18 06 50.0238020  0  4G01G07G11G30                                    
  20748440.861 7    -44661.849 7       845.324 7        43.168                  
  21184597.608 7     79353.321 7     -1684.321 7        45.788                  
  20868119.934 6     23989.499 6      -567.058 6        41.066                  
  20370797.280 7     -5944.702 7        66.105 7        42.488                  
 18  6  4 18 06 50.1238020  0  4G01G07G11G30                                    
  20748471.868 6    -44746.323 6       843.761 6        40.769                  
  21184674.642 7     79521.821 7     -1685.918 7        45.040                  
  20868176.548 6     24046.257 6      -568.160 6        38.729                  
  20370846.694 7     -5951.260 7        64.922 7        42.890                  
 18  6  4 18 06 50.2238020  0  4G01G07G11G30                                    
  20748434.443 7    -44830.593 7       841.635 7        42.393                  
  21184690.061 7     79690.529 7     -1688.212 7        44.959                  
  20868167.524 7     24103.219 7      -571.055 7        42.122                  
  20370822.239 7     -5957.623 7        61.957 7        42.432                  
 18  6  4 18 06 50.3238020  0  4G01G07G11G30                                    
  20748450.854 6    -44914.554 6       837.881 6        41.403                  
  21184756.537 7     79859.530 7     -1691.741 7        44.505                  
  20868207.704 6     24160.500 6      -574.189 6        40.431                  
  20370853.071 7     -5963.674 7        59.497 7        43.151                  
 18  6  4 18 06 50.4238020  0  4G01G07G11G30                                    
  20748524.308 6    -44998.293 6       837.029 6        41.041                  
  21184871.076 7     80028.770 7     -1692.857 7        44.630                  
  20868303.367 6     24217.996 6      -575.556 6        41.126                  
  20370942.205 6     -5969.503 6        57.380 6        40.573                  
 18  6  4 18 06 50.5238020  0  4G01G07G11G30                                    
  20748501.472 7    -45081.946 7       836.565 7        42.101                  
  21184896.580 7     80198.074 7     -1692.998 7        45.198                  
  20868309.236 6     24275.577 6      -576.086 6        40.388                  
  20370931.028 7     -5975.255 7        57.570 7        44.405                  
 18  6  4 18 06 50.6238020  0  4G01G07G11G30                                    
  20748566.528 7    -45165.596 7       836.692 7        42.877                  
  21185006.619 7     80367.394 7     -1693.061 7        43.665                  
  20868394.242 6     24333.153 6      -575.296 6        39.141                  
  20371008.582 7     -5980.995 7        57.844 7        44.210                  
 18  6  4 18 06 50.7238020  0  4G01G07G11G30                                    
  20748476.832 6    -45249.368 6       838.680 6        40.699                  
  21184972.137 7     80536.578 7     -1690.826 7        46.177                  
  20868339.631 6     24390.607 6      -573.728 6        41.516                  
  20370936.340 7     -5986.865 7        59.658 7        44.657                  
 18  6  4 18 06 50.8238020  0  4G01G07G11G30                                    
  20748483.587 7    -45333.321 7       840.184 7        43.565                  
  21185026.061 7     80705.582 7     -1688.928 7        46.164                  
  20868372.951 6     24447.885 6      -571.311 6        41.415                  
  20370957.347 7     -5992.910 7        61.042 7        43.460                  
 18  6  4 18 06 50.9238020  0  4G01G07G11G30                                    
  20748442.575 7    -45417.414 7       841.111 7        43.416                  
  21185033.666 7     80874.440 7     -1688.417 7        44.713                  
  20868365.900 7     24504.988 7      -571.298 7        42.788                  
  20370937.269 7     -5999.112 7        62.779 7        44.726                  
 18  6  4 18 06 51.0238020  0  4G01G07G11G30                                    
  20748485.633 7    -45501.553 7       841.367 7        42.736                  
  21185119.631 7     81043.263 7     -1688.906 7        43.044                  
  20868433.494 6     24562.091 6      -571.514 6        39.846                  
  20370994.777 7     -6005.332 7        61.234 7        44.871                  
 18  6  4 18 06 51.1238020  0  4G01G07G11G30                                    
  20748452.775 7    -45585.588 7       840.051 7        43.336                  
  21185140.723 7     81212.184 7     -1689.183 7        45.520                  
  20868427.891 6     24619.286 6      -572.160 6        41.797                  
  20370975.048 6     -6011.466 6        61.687 6        41.841                  
 18  6  4 18 06 51.2238020  0  4G01G07G11G30                                    
  20748482.553 7    -45669.651 7       841.336 7        42.440                  
  21185219.571 7     81381.070 7     -1687.919 7        42.233                  
  20868480.212 6     24676.452 6      -570.449 6        38.674                  
  20371018.885 7     -6017.626 7        62.084 7        44.128                  
 18  6  4 18 06 51.3238020  0  4G01G07G11G30                                    
  20748552.486 6    -45753.899 6       844.210 6        41.708                  
  21185331.904 7     81549.768 7     -1685.534 7        44.089                  
  20868569.813 6     24733.411 6      -568.495 6        40.250                  
  20371097.956 7     -6023.972 7        65.072 7        44.730                  
 18  6  4 18 06 51.4238020  0  4G01G07G11G30                                    
  20748494.246 7    -45838.501 7       847.665 7        42.494                  
  21185324.804 7     81718.102 7     -1681.529 7        44.137                  
  20868546.235 6     24790.026 6      -564.092 6        40.848                  
  20371060.624 6     -6030.674 6        69.197 6        41.006                  
 18  6  4 18 06 51.5238020  0  4G01G07G11G30                                    
  20748428.662 6    -45923.480 6       851.567 6        41.953                  
  21185312.803 7     81886.064 7     -1677.943 7        44.562                  
  20868514.615 6     24846.250 6      -560.417 6        41.069                  
  20371015.295 7     -6037.769 7        72.168 7        43.015                  
 18  6  4 18 06 51.6238020  0  4G01G07G11G30                                    
  20748489.723 7    -46008.824 7       855.564 7        42.909                  
  21185419.813 7     82053.665 7     -1673.915 7        45.184                  
  20868595.218 6     24902.125 6      -556.730 6        39.465                  
  20371087.830 7     -6045.204 7        76.672 7        42.500                  
 18  6  4 18 06 51.7238020  0  4G01G07G11G30                                    
  20748549.105 6    -46094.519 6       858.309 6        39.188                  
  21185526.302 7     82220.902 7     -1670.781 7        46.517                  
  20868674.670 6     24957.644 6      -553.404 6        41.648                  
  20371161.573 7     -6053.000 7        79.146 7        43.924                  
 18  6  4 18 06 51.8238020  0  4G01G07G11G30                                    
  20748478.287 7    -46180.500 7       861.012 7        42.601                  
  21185505.261 7     82387.858 7     -1668.531 7        43.610                  
  20868637.876 6     25012.891 6      -551.804 6        41.089                  
  20371102.869 7     -6061.091 7        82.119 7        42.174                  
 18  6  4 18 06 51.9238020  0  4G01G07G11G30                                    
  20748522.290 6    -46266.663 6       862.217 6        40.051                  
  21185592.108 7     82554.638 7     -1667.092 7        44.834                  
  20868706.311 7     25067.925 7      -549.298 7        42.002                  
  20371161.277 7     -6069.351 7        83.303 7        42.939                  
 18  6  4 18 06 52.0238020  0  4G01G07G11G30                                    
  20748478.210 7    -46353.010 7       864.725 7        42.390                  
  21185601.222 7     82721.227 7     -1664.988 7        44.736                  
  20868692.724 6     25122.790 6      -547.693 6        41.944                  
  20371134.476 6     -6077.797 6        85.531 6        41.665                  
 18  6  4 18 06 52.1238020  0  4G01G07G11G30                                    
  20748485.271 7    -46439.572 7       866.563 7        43.364                  
  21185658.512 7     82887.583 7     -1662.289 7        43.355                  
  20868724.568 6     25177.431 6      -545.621 6        41.358                  
  20371155.803 7     -6086.466 7        87.838 7        42.498                  
 18  6  4 18 06 52.2238020  0  4G01G07G11G30                                    
  20748423.952 7    -46526.352 7       869.137 7        42.448                  
  21185647.600 7     83053.733 7     -1660.282 7        45.084                  
  20868696.010 6     25231.860 6      -543.028 6        41.234                  
  20371107.422 7     -6095.356 7        90.028 7        43.837                  
 18  6  4 18 06 52.3238020  0  4G01G07G11G30                                    
  20748467.588 7    -46613.355 7       871.199 7        43.382                  
  21185737.744 7     83219.644 7     -1658.110 7        45.147                  
  20868762.874 6     25286.049 6      -540.755 6        41.668                  
  20371167.942 7     -6104.466 7        92.624 7        42.489                  
 18  6  4 18 06 52.4238020  0  4G01G07G11G30                                    
  20748426.385 6    -46700.646 6       873.911 6        41.593                  
  21185744.553 7     83385.286 7     -1655.095 7        44.167                  
  20868754.252 7     25339.978 7      -538.094 7        42.694                  
  20371142.518 7     -6113.855 7        94.681 7        43.042                  
 18  6  4 18 06 52.5238020  0  4G01G07G11G30                                    
  20748517.892 7    -46788.032 7       873.182 7        42.782                  
  21185876.861 7     83550.816 7     -1655.701 7        44.663                  
  20868863.921 6     25393.781 6      -538.461 6        41.437                  
  20371243.999 7     -6123.362 7        94.519 7        42.807                  
 18  6  4 18 06 52.6238020  0  4G01G07G11G30                                    
  20748543.636 7    -46875.331 7       873.222 7        42.594                  
  21185953.369 7     83716.431 7     -1656.193 7        44.120                  
  20868914.722 6     25447.668 6      -538.806 6        41.198                  
  20371292.600 7     -6132.762 7        94.202 7        45.639                  
 18  6  4 18 06 52.7238020  0  4G01G07G11G30                                    
  20748545.369 7    -46962.760 7       876.024 7        42.773                  
  21186004.025 7     83881.918 7     -1653.118 7        44.015                  
  20868942.411 6     25501.445 6      -535.906 6        41.658                  
  20371307.911 7     -6142.309 7        96.920 7        44.129                  
 18  6  4 18 06 52.8238020  0  4G01G07G11G30                                    
  20748565.068 7    -47050.547 7       879.672 7        43.194                  
  21186068.108 7     84047.061 7     -1649.586 7        45.812                  
  20868987.192 7     25554.869 7      -532.204 7        42.571                  
  20371337.596 6     -6152.184 6       100.826 6        41.772                  
 18  6  4 18 06 52.9238020  0  4G01G07G11G30                                    
  20748531.839 7    -47138.695 7       883.126 7        42.909                  
  21186088.324 7     84211.817 7     -1645.928 7        44.771                  
  20868983.284 6     25607.913 6      -528.951 6        40.592                  
  20371322.601 7     -6162.448 7       104.234 7        42.020                  
 18  6  4 18 06 53.0238020  0  4G01G07G11G30                                    
  20748526.375 7    -47227.118 7       885.346 7        43.085                  
  21186130.225 7     84376.292 7     -1643.510 7        45.541                  
  20869005.684 6     25660.670 6      -527.153 6        40.175                  
  20371331.076 7     -6172.986 7       106.413 7        44.115                  
 18  6  4 18 06 53.1238020  0  4G01G07G11G30                                    
  20748528.626 7    -47315.695 7       885.475 7        42.743                  
  21186183.038 7     84540.633 7     -1643.648 7        42.601                  
  20869035.271 7     25713.289 7      -525.901 7        42.253                  
  20371353.926 7     -6183.674 7       106.793 7        44.080                  
 18  6  4 18 06 53.2238020  0  4G01G07G11G30                                    
  20748550.221 6    -47404.234 6       885.393 6        40.569                  
  21186250.559 6     84704.984 6     -1643.933 6        41.808                  
  20869080.669 7     25765.940 7      -526.609 7        42.121                  
  20371385.026 7     -6194.327 7       106.251 7        43.137                  
 18  6  4 18 06 53.3238020  0  4G01G07G11G30                                    
  20748560.156 7    -47492.720 7       884.805 7        42.138                  
  21186306.213 7     84869.405 7     -1644.022 7        46.249                  
  20869117.325 6     25818.640 6      -527.140 6        39.488                  
  20371408.439 7     -6204.931 7       105.846 7        43.196                  
 18  6  4 18 06 53.4238020  0  4G01G07G11G30                                    
  20748570.022 6    -47581.230 6       884.991 6        41.868                  
  21186359.566 7     85033.809 7     -1643.888 7        44.648                  
  20869152.902 6     25871.321 6      -526.533 6        40.852                  
  20371425.024 7     -6215.549 7       106.488 7        43.362                  
 18  6  4 18 06 53.5238020  0  4G01G07G11G30                                    
  20748462.069 6    -47669.807 6       886.125 6        40.849                  
  21186307.184 7     85198.127 7     -1642.745 7        44.048                  
  20869084.393 6     25923.944 6      -525.500 6        37.738                  
  20371341.218 7     -6226.241 7       107.336 7        43.836                  
 18  6  4 18 06 53.6238020  0  4G01G07G11G30                                    
  20748529.534 7    -47758.485 7       887.946 7        44.080                  
  21186415.270 7     85362.339 7     -1641.486 7        44.078                  
  20869171.811 6     25976.428 6      -524.752 6        37.936                  
  20371414.819 7     -6237.038 7       108.572 7        42.104                  
 18  6  4 18 06 53.7238020  0  4G01G07G11G30                                    
  20748534.624 7    -47847.305 7       888.807 7        42.039                  
  21186470.880 7     85526.409 7     -1639.888 7        45.662                  
  20869203.793 6     26028.789 6      -522.577 6        39.537                  
  20371440.178 6     -6247.979 6       110.414 6        41.958                  
 18  6  4 18 06 53.8238020  0  4G01G07G11G30                                    
  20748502.460 7    -47936.225 7       889.266 7        44.355                  
  21186495.210 7     85690.389 7     -1639.410 7        43.977                  
  20869200.206 6     26081.061 6      -522.248 6        41.533                  
  20371429.569 7     -6259.009 7       110.427 7        43.528                  
 18  6  4 18 06 53.9238020  0  4G01G07G11G30                                    
  20748478.193 7    -48025.244 7       890.776 7        42.160                  
  21186519.452 7     85854.248 7     -1637.701 7        43.440                  
  20869205.670 6     26133.213 6      -520.820 6        39.492                  
  20371419.752 7     -6270.157 7       112.481 7        44.087                  
 18  6  4 18 06 54.0238020  0  4G01G07G11G30                                    
  20748468.713 7    -48114.459 7       893.693 7        42.300                  
  21186555.015 7     86017.923 7     -1635.663 7        44.068                  
  20869226.276 7     26185.180 7      -518.697 7        43.548                  
  20371425.392 7     -6281.486 7       114.147 7        42.855                  
 18  6  4 18 06 54.1238020  0  5G01G07G11G17G30                                 
  20748500.540 7    -48203.845 7       894.595 7        44.543                  
  21186633.953 7     86181.420 7     -1634.674 7        44.475                  
  20869280.875 7     26236.960 7      -517.682 7        42.182                  
  22288688.269 7   -146810.608 7      2751.378 7        43.144                  
  20371469.455 7     -6292.995 7       115.916 7        43.214                  
 18  6  4 18 06 54.2238020  0  5G01G07G11G17G30                                 
  20748521.978 6    -48293.298 6       894.564 6        40.128                  
  21186702.399 7     86344.853 7     -1633.978 7        45.160                  
  20869326.727 6     26288.687 6      -516.725 6        41.253                  
  22288671.227 6   -146949.651 6      2752.561 6        41.244                  
  20371503.976 7     -6304.565 7       115.899 7        43.976                  
 18  6  4 18 06 54.3238020  0  5G01G07G11G17G30                                 
  20748603.489 6    -48382.771 6       894.351 6        40.852                  
  21186831.438 7     86508.263 7     -1634.251 7        43.780                  
  20869424.838 6     26340.385 6      -517.285 6        38.646                  
  22288717.531 7   -147224.929 7      2752.604 7        44.150                  
  20371598.530 7     -6316.162 7       115.590 7        43.149                  
 18  6  4 18 06 54.4238020  0  5G01G07G11G17G30                                 
  20748612.032 7    -48472.178 7       893.370 7        43.638                  
  21186882.637 6     86671.732 6     -1635.468 6        40.988                  
  20869461.714 6     26392.159 6      -518.135 6        41.472                  
  22288690.789 7   -147500.129 7      2751.390 7        44.185                  
  20371619.658 7     -6327.686 7       114.541 7        43.364                  
 18  6  4 18 06 54.5238020  0  5G01G07G11G17G30                                 
  20748557.068 7    -48561.446 7       891.944 7        45.238                  
  21186873.864 7     86835.342 7     -1636.944 7        44.499                  
  20869439.626 6     26444.065 6      -519.571 6        39.882                  
  22288596.009 7   -147775.209 7      2749.986 7        42.664                  
  20371573.212 7     -6339.087 7       113.348 7        42.684                  
 18  6  4 18 06 54.6238020  0  5G01G07G11G17G30                                 
  20748537.570 7    -48650.519 7       889.287 7        43.084                  
  21186905.725 7     86999.147 7     -1638.959 7        42.845                  
  20869448.495 6     26496.158 6      -522.466 6        39.550                  
  22288541.288 7   -148050.082 7      2747.952 7        42.963                  
  20371570.692 7     -6350.286 7       110.929 7        42.003                  
 18  6  4 18 06 54.7238020  0  5G01G07G11G17G30                                 
  20748526.085 7    -48739.352 7       887.493 7        42.286                  
  21186947.076 7     87163.177 7     -1641.631 7        44.676                  
  20869465.526 6     26548.479 6      -524.411 6        40.581                  
  22288502.889 6   -148324.739 6      2745.013 6        41.807                  
  20371582.061 7     -6361.245 7       108.173 7        42.097                  
 18  6  4 18 06 54.8238020  0  5G01G07G11G17G30                                 
  20748543.353 7    -48827.997 7       886.011 7        43.948                  
  21187008.923 7     87327.406 7     -1642.945 7        46.109                  
  20869509.742 6     26601.005 6      -525.757 6        40.756                  
  22288480.681 7   -148599.193 7      2744.070 7        44.335                  
  20371614.282 7     -6372.014 7       107.199 7        42.218                  
 18  6  4 18 06 54.9238020  0  5G01G07G11G17G30                                 
  20748630.634 7    -48916.526 7       884.364 7        42.432                  
  21187139.441 7     87491.749 7     -1643.945 7        43.619                  
  20869614.189 6     26653.646 6      -526.763 6        39.348                  
  22288529.323 7   -148873.543 7      2743.355 7        43.012                  
  20371711.208 6     -6382.664 6       105.863 6        41.807                  
 18  6  4 18 06 55.0238020  0  5G01G07G11G17G30                                 
  20748598.958 6    -49004.948 6       884.186 6        41.773                  
  21187159.391 7     87656.186 7     -1644.318 7        42.686                  
  20869613.466 6     26706.378 6      -527.742 6        39.310                  
  22288463.708 7   -149147.798 7      2741.853 7        45.398                  
  20371700.101 7     -6393.224 7       105.654 7        42.278                  
 18  6  4 18 06 55.1238020  0  5G01G07G11G17G30                                 
  20748558.776 7    -49093.390 7       884.835 7        42.586                  
  21187171.440 7     87820.595 7     -1643.621 7        45.554                  
  20869603.484 6     26759.095 6      -526.163 6        41.800                  
  22288390.369 7   -149422.071 7      2743.483 7        42.437                  
  20371676.146 7     -6403.801 7       106.102 7        43.650                  
 18  6  4 18 06 55.2238020  0  5G01G07G11G17G30                                 
  20748564.661 7    -49181.983 7       887.229 7        44.047                  
  21187223.123 7     87984.861 7     -1641.841 7        45.425                  
  20869636.392 6     26811.660 6      -525.029 6        40.522                  
  22288360.430 7   -149696.496 7      2745.217 7        42.056                  
  20371695.058 7     -6414.520 7       107.807 7        43.887                  
 18  6  4 18 06 55.3238020  0  5G01G07G11G17G30                                 
  20748531.552 7    -49270.796 7       889.053 7        43.587                  
  21187236.835 7     88148.913 7     -1639.034 7        43.634                  
  20869635.242 7     26864.008 7      -522.295 7        43.440                  
  22288291.885 7   -149971.147 7      2747.833 7        44.444                  
  20371676.880 7     -6425.451 7       110.915 7        44.693                  
 18  6  4 18 06 55.4238020  0  5G01G07G11G17G30                                 
  20748487.843 7    -49359.846 7       891.627 7        42.368                  
  21187245.659 7     88312.717 7     -1637.152 7        44.910                  
  20869620.954 6     26916.115 6      -520.142 6        40.680                  
  22288215.467 6   -150246.031 6      2749.621 6        41.450                  
  20371646.299 7     -6436.634 7       112.661 7        43.797                  
 18  6  4 18 06 55.5238020  0  5G01G07G11G17G30                                 
  20748495.708 7    -49449.033 7       892.256 7        43.997                  
  21187299.757 7     88476.386 7     -1636.290 7        45.085                  
  20869655.993 6     26968.080 6      -519.369 6        41.676                  
  22288188.122 7   -150521.073 7      2751.140 7        42.413                  
  20371669.101 7     -6447.963 7       113.741 7        43.401                  
 18  6  4 18 06 55.6238020  0  5G01G07G11G17G30                                 
  20748582.926 7    -49538.283 7       892.876 7        42.926                  
  21187432.252 7     88639.981 7     -1635.692 7        42.229                  
  20869761.130 6     27019.982 6      -518.087 6        40.286                  
  22288232.906 7   -150796.177 7      2751.113 7        42.961                  
  20371771.615 6     -6459.338 6       114.377 6        41.826                  
 18  6  4 18 06 55.7238020  0  5G01G07G11G17G30                                 
  20748645.240 6    -49627.651 6       894.406 6        41.653                  
  21187535.646 7     88803.467 7     -1633.935 7        45.444                  
  20869844.465 6     27071.764 6      -517.392 6        38.245                  
  22288256.745 7   -151071.390 7      2753.107 7        44.642                  
  20371842.134 7     -6470.834 7       115.695 7        45.442                  
 18  6  4 18 06 55.8238020  0  5G01G07G11G17G30                                 
  20748652.089 7    -49717.180 7       896.343 7        43.418                  
  21187595.067 7     88966.766 7     -1631.893 7        43.394                  
  20869875.124 6     27123.384 6      -515.346 6        39.499                  
  22288230.276 6   -151346.782 6      2755.101 6        41.681                  
  20371864.277 6     -6482.502 6       117.556 6        41.079                  
 18  6  4 18 06 55.9238020  0  5G01G07G11G17G30                                 
  20748640.780 7    -49806.925 7       898.374 7        42.734                  
  21187634.112 7     89129.874 7     -1630.133 7        46.070                  
  20869892.269 6     27174.782 6      -512.988 6        37.073                  
  22288187.405 6   -151622.395 6      2757.217 6        41.368                  
  20371871.544 6     -6494.383 6       119.763 6        40.312                  
 18  6  4 18 06 56.0238020  0  5G01G07G11G17G30                                 
  20748583.041 7    -49896.835 7       899.307 7        45.745                  
  21187626.938 7     89292.811 7     -1629.191 7        43.677                  
  20869867.458 6     27226.020 6      -512.167 6        41.394                  
  22288098.914 7   -151898.164 7      2757.500 7        44.016                  
  20371828.800 7     -6506.430 7       120.677 7        44.010                  
 18  6  4 18 06 56.1238020  0  5G01G07G11G17G30                                 
  20748564.080 6    -49986.732 6       898.567 6        41.828                  
  21187652.670 7     89455.757 7     -1630.040 7        45.105                  
  20869878.582 6     27277.273 6      -513.233 6        39.529                  
  22288041.759 7   -152173.928 7      2757.485 7        42.865                  
  20371820.884 7     -6518.458 7       119.830 7        42.227                  
 18  6  4 18 06 56.2238020  0  5G01G07G11G17G30                                 
  20748622.506 7    -50076.509 7       897.534 7        43.645                  
  21187757.201 7     89618.806 7     -1630.507 7        43.914                  
  20869956.551 6     27328.642 6      -513.388 6        41.272                  
  22288061.858 7   -152449.592 7      2756.310 7        43.855                  
  20371890.173 7     -6530.376 7       119.309 7        42.504                  
 18  6  4 18 06 56.3238020  0  5G01G07G11G17G30                                 
  20748652.859 6    -50166.407 6       900.759 6        41.168                  
  21187833.996 7     89781.735 7     -1627.726 7        46.119                  
  20870011.436 6     27379.872 6      -510.824 6        40.874                  
  22288056.065 7   -152725.368 7      2759.499 7        46.000                  
  20371936.332 7     -6542.419 7       121.858 7        42.002                  
 18  6  4 18 06 56.4238020  0  5G01G07G11G17G30                                 
  20748636.718 6    -50256.635 6       903.615 6        39.559                  
  21187865.820 7     89944.350 7     -1624.442 7        42.791                  
  20870025.456 6     27430.790 6      -507.946 6        40.229                  
  22288000.807 6   -153001.472 6      2762.774 6        41.955                  
  20371938.015 7     -6554.777 7       125.099 7        43.536                  
 18  6  4 18 06 56.5238020  0  5G01G07G11G17G30                                 
  20748601.509 7    -50347.129 7       905.958 7        42.367                  
  21187883.131 7     90106.684 7     -1622.411 7        43.410                  
  20870021.351 6     27481.431 6      -505.021 6        39.515                  
  22287940.116 6   -153277.852 6      2764.906 6        40.462                  
  20371924.022 7     -6567.415 7       127.340 7        43.920                  
 18  6  4 18 06 56.6238020  0  5G01G07G11G17G30                                 
  20748529.317 7    -50437.789 7       906.566 7        42.087                  
  21187864.208 7     90268.848 7     -1621.593 7        43.918                  
  20869982.645 6     27531.914 6      -504.764 6        39.216                  
  22287832.307 7   -153554.408 7      2765.485 7        42.605                  
  20371867.674 7     -6580.216 7       127.812 7        43.387                  
 18  6  4 18 06 56.7238020  0  5G01G07G11G17G30                                 
  20748509.803 6    -50528.379 6       905.148 6        41.545                  
  21187894.496 7     90431.096 7     -1623.414 7        43.238                  
  20869991.507 6     27582.465 6      -506.651 6        38.877                  
  22287777.670 7   -153830.890 7      2763.808 7        44.014                  
  20371862.544 7     -6592.940 7       126.498 7        42.909                  
 18  6  4 18 06 56.8238020  0  5G01G07G11G17G30                                 
  20748560.208 6    -50618.728 6       901.713 6        41.925                  
  21187989.624 7     90593.564 7     -1626.118 7        44.344                  
  20870064.183 6     27633.239 6      -508.723 6        40.073                  
  22287792.207 7   -154107.138 7      2761.273 7        44.499                  
  20371926.602 7     -6605.436 7       123.795 7        44.299                  
 18  6  4 18 06 56.9238020  0  5G01G07G11G17G30                                 
  20748588.017 6    -50708.805 6       900.075 6        41.244                  
  21188064.314 7     90756.311 7     -1629.104 7        45.140                  
  20870115.696 6     27684.309 6      -512.273 6        39.334                  
  22287779.647 7   -154383.119 7      2758.199 7        43.444                  
  20371967.576 7     -6617.650 7       120.617 7        42.506                  
 18  6  4 18 06 57.0238020  0  5G01G07G11G17G30                                 
  20748575.946 6    -50798.596 6       896.355 6        41.162                  
  21188101.215 7     90919.342 7     -1631.558 7        43.928                  
  20870130.862 6     27735.637 6      -515.171 6        39.564                  
  22287736.128 6   -154658.818 6      2755.695 6        41.574                  
  20371967.879 7     -6629.585 7       117.809 7        42.813                  
 18  6  4 18 06 57.1238020  0  5G01G07G11G17G30                                 
  20748622.801 7    -50888.160 7       894.707 7        43.393                  
  21188193.619 7     91082.604 7     -1633.152 7        44.446                  
  20870199.859 6     27787.210 6      -516.056 6        41.785                  
  22287746.416 7   -154934.281 7      2754.098 7        42.436                  
  20372028.089 7     -6641.288 7       116.400 7        43.671                  
 18  6  4 18 06 57.2238020  0  5G01G07G11G17G30                                 
  20748669.730 6    -50977.663 6       895.733 6        41.538                  
  21188284.312 7     91245.919 7     -1632.626 7        44.122                  
  20870268.703 6     27838.849 6      -515.992 6        39.994                  
  22287753.139 7   -155209.704 7      2754.941 7        44.601                  
  20372084.727 7     -6652.940 7       117.193 7        44.262                  
 18  6  4 18 06 57.3238020  0  5G01G07G11G17G30                                 
  20748671.413 6    -51067.329 6       897.983 6        40.828                  
  21188336.657 7     91409.057 7     -1629.687 7        45.043                  
  20870298.996 6     27890.303 6      -512.481 6        40.679                  
  22287719.906 7   -155485.303 7      2757.515 7        44.196                  
  20372110.783 7     -6664.752 7       119.838 7        43.588                  
 18  6  4 18 06 57.4238020  0  5G01G07G11G17G30                                 
  20748626.399 7    -51157.342 7       901.579 7        42.300                  
  21188345.709 7     91571.853 7     -1626.052 7        43.529                  
  20870284.488 6     27941.412 6      -509.295 6        40.155                  
  22287645.357 7   -155761.230 7      2761.129 7        43.462                  
  20372084.194 7     -6676.921 7       123.261 7        45.134                  
 18  6  4 18 06 57.5238020  0  5G01G07G11G17G30                                 
  20748639.594 6    -51247.715 6       905.923 6        41.673                  
  21188407.900 7     91734.278 7     -1622.604 7        44.947                  
  20870322.458 6     27992.154 6      -505.826 6        41.718                  
  22287626.200 7   -156037.540 7      2764.368 7        44.942                  
  20372111.884 7     -6689.442 7       126.997 7        43.418                  
 18  6  4 18 06 57.6238020  0  5G01G07G11G17G30                                 
  20748665.189 7    -51338.415 7       908.005 7        42.926                  
  21188474.453 7     91896.390 7     -1619.991 7        43.571                  
  20870374.929 6     28042.588 6      -503.019 6        41.549                  
  22287612.637 7   -156314.166 7      2767.760 7        42.798                  
  20372149.250 7     -6702.281 7       129.742 7        44.506                  
 18  6  4 18 06 57.7238020  0  5G01G07G11G17G30                                 
  20748637.083 6    -51429.355 6       911.063 6        41.760                  
  21188495.220 7     92058.242 7     -1617.126 7        45.096                  
  20870377.164 6     28092.753 6      -500.599 6        40.660                  
  22287550.989 7   -156591.050 7      2770.320 7        43.396                  
  20372136.604 7     -6715.377 7       132.387 7        42.747                  
 18  6  4 18 06 57.8238020  0  5G01G07G11G17G30                                 
  20748602.966 7    -51520.586 7       913.877 7        42.007                  
  21188511.080 7     92219.807 7     -1614.338 7        43.458                  
  20870373.487 6     28142.638 6      -497.281 6        40.366                  
  22287480.413 7   -156868.227 7      2773.327 7        42.494                  
  20372117.869 6     -6728.764 6       134.964 6        41.480                  
 18  6  4 18 06 57.9238020  0  5G01G07G11G17G30                                 
  20748581.838 7    -51612.110 7       916.467 7        43.024                  
  21188542.997 7     92381.086 7     -1610.908 7        46.162                  
  20870378.382 7     28192.237 7      -494.181 7        42.363                  
  22287427.647 7   -157145.692 7      2776.079 7        45.526                  
  20372109.027 7     -6742.433 7       138.574 7        44.399                  
 18  6  4 18 06 58.0238020  0  5G01G07G11G17G30                                 
  20748628.858 7    -51703.971 7       920.405 7        42.770                  
  21188634.746 7     92542.026 7     -1607.787 7        44.514                  
  20870448.560 6     28241.498 6      -491.071 6        39.937                  
  22287431.918 7   -157423.502 7      2779.869 7        45.019                  
  20372171.106 7     -6756.438 7       141.434 7        42.835                  
 18  6  4 18 06 58.1238020  0  5G01G07G11G17G30                                 
  20748646.253 7    -51796.147 7       923.300 7        43.698                  
  21188700.526 7     92702.636 7     -1604.298 7        44.662                  
  20870491.112 6     28290.429 6      -487.880 6        40.218                  
  22287411.705 7   -157701.633 7      2782.967 7        42.661                  
  20372204.657 7     -6770.773 7       144.863 7        42.557                  
 18  6  4 18 06 58.2238020  0  5G01G07G11G17G30                                 
  20748576.546 6    -51888.654 6       926.385 6        41.755                  
  21188677.896 7     92862.917 7     -1601.560 7        43.308                  
  20870457.370 6     28339.036 6      -484.260 6        38.737                  
  22287307.276 7   -157980.102 7      2786.173 7        42.605                  
  20372148.612 6     -6785.430 6       148.579 6        41.629                  
 18  6  4 18 06 58.3238020  0  5G01G07G11G17G30                                 
  20748562.558 7    -51981.434 7       928.986 7        43.911                  
  21188717.437 7     93022.934 7     -1599.084 7        45.371                  
  20870471.842 6     28387.376 6      -482.307 6        41.368                  
  22287271.708 7   -158258.838 7      2788.231 7        44.108                  
  20372157.588 7     -6800.362 7       150.237 7        42.416                  
 18  6  4 18 06 58.4238020  0  5G01G07G11G17G30                                 
  20748605.064 7    -52074.417 7       931.238 7        42.429                  
  21188805.581 7     93182.722 7     -1597.118 7        44.018                  
  20870537.296 7     28435.486 7      -480.194 7        42.060                  
  22287278.034 7   -158537.792 7      2790.747 7        43.989                  
  20372214.396 6     -6815.502 6       152.183 6        41.770                  
 18  6  4 18 06 58.5238020  0  5G01G07G11G17G30                                 
  20748621.775 7    -52167.567 7       931.280 7        43.393                  
  21188870.320 7     93342.370 7     -1595.777 7        45.614                  
  20870578.851 6     28483.457 6      -479.125 6        41.184                  
  22287258.450 7   -158816.911 7      2791.580 7        45.354                  
  20372245.488 7     -6830.811 7       153.716 7        43.131                  
 18  6  4 18 06 58.6238020  0  5G01G07G11G17G30                                 
  20748608.434 7    -52260.819 7       933.684 7        44.416                  
  21188905.123 7     93501.892 7     -1594.737 7        43.077                  
  20870593.430 6     28531.315 6      -478.245 6        38.965                  
  22287214.352 7   -159096.132 7      2792.961 7        44.381                  
  20372244.688 6     -6846.212 6       154.215 6        41.674                  
 18  6  4 18 06 58.7238020  0  5G01G07G11G17G30                                 
  20748610.601 7    -52354.163 7       933.464 7        43.330                  
  21188949.164 7     93661.325 7     -1593.477 7        44.080                  
  20870624.488 6     28579.084 6      -477.268 6        41.818                  
  22287174.440 7   -159375.460 7      2793.895 7        43.961                  
  20372257.463 7     -6861.711 7       155.274 7        42.337                  
 18  6  4 18 06 58.8238020  0  5G01G07G11G17G30                                 
  20748695.615 7    -52447.646 7       935.909 7        43.016                  
  21189076.501 7     93820.629 7     -1592.673 7        42.707                  
  20870726.567 6     28626.693 6      -475.331 6        39.249                  
  22287218.302 7   -159654.921 7      2795.267 7        43.571                  
  20372349.553 7     -6877.353 7       157.385 7        44.779                  
 18  6  4 18 06 58.9238020  0  5G01G07G11G17G30                                 
  20748694.871 6    -52541.287 6       937.116 6        41.897                  
  21189124.078 7     93979.751 7     -1590.163 7        46.370                  
  20870752.194 6     28674.150 6      -473.679 6        40.681                  
  22287178.486 7   -159934.550 7      2797.100 7        43.800                  
  20372361.737 7     -6893.160 7       159.351 7        42.208                  
 18  6  4 18 06 59.0238020  0  5G01G07G11G17G30                                 
  20748711.691 7    -52635.136 7       939.434 7        44.569                  
  21189190.384 7     94138.682 7     -1588.214 7        45.061                  
  20870794.271 6     28721.407 6      -471.270 6        39.882                  
  22287156.526 7   -160214.395 7      2799.522 7        42.779                  
  20372396.662 7     -6909.156 7       161.152 7        42.449                  
 18  6  4 18 06 59.1238020  0  5G01G07G11G17G30                                 
  20748683.235 6    -52729.193 6       941.549 6        40.496                  
  21189214.213 7     94297.396 7     -1586.526 7        44.549                  
  20870796.618 6     28768.440 6      -469.648 6        39.969                  
  22287096.286 7   -160494.441 7      2801.483 7        43.938                  
  20372390.653 6     -6925.383 6       162.948 6        41.814                  
 18  6  4 18 06 59.2238020  0  5G01G07G11G17G30                                 
  20748625.565 7    -52823.293 7       940.695 7        42.295                  
  21189207.190 7     94456.061 7     -1586.951 7        44.561                  
  20870771.070 7     28815.436 7      -470.731 7        42.206                  
  22287004.374 7   -160774.549 7      2800.531 7        44.333                  
  20372345.740 7     -6941.652 7       162.184 7        42.936                  
 18  6  4 18 06 59.3238020  0  5G01G07G11G17G30                                 
  20748615.517 7    -52917.307 7       939.688 7        43.342                  
  21189247.738 7     94614.815 7     -1587.689 7        46.395                  
  20870788.430 6     28862.527 6      -470.692 6        40.189                  
  22286959.594 7   -161054.565 7      2800.116 7        42.412                  
  20372352.066 7     -6957.826 7       161.487 7        43.301                  
 18  6  4 18 06 59.4238020  0  5G01G07G11G17G30                                 
  20748600.371 7    -53011.308 7       939.979 7        43.008                  
  21189282.982 7     94773.573 7     -1587.856 7        43.447                  
  20870800.316 6     28909.611 6      -470.886 6        40.182                  
  22286908.941 7   -161334.569 7      2799.860 7        44.163                  
  20372349.945 7     -6973.997 7       161.366 7        43.593                  
 18  6  4 18 06 59.5238020  0  5G01G07G11G17G30                                 
  20748636.671 7    -53105.241 7       938.646 7        42.801                  
  21189363.824 7     94932.416 7     -1588.595 7        44.375                  
  20870860.073 6     28956.778 6      -472.483 6        37.470                  
  22286906.940 7   -161614.511 7      2798.956 7        43.502                  
  20372397.928 7     -6990.079 7       160.477 7        43.041                  
 18  6  4 18 06 59.6238020  0  5G01G07G11G17G30                                 
  20748699.816 6    -53199.125 6       939.150 6        40.556                  
  21189468.131 7     95091.283 7     -1588.662 7        43.242                  
  20870946.306 6     29003.989 6      -471.650 6        41.408                  
  22286934.671 7   -161894.416 7      2799.296 7        43.802                  
  20372475.938 7     -7006.125 7       160.723 7        43.839                  
 18  6  4 18 06 59.7238020  0  5G01G07G11G17G30                                 
  20748673.575 7    -53293.083 7       940.223 7        43.337                  
  21189490.630 7     95250.082 7     -1587.515 7        44.109                  
  20870949.935 6     29051.124 6      -471.197 6        39.355                  
  22286875.004 6   -162174.392 6      2799.894 6        41.053                  
  20372464.238 7     -7022.246 7       161.686 7        44.647                  
 18  6  4 18 06 59.8238020  0  5G01G07G11G17G30                                 
  20748613.478 7    -53387.055 7       939.320 7        42.956                  
  21189482.164 7     95408.870 7     -1588.247 7        43.893                  
  20870921.685 6     29098.242 6      -470.777 6        41.542                  
  22286779.731 7   -162454.388 7      2799.732 7        42.288                  
  20372416.832 7     -7038.385 7       161.114 7        43.888                  
 18  6  4 18 06 59.9238020  0  5G01G07G11G17G30                                 
  20748655.505 6    -53480.988 6       939.608 6        40.784                  
  21189572.139 7     95567.686 7     -1588.037 7        44.966                  
  20870986.469 6     29145.386 6      -471.936 6        41.214                  
  22286786.531 7   -162734.353 7      2799.986 7        44.219                  
  20372476.339 7     -7054.485 7       161.408 7        44.779                  
 18  6  4 18 07  0.0238020  0  5G01G07G11G17G30                                 
  20748626.331 7    -53575.020 7       941.238 7        43.349                  
  21189591.376 7     95726.400 7     -1586.121 7        45.591                  
  20870987.908 6     29192.436 6      -469.426 6        39.612                  
  22286720.763 7   -163014.416 7      2801.734 7        42.294                  
  20372462.259 6     -7070.689 6       162.726 6        41.679                  
 18  6  4 18 07  0.1238020  0  5G01G07G11G17G30                                 
  20748637.249 6    -53669.255 6       943.327 6        41.943                  
  21189652.768 7     95884.920 7     -1584.155 7        43.890                  
  20871023.840 6     29239.289 6      -467.371 6        40.703                  
  22286692.940 7   -163294.683 7      2803.787 7        44.854                  
  20372490.045 7     -7087.086 7       164.957 7        43.731                  
 18  6  4 18 07  0.2238020  0  5G01G07G11G17G30                                 
  20748602.537 6    -53763.697 6       945.371 6        41.464                  
  21189670.624 7     96043.229 7     -1582.124 7        42.779                  
  20871019.161 6     29285.942 6      -465.493 6        40.623                  
  22286632.154 7   -163575.168 7      2805.849 7        43.471                  
  20372473.654 7     -7103.701 7       167.259 7        44.146                  
 18  6  4 18 07  0.3238020  0  5G01G07G11G17G30                                 
  20748677.062 6    -53858.336 6       947.294 6        41.810                  
  21189789.609 7     96201.326 7     -1580.299 7        44.824                  
  20871113.598 6     29332.374 6      -463.808 6        41.842                  
  22286672.353 7   -163855.858 7      2807.774 7        44.321                  
  20372563.440 7     -7120.508 7       169.037 7        42.441                  
 18  6  4 18 07  0.4238020  0  5G01G07G11G17G30                                 
  20748721.471 7    -53953.098 7       947.936 7        42.941                  
  21189879.664 7     96359.307 7     -1579.156 7        43.890                  
  20871179.031 6     29378.691 6      -462.938 6        41.012                  
  22286674.550 7   -164136.659 7      2808.172 7        44.408                  
  20372617.209 7     -7137.434 7       169.151 7        44.093                  
 18  6  4 18 07  0.5238020  0  5G01G07G11G17G30                                 
  20748650.883 6    -54047.913 6       948.023 6        41.618                  
  21189860.863 7     96517.226 7     -1579.320 7        42.725                  
  20871145.117 6     29424.956 6      -462.221 6        41.944                  
  22286571.936 7   -164417.541 7      2808.929 7        42.985                  
  20372569.978 7     -7154.428 7       170.342 7        43.860                  
 18  6  4 18 07  0.6238020  0  5G01G07G11G17G30                                 
  20748635.986 6    -54142.686 6       947.413 6        40.399                  
  21189896.595 7     96675.177 7     -1579.796 7        43.867                  
  20871158.572 6     29471.243 6      -463.250 6        41.424                  
  22286522.114 7   -164698.379 7      2808.090 7        42.104                  
  20372572.521 6     -7171.381 6       169.004 6        41.405                  
 18  6  4 18 07  0.7238020  0  5G01G07G11G17G30                                 
  20748651.655 6    -54237.379 6       946.006 6        41.171                  
  21189959.785 7     96833.231 7     -1581.518 7        44.685                  
  20871198.153 6     29517.640 6      -465.024 6        40.910                  
  22286501.118 7   -164979.122 7      2806.538 7        42.526                  
  20372598.589 7     -7188.241 7       167.755 7        44.129                  
 18  6  4 18 07  0.8238020  0  5G01G07G11G17G30                                 
  20748636.460 6    -54331.872 6       944.336 6        39.985                  
  21189993.937 7     96991.470 7     -1583.006 7        44.596                  
  20871211.176 6     29564.223 6      -466.605 6        40.832                  
  22286456.428 7   -165259.682 7      2804.790 7        46.012                  
  20372598.165 7     -7204.911 7       166.122 7        43.694                  
 18  6  4 18 07  0.9238020  0  5G01G07G11G17G30                                 
  20748530.673 6    -54426.196 6       942.120 6        40.312                  
  21189938.213 7     97149.877 7     -1585.183 7        46.559                  
  20871145.082 6     29610.964 6      -468.471 6        40.914                  
  22286318.980 7   -165540.071 7      2802.824 7        44.552                  
  20372508.687 7     -7221.406 7       163.962 7        43.923                  
 18  6  4 18 07  1.0238020  0  5G01G07G11G17G30                                 
  20748576.380 6    -54520.354 6       941.806 6        41.460                  
  21190023.102 7     97308.443 7     -1585.604 7        43.697                  
  20871214.860 6     29657.872 6      -468.855 6        40.495                  
  22286322.704 7   -165820.310 7      2802.224 7        43.283                  
  20372562.390 7     -7237.750 7       162.937 7        43.450                  
 18  6  4 18 07  1.1238020  0  5G01G07G11G17G30                                 
  20748635.251 6    -54614.498 6       940.940 6        41.255                  
  21190129.078 7     97467.026 7     -1586.015 7        44.106                  
  20871292.455 6     29704.805 6      -469.357 6        39.123                  
  22286341.425 7   -166100.536 7      2801.933 7        43.061                  
  20372631.652 7     -7254.068 7       162.964 7        42.300                  
 18  6  4 18 07  1.2238020  0  5G01G07G11G17G30                                 
  20748789.862 6    -54708.642 6       941.667 6        40.986                  
  21190320.763 7     97625.603 7     -1585.733 7        45.598                  
  20871458.148 6     29751.718 6      -469.202 6        39.968                  
  22286457.056 6   -166380.755 6      2802.792 6        41.029                  
  20372792.713 7     -7270.389 7       163.587 7        45.439                  
 18  6  4 18 07  1.3238020  0  5G01G07G11G17G30                                 
  20748718.960 7    -54802.817 7       941.423 7        42.142                  
  21190302.153 7     97784.153 7     -1585.317 7        43.904                  
  20871422.774 6     29798.621 6      -469.058 6        40.199                  
  22286352.483 7   -166661.013 7      2802.457 7        43.123                  
  20372742.498 7     -7286.738 7       163.593 7        42.877                  
 18  6  4 18 07  1.4238020  0  5G01G07G11G17G30                                 
  20748713.437 7    -54896.969 7       941.467 7        42.418                  
  21190346.564 7     97942.727 7     -1585.721 7        43.208                  
  20871441.573 6     29845.531 6      -469.271 6        38.178                  
  22286305.740 7   -166941.246 7      2802.521 7        44.914                  
  20372744.783 7     -7303.062 7       163.049 7        45.961                  
 18  6  4 18 07  1.5238020  0  5G01G07G11G17G30                                 
  20748677.616 7    -54991.127 7       942.364 7        43.769                  
  21190365.546 6     98101.278 6     -1585.278 6        41.186                  
  20871438.449 6     29892.432 6      -468.441 6        39.478                  
  22286240.150 7   -167221.517 7      2802.994 7        44.605                  
  20372738.539 7     -7319.410 7       163.983 7        44.609                  
 18  6  4 18 07  1.6238020  0  5G01G07G11G17G30                                 
  20748614.945 6    -55085.376 6       942.626 6        40.418                  
  21190357.064 7     98259.737 7     -1584.274 7        43.848                  
  20871409.738 6     29939.228 6      -467.729 6        41.792                  
  22286147.898 7   -167501.862 7      2803.454 7        45.083                  
  20372698.168 7     -7335.842 7       164.365 7        42.888                  
 18  6  4 18 07  1.7238020  0  5G01G07G11G17G30                                 
  20748621.979 6    -55179.614 6       941.814 6        41.808                  
  21190408.272 7     98418.215 7     -1585.666 7        42.973                  
  20871441.990 6     29986.062 6      -468.969 6        40.499                  
  22286119.781 7   -167782.190 7      2803.115 7        45.424                  
  20372710.629 7     -7352.257 7       163.616 7        42.469                  
 18  6  4 18 07  1.8238020  0  5G01G07G11G17G30                                 
  20748611.296 6    -55273.722 6       940.587 6        40.696                  
  21190449.577 7     98576.813 7     -1586.161 7        45.728                  
  20871458.039 6     30033.003 6      -470.052 6        41.395                  
  22286075.073 7   -168062.414 7      2801.302 7        43.523                  
  20372716.444 7     -7368.548 7       162.440 7        45.313                  
 18  6  4 18 07  1.9238020  0  5G01G07G11G17G30                                 
  20748675.820 7    -55367.696 7       938.737 7        42.746                  
  21190556.472 7     98735.555 7     -1588.628 7        46.231                  
  20871544.711 6     30080.099 6      -472.047 6        40.111                  
  22286103.958 7   -168342.487 7      2799.843 7        44.497                  
  20372795.658 6     -7384.687 6       160.485 6        41.659                  
 18  6  4 18 07  2.0238020  0  5G01G07G11G17G30                                 
  20748667.659 6    -55461.458 6       936.638 6        41.517                  
  21190596.313 7     98894.494 7     -1589.956 7        44.014                  
  20871564.411 6     30127.395 6      -473.547 6        40.262                  
  22286062.524 7   -168622.366 7      2798.134 7        45.722                  
  20372801.567 7     -7400.642 7       158.618 7        44.102                  
 18  6  4 18 07  2.1238020  0  5G01G07G11G17G30                                 
  20748648.275 6    -55555.141 6       936.588 6        41.520                  
  21190625.402 7     99053.530 7     -1590.672 7        43.410                  
  20871572.574 6     30174.760 6      -473.509 6        41.692                  
  22286003.381 7   -168902.165 7      2797.859 7        43.565                  
  20372791.937 7     -7416.512 7       158.678 7        44.899                  
 18  6  4 18 07  2.2238020  0  5G01G07G11G17G30                                 
  20748654.040 6    -55648.767 6       936.673 6        41.818                  
  21190682.994 7     99212.592 7     -1590.550 7        45.050                  
  20871604.090 6     30222.179 6      -474.444 6        39.146                  
  22285978.052 7   -169181.918 7      2797.411 7        44.163                  
  20372817.141 7     -7432.326 7       157.911 7        44.543                  
 18  6  4 18 07  2.3238020  0  5G01G07G11G17G30                                 
  20748704.408 7    -55742.419 7       936.435 7        42.846                  
  21190778.129 7     99371.635 7     -1590.173 7        44.047                  
  20871676.590 6     30269.576 6      -473.473 6        39.747                  
  22285987.310 7   -169461.706 7      2798.102 7        43.942                  
  20372880.929 7     -7448.164 7       158.691 7        43.067                  
 18  6  4 18 07  2.4238020  0  5G01G07G11G17G30                                 
  20748643.362 7    -55836.123 7       937.295 7        42.796                  
  21190767.459 7     99530.625 7     -1589.862 7        44.253                  
  20871649.562 6     30316.918 6      -473.884 6        41.145                  
  22285895.332 7   -169741.537 7      2798.240 7        42.157                  
  20372836.527 6     -7464.054 6       159.185 6        41.611                  
 18  6  4 18 07  2.5238020  0  5G01G07G11G17G30                                 
  20748675.933 6    -55929.835 6       937.198 6        40.934                  
  21190843.292 7     99689.609 7     -1589.531 7        43.106                  
  20871708.336 6     30364.255 6      -473.159 6        38.046                  
  22285888.348 7   -170021.383 7      2798.833 7        42.336                  
  20372885.440 7     -7479.958 7       159.181 7        43.929                  
 18  6  4 18 07  2.6238020  0  5G01G07G11G17G30                                 
  20748741.232 7    -56023.636 7       939.230 7        42.468                  
  21190952.054 7     99848.488 7     -1587.907 7        45.180                  
  20871793.801 6     30411.500 6      -471.399 6        39.735                  
  22285914.266 7   -170301.329 7      2800.582 7        42.419                  
  20372961.694 6     -7495.954 6       160.802 6        41.349                  
 18  6  4 18 07  2.7238020  0  5G01G07G11G17G30                                 
  20748721.968 6    -56117.649 6       941.021 6        39.601                  
  21190979.616 7    100007.180 7     -1585.959 7        44.374                  
  20871803.961 6     30458.531 6      -469.651 6        39.893                  
  22285864.596 7   -170581.488 7      2802.368 7        42.678                  
  20372955.027 7     -7512.145 7       162.667 7        44.618                  
 18  6  4 18 07  2.8238020  0  5G01G07G11G17G30                                 
  20748655.507 7    -56211.764 7       941.006 7        42.545                  
  21190969.016 7    100165.735 7     -1585.104 7        46.040                  
  20871770.301 6     30505.456 6      -468.642 6        40.289                  
  22285767.327 6   -170861.754 6      2803.216 6        40.712                  
  20372908.825 7     -7528.461 7       163.782 7        44.602                  
 18  6  4 18 07  2.9238020  0  5G01G07G11G17G30                                 
  20748651.290 7    -56306.042 7       944.218 7        42.266                  
  21191013.779 7    100324.145 7     -1582.900 7        43.025                  
  20871795.014 7     30552.217 7      -465.899 7        43.088                  
  22285725.792 7   -171142.184 7      2805.696 7        42.443                  
  20372924.971 7     -7544.924 7       166.002 7        44.525                  
 18  6  4 18 07  3.0238020  0  5G01G07G11G17G30                                 
  20748717.446 4    -56399.990 4       927.796 4        27.592                  
  21191125.423 4    100482.771 4     -1599.593 4        25.216                  
  20871880.626 4     30599.501 4      -492.990 4        24.624                  
  22285754.411 4   -171422.338 4      2790.814 4        28.139                  
  20373003.723 4     -7561.410 4       156.710 4        28.108                  
 18  6  4 18 07  4.3238020  0  5G01G07G11G17G30                                 
  20748640.299 7    -57604.139 7       967.066 7        42.116                  
  21191678.279 7    102692.355 7     -1557.717 7        43.811                  
  20872161.356 6     31295.299 6      -449.790 6        40.222                  
  22285219.846 7   -175142.501 7      2838.346 7        43.094                  
  20373117.686 7     -7713.316 7       202.829 7        42.968                  
 18  6  4 18 07  4.4238020  0  5G01G07G11G17G30                                 
  20748633.255 7    -57653.094 7       968.810 7        42.996                  
  21191717.430 6    102771.072 6     -1557.783 6        41.707                  
  20872181.382 6     31317.580 6      -441.245 6        41.168                  
  22285171.296 7   -175285.507 7      2830.849 7        43.662                  
  20373119.746 7     -7722.931 7       190.901 7        43.207                  
 18  6  4 18 07  4.5238020  0  5G01G07G11G17G30                                 
  20748624.030 6    -57750.092 6       971.394 6        39.813                  
  21191758.753 7    102926.720 7     -1555.391 7        43.960                  
  20872202.803 6     31361.597 6      -439.156 6        40.185                  
  22285131.910 7   -175568.728 7      2833.457 7        44.549                  
  20373136.777 7     -7742.138 7       193.231 7        43.747                  
 18  6  4 18 07  4.6238020  0  5G01G07G11G17G30                                 
  20748681.987 6    -57847.271 6       972.479 6        41.065                  
  21191858.987 7    103082.195 7     -1554.182 7        45.375                  
  20872282.860 6     31405.436 6      -437.819 6        41.071                  
  22285155.659 7   -175852.114 7      2834.453 7        44.665                  
  20373206.745 7     -7761.505 7       193.946 7        45.626                  
 18  6  4 18 07  4.7238020  0  5G01G07G11G17G30                                 
  20748727.394 7    -57944.470 7       971.350 7        42.558                  
  21191948.804 7    103237.624 7     -1554.405 7        43.410                  
  20872350.809 6     31449.247 6      -438.203 6        39.833                  
  22285164.150 7   -176135.554 7      2834.124 7        44.054                  
  20373264.389 6     -7780.936 6       193.879 6        41.872                  
 18  6  4 18 07  4.8238020  0  5G01G07G11G17G30                                 
  20748735.165 6    -58041.581 6       970.231 6        41.181                  
  21192004.212 7    103393.153 7     -1556.770 7        42.961                  
  20872382.846 6     31493.144 6      -440.133 6        41.438                  
  22285132.104 7   -176418.894 7      2832.220 7        42.831                  
  20373280.897 7     -7800.246 7       191.886 7        42.794                  
 18  6  4 18 07  4.9238020  0  5G01G07G11G17G30                                 
  20748705.654 6    -58138.431 6       966.855 6        40.267                  
  21192023.458 7    103548.957 7     -1559.205 7        43.892                  
  20872384.639 6     31537.308 6      -443.042 6        40.544                  
  22285067.238 7   -176701.982 7      2829.582 7        43.632                  
  20373269.007 7     -7819.301 7       189.694 7        44.410                  
 18  6  4 18 07  5.0238020  0  5G01G07G11G17G30                                 
  20748675.874 6    -58235.043 6       965.470 6        40.132                  
  21192043.776 7    103704.975 7     -1561.116 7        43.924                  
  20872384.635 6     31581.697 6      -444.564 6        39.405                  
  22285001.847 7   -176984.829 7      2827.748 7        42.266                  
  20373254.459 7     -7838.129 7       187.206 7        43.390                  
 18  6  4 18 07  5.1238020  0  5G01G07G11G17G30                                 
  20748653.993 6    -58331.529 6       964.725 6        41.919                  
  21192074.248 7    103861.125 7     -1561.485 7        44.352                  
  20872391.389 6     31626.230 6      -445.464 6        41.840                  
  22284945.574 7   -177267.556 7      2826.911 7        42.799                  
  20373251.180 7     -7856.816 7       186.812 7        43.278                  
 18  6  4 18 07  5.2238020  0  5G01G07G11G17G30                                 
  20748667.328 6    -58427.995 6       964.443 6        41.379                  
  21192139.057 7    104017.295 7     -1561.746 7        45.854                  
  20872429.482 6     31670.772 6      -444.947 6        41.009                  
  22284931.662 7   -177550.264 7      2827.071 7        42.005                  
  20373283.275 7     -7875.492 7       186.438 7        43.736                  
 18  6  4 18 07  5.3238020  0  5G01G07G11G17G30                                 
  20748697.269 6    -58524.474 6       965.288 6        39.841                  
  21192214.759 7    104173.442 7     -1561.009 7        46.341                  
  20872484.273 6     31715.284 6      -445.413 6        39.285                  
  22284926.248 7   -177832.994 7      2827.581 7        43.460                  
  20373328.824 7     -7894.183 7       187.375 7        43.029                  
 18  6  4 18 07  5.4238020  0  5G01G07G11G17G30                                 
  20748586.731 6    -58621.057 6       966.814 6        39.869                  
  21192161.566 7    104329.484 7     -1559.653 7        43.318                  
  20872412.319 6     31759.708 6      -443.460 6        40.854                  
  22284788.308 7   -178115.840 7      2829.540 7        44.172                  
  20373241.738 6     -7912.971 6       188.541 6        41.192                  
 18  6  4 18 07  5.5238020  0  5G01G07G11G17G30                                 
  20748659.747 6    -58717.860 6       969.075 6        40.461                  
  21192280.027 7    104485.321 7     -1557.260 7        43.288                  
  20872502.228 6     31803.920 6      -440.760 6        40.264                  
  22284820.406 7   -178398.882 7      2831.532 7        43.009                  
  20373322.278 7     -7931.968 7       191.359 7        45.198                  
 18  6  4 18 07  5.6238020  0  5G01G07G11G17G30                                 
  20748747.222 6    -58814.827 6       970.110 6        40.259                  
  21192405.166 7    104640.959 7     -1555.490 7        43.505                  
  20872608.640 6     31847.923 6      -439.439 6        40.639                  
  22284861.962 7   -178682.128 7      2833.125 7        44.833                  
  20373415.638 7     -7951.164 7       192.650 7        42.679                  
 18  6  4 18 07  5.7238020  0  5G01G07G11G17G30                                 
  20748789.604 6    -58911.980 6       972.755 6        41.133                  
  21192493.015 7    104796.437 7     -1554.192 7        44.741                  
  20872674.171 6     31891.792 6      -437.733 6        40.930                  
  22284865.774 7   -178965.532 7      2834.879 7        42.758                  
  20373472.732 7     -7970.516 7       193.972 7        42.191                  
 18  6  4 18 07  5.8238020  0  5G01G07G11G17G30                                 
  20748733.787 7    -59009.275 7       973.561 7        42.063                  
  21192482.355 7    104951.769 7     -1552.506 7        45.578                  
  20872653.998 6     31935.487 6      -436.251 6        39.544                  
  22284773.376 7   -179249.100 7      2836.453 7        45.507                  
  20373431.532 7     -7990.028 7       195.928 7        42.650                  
 18  6  4 18 07  5.9238020  0  5G01G07G11G17G30                                 
  20748785.480 6    -59106.719 6       975.276 6        39.668                  
  21192579.486 7    105106.939 7     -1550.846 7        45.233                  
  20872727.202 6     31979.026 6      -434.657 6        40.039                  
  22284792.368 7   -179532.823 7      2838.015 7        44.456                  
  20373496.500 7     -8009.686 7       197.617 7        43.033                  
 18  6  4 18 07  6.0238020  0  5G01G07G11G17G30                                 
  20748747.095 6    -59204.354 6       977.467 6        41.412                  
  21192596.476 7    105261.918 7     -1548.652 7        43.898                  
  20872717.031 6     32022.402 6      -432.768 6        41.063                  
  22284720.705 6   -179816.727 6      2840.537 6        41.827                  
  20373474.398 7     -8029.527 7       199.431 7        43.041                  
 18  6  4 18 07 30.1238020  0  5G01G07G11G17G30                                 
  20749082.837 7    -79033.394 7       841.325 7        43.660                  
  21204509.704 7    146335.230 7     -1680.779 7        45.089                  
  20879520.614 7     46151.272 7      -563.623 7        42.052                  
9016050233.916 6   -244784.794 6      2719.034 6        41.874                  
  20377377.931 7     -9129.511 7        65.433 7        43.055                  
 18  6  4 18 07 30.2238020  0  5G01G07G11G17G30                                 
  20749126.717 6    -79115.982 6       839.198 6        41.957                  
  21204600.514 7    146420.172 7     -1681.301 7        45.109                  
  20879585.091 6     46179.898 6      -566.945 6        39.061                  
9016050240.726 6   -244921.826 6      2712.053 6        41.138                  
  20377432.378 7     -9135.299 7        63.159 7        43.672                  
 18  6  4 18 07 30.3238020  0  5G01G07G11G17G30                                 
  20749137.128 7    -79199.806 7       836.825 7        42.653                  
  21204663.910 7    146588.411 7     -1683.303 7        45.678                  
  20879620.192 6     46236.688 6      -568.727 6        41.854                  
9016050221.031 6   -245192.921 6      2709.841 6        39.540                  
  20377463.110 7     -9141.532 7        61.372 7        44.598                  
 18  6  4 18 07 30.4238020  0  5G01G07G11G17G30                                 
  20749231.051 6    -79283.509 6       837.474 6        41.442                  
  21204800.354 7    146756.761 7     -1683.704 7        42.601                  
  20879730.489 6     46293.602 6      -568.873 6        41.029                  
9016050270.487 7   -245463.913 7      2710.033 7        42.576                  
  20377566.654 7     -9147.639 7        61.306 7        43.052                  
 18  6  4 18 07 30.5238020  0  5G01G07G11G17G30                                 
  20749241.615 6    -79367.255 6       837.421 6        40.382                  
  21204855.374 7    146925.081 7     -1682.340 7        45.724                  
  20879768.357 6     46350.476 6      -568.261 6        40.640                  
9016050248.019 6   -245734.937 6      2710.897 6        41.872                  
  20377590.996 7     -9153.793 7        62.138 7        44.801                  
 18  6  4 18 07 30.6238020  0  5G01G07G11G17G30                                 
  20749229.681 6    -79451.119 6       839.916 6        41.889                  
  21204893.382 7    147093.251 7     -1680.960 7        45.141                  
  20879785.333 6     46407.206 6      -566.933 6        40.473                  
9016050199.141 7   -246006.106 7      2712.186 7        42.512                  
  20377598.346 7     -9160.079 7        63.274 7        42.236                  
 18  6  4 18 07 30.7238020  0  5G01G07G11G17G30                                 
  20749194.229 6    -79535.071 6       839.426 6        41.598                  
  21204906.254 7    147261.359 7     -1681.723 7        44.827                  
  20879779.571 6     46463.864 6      -566.550 6        40.759                  
9016050126.852 7   -246277.350 7      2712.099 7        42.678                  
  20377572.701 6     -9166.441 6        63.605 6        41.569                  
 18  6  4 18 07 30.8238020  0  5G01G07G11G17G30                                 
  20749230.275 6    -79618.923 6       837.517 6        40.416                  
  21204983.707 7    147429.535 7     -1682.220 7        44.175                  
  20879842.423 6     46520.617 6      -568.490 6        40.663                  
9016050120.817 7   -246548.519 7      2711.218 7        42.079                  
  20377625.674 7     -9172.719 7        61.843 7        46.005                  
 18  6  4 18 07 30.9238020  0  5G01G07G11G17G30                                 
  20749226.771 6    -79702.624 6       836.222 6        41.691                  
  21205028.311 7    147597.883 7     -1684.495 7        43.035                  
  20879864.373 6     46577.526 6      -569.708 6        40.317                  
9016050081.310 7   -246819.516 7      2709.178 7        44.448                  
  20377631.141 7     -9178.826 7        60.510 7        45.290                  
 18  6  4 18 07 31.0238020  0  5G01G07G11G17G30                                 
  20749229.541 7    -79786.205 7       835.623 7        42.770                  
  21205081.798 7    147766.357 7     -1684.590 7        42.683                  
  20879894.117 7     46634.545 7      -570.471 7        43.472                  
9016050051.794 7   -247090.406 7      2708.840 7        43.891                  
  20377654.340 7     -9184.819 7        59.845 7        42.135                  
 18  6  4 18 07 31.1238020  0  5G01G07G11G17G30                                 
  20749143.837 7    -79869.838 7       837.428 7        46.039                  
  21205050.708 7    147934.752 7     -1683.225 7        45.039                  
  20879843.742 6     46691.516 6      -568.780 6        39.607                  
9016049935.817 7   -247361.356 7      2710.320 7        42.227                  
  20377586.785 7     -9190.871 7        61.364 7        45.624                  
 18  6  4 18 07 31.2238020  0  5G01G07G11G17G30                                 
  20749192.958 7    -79953.651 7       838.590 7        42.669                  
  21205139.771 6    148102.975 6     -1681.582 6        41.960                  
  20879915.375 6     46748.300 6      -567.134 6        40.518                  
9016049939.236 7   -247632.491 7      2712.103 7        42.749                  
  20377642.412 7     -9197.092 7        63.014 7        44.092                  
 18  6  4 18 07 31.3238020  0  5G01G07G11G17G30                                 
  20749245.183 6    -80037.520 6       838.456 6        41.745                  
  21205241.698 7    148271.148 7     -1682.048 7        44.776                  
  20879987.298 6     46805.029 6      -567.951 6        41.222                  
9016049958.437 7   -247903.675 7      2711.390 7        42.473                  
  20377710.449 7     -9203.381 7        62.098 7        45.557                  
 18  6  4 18 07 31.4238020  0  5G01G07G11G17G30                                 
  20749198.078 7    -80121.241 7       836.276 7        42.780                  
  21205248.002 7    148439.456 7     -1684.058 7        44.260                  
  20879970.903 7     46861.898 7      -569.530 7        42.056                  
9016049881.920 6   -248174.725 6      2709.998 6        41.989                  
  20377680.384 7     -9209.527 7        60.759 7        43.078                  
 18  6  4 18 07 31.5238020  0  5G01G07G11G17G30                                 
  20749183.964 7    -80204.819 7       834.994 7        42.667                  
  21205281.319 7    148607.913 7     -1685.144 7        44.157                  
  20879986.268 6     46918.928 6      -570.800 6        40.863                  
9016049829.337 7   -248445.622 7      2707.675 7        42.517                  
  20377682.164 6     -9215.513 6        58.989 6        41.764                  
 18  6  4 18 07 31.6238020  0  5G01G07G11G17G30                                 
  20749156.568 7    -80288.197 7       832.447 7        43.081                  
  21205307.349 7    148776.566 7     -1687.504 7        42.990                  
  20879987.445 6     46976.146 6      -573.386 6        40.335                  
9016049771.266 7   -248716.333 7      2706.068 7        42.445                  
  20377672.989 7     -9221.306 7        56.866 7        45.233                  
 18  6  4 18 07 31.7238020  0  5G01G07G11G17G30                                 
  20749201.917 7    -80371.383 7       831.269 7        42.650                  
  21205396.725 7    148945.404 7     -1689.254 7        43.783                  
  20880054.177 6     47033.551 6      -574.883 6        39.861                  
9016049780.933 6   -248986.866 6      2704.838 6        41.148                  
  20377726.932 7     -9226.932 7        55.571 7        42.703                  
 18  6  4 18 07 31.8238020  0  5G01G07G11G17G30                                 
  20749255.786 6    -80454.472 6       831.132 6        39.897                  
  21205495.096 7    149114.337 7     -1689.315 7        43.680                  
  20880129.996 6     47091.048 6      -574.663 6        39.066                  
9016049799.062 7   -249257.301 7      2704.372 7        42.697                  
  20377795.221 7     -9232.432 7        55.329 7        44.710                  
 18  6  4 18 07 31.9238020  0  5G01G07G11G17G30                                 
  20749215.297 7    -80537.666 7       832.730 7        43.506                  
  21205505.112 7    149283.164 7     -1687.102 7        44.203                  
  20880121.360 6     47148.450 6      -572.926 6        39.503                  
9016049720.511 7   -249527.829 7      2706.364 7        44.453                  
  20377772.843 7     -9238.052 7        57.198 7        43.534                  
 18  6  4 18 07 32.0238020  0  5G01G07G11G17G30                                 
  20749216.211 7    -80621.066 7       835.198 7        43.107                  
  21205550.507 7    149451.783 7     -1685.269 7        43.051                  
  20880151.570 7     47205.639 7      -570.852 7        42.031                  
9016049688.819 7   -249798.574 7      2708.519 7        42.419                  
  20377789.893 7     -9243.866 7        59.074 7        44.381                  
 18  6  4 18 07 32.1238020  0  5G01G07G11G17G30                                 
  20749233.409 6    -80704.634 6       836.313 6        39.921                  
  21205616.824 7    149620.228 7     -1683.707 7        45.712                  
  20880192.724 6     47262.658 6      -569.151 6        39.918                  
9016049667.095 6   -250069.498 6      2709.811 6        40.651                  
  20377821.262 7     -9249.859 7        60.470 7        43.683                  
 18  6  4 18 07 32.2238020  0  5G01G07G11G17G30                                 
  20749311.493 7    -80788.337 7       837.644 7        42.634                  
  21205737.229 7    149788.536 7     -1682.423 7        42.895                  
  20880288.336 7     47319.546 7      -568.678 7        43.475                  
9016049702.952 7   -250340.568 7      2711.417 7        43.659                  
  20377906.045 7     -9255.997 7        61.870 7        43.115                  
 18  6  4 18 07 32.3238020  0  5G01G07G11G17G30                                 
  20749326.586 7    -80872.103 7       837.170 7        42.007                  
  21205797.968 7    149956.776 7     -1682.607 7        44.938                  
  20880330.204 7     47376.349 7      -568.222 7        42.564                  
9016049679.915 7   -250611.706 7      2711.436 7        42.253                  
  20377937.119 7     -9262.188 7        61.827 7        43.630                  
 18  6  4 18 07 32.4238020  0  5G01G07G11G17G30                                 
  20749244.360 7    -80955.749 7       835.841 7        42.705                  
  21205769.998 7    150125.141 7     -1684.655 7        45.894                  
  20880283.887 6     47433.283 6      -570.497 6        39.730                  
9016049565.860 7   -250882.716 7      2708.845 7        43.053                  
  20377875.517 7     -9268.260 7        59.637 7        42.119                  
 18  6  4 18 07 32.5238020  0  5G01G07G11G17G30                                 
  20749259.789 6    -81039.258 6       834.973 6        41.445                  
  21205832.991 7    150293.632 7     -1685.217 7        44.968                  
  20880324.325 6     47490.346 6      -570.879 6        39.553                  
9016049544.709 7   -251153.600 7      2708.851 7        42.041                  
  20377904.978 7     -9274.198 7        59.431 7        43.935                  
 18  6  4 18 07 32.6238020  0  5G01G07G11G17G30                                 
  20749238.804 6    -81122.796 6       835.529 6        40.954                  
  21205865.186 7    150462.109 7     -1684.076 7        45.054                  
  20880331.303 6     47547.407 6      -569.904 6        40.128                  
9016049492.528 6   -251424.503 6      2709.347 6        41.256                  
  20377902.432 7     -9280.154 7        60.051 7        43.677                  
 18  6  4 18 07 32.7238020  0  5G01G07G11G17G30                                 
  20749216.666 7    -81206.405 7       836.552 7        42.548                  
  21205891.515 7    150630.497 7     -1683.849 7        43.995                  
  20880337.608 6     47604.365 6      -569.565 6        41.529                  
9016049433.082 7   -251695.496 7      2710.143 7        45.007                  
  20377891.722 6     -9286.204 6        60.432 6        41.413                  
 18  6  4 18 07 32.8238020  0  5G01G07G11G17G30                                 
  20749171.212 6    -81290.020 6       835.699 6        40.566                  
  21205894.962 7    150798.887 7     -1683.731 7        45.277                  
  20880324.805 6     47661.325 6      -569.598 6        38.821                  
9016049353.461 7   -251966.495 7      2709.834 7        44.900                  
  20377862.140 7     -9292.243 7        60.526 7        42.235                  
 18  6  4 18 07 32.9238020  0  5G01G07G11G17G30                                 
  20749227.880 7    -81373.647 7       837.036 7        42.853                  
  21205995.145 7    150967.254 7     -1683.610 7        46.537                  
  20880404.361 6     47718.267 6      -569.041 6        40.194                  
9016049376.912 7   -252237.503 7      2710.368 7        43.161                  
  20377935.496 7     -9298.301 7        60.588 7        42.439                  
 18  6  4 18 07 33.0238020  0  5G01G07G11G17G30                                 
  20749185.462 7    -81457.341 7       836.743 7        43.447                  
  21206001.133 7    151135.562 7     -1682.759 7        46.046                  
  20880395.190 7     47775.155 7      -568.801 7        42.343                  
9016049302.771 6   -252508.584 6      2711.139 6        40.673                  
  20377911.091 7     -9304.415 7        61.449 7        42.407                  
 18  6  4 18 07 33.1238020  0  5G01G07G11G17G30                                 
  20749203.658 6    -81541.040 6       836.924 6        41.103                  
  21206066.497 7    151303.859 7     -1683.423 7        46.185                  
  20880436.770 6     47832.037 6      -569.037 6        40.017                  
9016049283.833 7   -252779.670 7      2710.722 7        43.804                  
  20377938.799 7     -9310.537 7        60.952 7        42.319                  
 18  6  4 18 07 33.2238020  0  5G01G07G11G17G30                                 
  20749284.472 6    -81624.662 6       835.711 6        40.517                  
  21206190.846 7    151472.228 7     -1683.880 7        44.589                  
  20880535.063 6     47888.982 6      -569.682 6        41.261                  
9016049325.806 6   -253050.698 6      2710.114 6        41.211                  
  20378029.313 7     -9316.600 7        60.457 7        44.132                  
 18  6  4 18 07 33.3238020  0  5G01G07G11G17G30                                 
  20749272.933 7    -81708.186 7       834.544 7        44.193                  
  21206228.072 7    151640.693 7     -1685.271 7        44.248                  
  20880551.028 6     47946.022 6      -571.379 6        38.946                  
9016049276.740 7   -253321.627 7      2708.321 7        43.964                  
  20378030.968 7     -9322.568 7        58.681 7        44.319                  
 18  6  4 18 07 33.4238020  0  5G01G07G11G17G30                                 
  20749236.685 7    -81791.485 7       830.870 7        42.471                  
  21206242.089 7    151809.381 7     -1688.942 7        46.104                  
  20880544.796 6     48003.292 6      -574.633 6        39.422                  
9016049202.344 6   -253592.327 6      2705.087 6        41.951                  
  20378008.505 7     -9328.292 7        55.462 7        42.344                  
 18  6  4 18 07 33.5238020  0  5G01G07G11G17G30                                 
  20749222.014 6    -81874.314 6       825.627 6        41.140                  
  21206276.613 7    151978.543 7     -1694.593 7        43.944                  
  20880560.331 7     48061.026 7      -579.853 7        42.038                  
9016049155.345 6   -253862.571 6      2699.871 6        40.983                  
  20378014.733 7     -9333.559 7        49.926 7        44.141                  
 18  6  4 18 07 33.6238020  0  5G01G07G11G17G30                                 
  20749211.785 7    -81956.601 7       820.530 7        43.440                  
  21206312.859 7    152148.228 7     -1699.245 7        45.168                  
  20880579.594 6     48119.298 6      -585.452 6        41.779                  
9016049104.969 6   -254132.276 6      2694.064 6        41.988                  
  20378020.326 7     -9338.286 7        44.529 7        42.922                  
 18  6  4 18 07 33.7238020  0  5G01G07G11G17G30                                 
  20749238.661 7    -82038.396 7       816.144 7        42.287                  
  21206390.208 7    152318.410 7     -1703.625 7        44.253                  
  20880628.958 6     48178.061 6      -589.150 6        39.302                  
9016049096.744 6   -254401.494 6      2690.379 6        41.137                  
  20378063.001 7     -9342.523 7        40.281 7        43.654                  
 18  6  4 18 07 33.8238020  0  5G01G07G11G17G30                                 
  20749269.243 6    -82119.879 6       813.197 6        41.625                  
  21206463.627 7    152488.907 7     -1706.367 7        44.074                  
  20880682.384 6     48237.150 6      -592.251 6        40.328                  
9016049089.320 7   -254670.394 7      2687.858 7        43.190                  
  20378098.892 7     -9346.432 7        38.345 7        45.952                  
 18  6  4 18 07 33.9238020  0  5G01G07G11G17G30                                 
  20749218.248 7    -82201.118 7       811.304 7        42.800                  
  21206463.567 7    152659.649 7     -1708.552 7        42.419                  
  20880664.734 6     48296.482 6      -594.959 6        41.205                  
9016049006.797 7   -254939.064 7      2685.664 7        42.138                  
  20378067.190 7     -9350.110 7        35.334 7        46.982                  
 18  6  4 18 07 34.0238020  0  5G01G07G11G17G30                                 
  20749223.254 6    -82282.088 6       808.022 6        40.178                  
  21206517.347 7    152830.656 7     -1711.548 7        45.334                  
  20880696.682 6     48356.064 6      -597.051 6        40.199                  
9016048979.679 7   -255207.461 7      2682.392 7        44.711                  
  20378090.123 7     -9353.525 7        32.752 7        42.785                  
 18  6  4 18 07 34.1238020  0  5G01G07G11G17G30                                 
  20749221.429 7    -82362.791 7       806.550 7        42.901                  
  21206565.535 7    153001.917 7     -1713.166 7        44.777                  
  20880721.778 6     48415.914 6      -599.059 6        41.377                  
9016048944.541 7   -255475.614 7      2680.982 7        42.360                  
  20378105.620 7     -9356.670 7        30.710 7        45.093                  
 18  6  4 18 07 34.2238020  0  5G01G07G11G17G30                                 
  20749236.633 6    -82443.477 6       808.147 6        41.859                  
  21206632.652 7    153173.197 7     -1711.763 7        43.646                  
  20880759.842 6     48475.789 6      -598.035 6        40.666                  
9016048924.020 6   -255743.738 6      2682.833 6        38.922                  
  20378135.685 7     -9359.796 7        32.442 7        44.074                  
 18  6  4 18 07 34.3238020  0  5G01G07G11G17G30                                 
  20749244.198 7    -82524.454 7       811.456 7        42.628                  
  21206683.254 7    153344.179 7     -1707.532 7        45.266                  
  20880795.567 6     48535.361 6      -592.955 6        41.087                  
9016048895.418 7   -256012.171 7      2685.582 7        43.729                  
  20378156.088 7     -9363.205 7        36.250 7        44.270                  
 18  6  4 18 07 34.4238020  0  5G01G07G11G17G30                                 
  20749270.691 6    -82605.930 6       817.925 6        40.874                  
  21206755.312 7    153514.670 7     -1702.092 7        43.957                  
  20880847.181 7     48594.431 7      -588.243 7        43.549                  
9016048883.819 6   -256281.086 6      2692.583 6        41.897                  
  20378197.863 7     -9367.123 7        42.072 7        45.311                  
 18  6  4 18 07 34.5238020  0  5G01G07G11G17G30                                 
  20749276.707 6    -82687.940 6       822.176 6        41.595                  
  21206808.457 7    153684.611 7     -1697.390 7        42.405                  
  20880880.470 6     48652.970 6      -583.052 6        40.068                  
9016048854.536 6   -256550.546 6      2696.654 6        41.540                  
  20378220.403 7     -9371.574 7        46.664 7        45.206                  
 18  6  4 18 07 34.6238020  0  5G01G07G11G17G30                                 
  20749259.299 7    -82770.357 7       825.085 7        42.423                  
  21206842.499 7    153854.162 7     -1693.722 7        44.877                  
  20880890.009 6     48711.092 6      -579.878 6        40.890                  
9016048801.791 6   -256820.410 6      2699.990 6        41.789                  
  20378216.805 7     -9376.429 7        49.989 7        43.132                  
 18  6  4 18 07 34.7238020  0  5G01G07G11G17G30                                 
  20749254.934 6    -82853.017 6       828.117 6        40.687                  
  21206887.224 7    154023.449 7     -1692.519 7        45.944                  
  20880913.296 6     48768.978 6      -578.044 6        40.041                  
9016048760.279 6   -257090.542 6      2702.027 6        39.103                  
  20378229.429 7     -9381.542 7        51.753 7        42.790                  
 18  6  4 18 07 34.8238020  0  5G01G07G11G17G30                                 
  20749335.772 7    -82935.774 7       827.476 7        42.537                  
  21207012.371 7    154192.648 7     -1691.893 7        42.231                  
  20881011.264 6     48826.766 6      -578.061 6        40.433                  
9016048801.752 7   -257360.766 7      2702.030 7        44.552                  
  20378320.279 7     -9386.746 7        52.091 7        44.211                  
 18  6  4 18 07 34.9238020  0  5G01G07G11G17G30                                 
  20749261.847 6    -83018.454 6       825.614 6        40.658                  
  21206991.557 7    154361.924 7     -1693.524 7        44.917                  
  20880970.915 6     48884.636 6      -579.725 6        39.471                  
9016048701.418 7   -257630.912 7      2700.823 7        42.006                  
  20378261.154 7     -9391.864 7        50.303 7        43.836                  
 18  6  4 18 07 35.0238020  0  5G01G07G11G17G30                                 
  20749268.423 6    -83100.990 6       825.724 6        39.954                  
  21207042.495 7    154531.333 7     -1694.268 7        44.091                  
  20881004.653 7     48942.626 7      -579.926 7        42.247                  
9016048672.847 6   -257900.922 6      2700.179 6        41.602                  
  20378279.426 7     -9396.857 7        50.015 7        44.722                  
 18  6  4 18 07 35.1238020  0  5G01G07G11G17G30                                 
  20749197.750 6    -83183.536 6       825.174 6        41.849                  
  21207023.069 7    154700.742 7     -1694.166 7        46.318                  
  20880969.654 6     49000.640 6      -580.385 6        41.447                  
9016048567.145 6   -258170.949 6      2699.798 6        41.689                  
  20378227.994 7     -9401.847 7        49.109 7        42.134                  
 18  6  4 18 07 35.2238020  0  5G01G07G11G17G30                                 
  20749188.106 6    -83266.003 6       824.403 6        41.116                  
  21207060.732 7    154870.221 7     -1695.070 7        44.894                  
  20880989.985 6     49058.702 6      -580.681 6        40.097                  
9016048519.818 6   -258440.894 6      2699.228 6        41.045                  
  20378237.300 7     -9406.755 7        49.205 7        44.906                  
 18  6  4 18 07 35.3238020  0  5G01G07G11G17G30                                 
  20749153.143 7    -83348.482 7       825.042 7        43.272                  
  21207079.659 7    155039.674 7     -1694.041 7        45.055                  
  20880984.240 6     49116.758 6      -580.036 6        40.295                  
9016048454.524 6   -258710.862 6      2700.683 6        41.643                  
  20378220.370 7     -9411.688 7        49.655 7        43.130                  
 18  6  4 18 07 35.4238020  0  5G01G07G11G17G30                                 
  20749199.894 6    -83431.070 6       827.202 6        40.893                  
  21207172.942 7    155209.016 7     -1692.153 7        44.905                  
  20881053.436 7     49174.705 7      -578.537 7        42.600                  
9016048463.623 7   -258980.943 7      2701.598 7        43.001                  
  20378283.819 7     -9416.730 7        51.626 7        45.749                  
 18  6  4 18 07 35.5238020  0  5G01G07G11G17G30                                 
  20749315.719 7    -83513.932 7       829.684 7        42.502                  
  21207328.001 7    155378.095 7     -1689.585 7        45.749                  
  20881184.602 6     49232.380 6      -575.202 6        40.488                  
9016048537.660 7   -259251.300 7      2704.988 7        42.115                  
  20378409.193 7     -9422.041 7        54.465 7        43.278                  
 18  6  4 18 07 35.6238020  0  5G01G07G11G17G30                                 
  20749247.739 6    -83597.034 6       832.308 6        38.727                  
  21207310.335 7    155546.918 7     -1687.071 7        43.560                  
  20881151.831 6     49289.800 6      -572.758 6        40.772                  
9016048434.374 6   -259521.907 6      2707.245 6        38.940                  
  20378358.501 7     -9427.602 7        56.912 7        44.351                  
 18  6  4 18 07 35.7238020  0  5G01G07G11G17G30                                 
  20749267.852 6    -83680.380 6       834.890 6        40.391                  
  21207377.417 7    155715.508 7     -1684.731 7        44.552                  
  20881195.377 6     49346.987 6      -571.378 6        39.848                  
9016048415.167 7   -259792.759 7      2709.871 7        44.271                  
  20378388.709 7     -9433.396 7        58.975 7        44.126                  
 18  6  4 18 07 35.8238020  0  5G01G07G11G17G30                                 
  20749240.223 7    -83763.915 7       835.710 7        42.278                  
  21207401.740 7    155883.909 7     -1683.406 7        42.731                  
  20881196.408 6     49403.983 6      -569.055 6        41.461                  
9016048358.334 6   -260063.801 6      2710.812 6        40.594                  
  20378376.973 7     -9439.385 7        60.361 7        44.824                  
 18  6  4 18 07 35.9238020  0  5G01G07G11G17G30                                 
  20749210.241 6    -83847.544 6       836.478 6        41.347                  
  21207419.499 7    156052.198 7     -1682.884 7        46.674                  
  20881197.642 6     49460.880 6      -568.763 6        41.067                  
9016048297.301 6   -260334.943 6      2711.464 6        41.343                  
  20378362.544 7     -9445.470 7        61.394 7        43.251                  
 18  6  4 18 07 36.0238020  0  5G01G07G11G17G30                                 
  20749252.219 7    -83931.259 7       837.455 7        42.397                  
  21207505.358 7    156220.405 7     -1681.324 7        44.980                  
  20881260.632 6     49517.687 6      -567.473 6        38.874                  
9016048298.324 7   -260606.167 7      2713.042 7        43.245                  
  20378410.511 6     -9451.648 6        62.237 6        41.755                  
 18  6  4 18 07 36.1238020  0  5G01G07G11G17G30                                 
  20749276.016 6    -84015.062 6       838.672 6        41.498                  
  21207576.711 7    156388.534 7     -1681.248 7        44.714                  
  20881308.279 6     49574.415 6      -567.078 6        40.824                  
  22274542.536 6   -260903.815 6      2713.426 6        41.837                  
  20378448.100 7     -9457.893 7        62.526 7        43.939                  
 18  6  4 18 07 36.2238020  0  5G01G07G11G17G30                                 
  20749263.080 7    -84098.796 7       836.430 7        43.293                  
  21207610.452 7    156556.733 7     -1682.491 7        45.179                  
  20881326.075 6     49631.214 6      -568.920 6        40.582                  
  22274488.854 7   -261148.746 7      2712.145 7        42.429                  
  20378454.066 7     -9464.080 7        60.822 7        44.523                  
 18  6  4 18 07 36.3238020  0  5G01G07G11G17G30                                 
  20749296.431 6    -84182.423 6       835.613 6        41.708                  
  21207693.621 7    156725.023 7     -1683.424 7        46.204                  
  20881383.349 6     49688.109 6      -569.344 6        41.433                  
  22274488.142 6   -261419.894 6      2711.116 6        41.173                  
  20378509.011 7     -9470.161 7        60.729 7        43.203                  
 18  6  4 18 07 36.4238020  0  5G01G07G11G17G30                                 
  20749275.156 7    -84265.923 7       834.631 7        42.771                  
  21207724.524 7    156893.418 7     -1684.495 7        45.774                  
  20881389.894 6     49745.115 6      -570.968 6        41.230                  
  22274435.306 6   -261690.937 6      2710.123 6        41.955                  
  20378503.936 7     -9476.136 7        59.042 7        42.745                  
 18  6  4 18 07 36.5238020  0  5G01G07G11G17G30                                 
  20749277.987 6    -84349.371 6       834.686 6        40.081                  
  21207773.412 7    157061.898 7     -1684.675 7        44.687                  
  20881420.940 6     49802.196 6      -570.398 6        39.959                  
  22274407.442 7   -261961.912 7      2709.204 7        43.231                  
  20378523.111 7     -9482.042 7        59.259 7        43.295                  
 18  6  4 18 07 36.6238020  0  5G01G07G11G17G30                                 
  20749277.019 6    -84432.870 6       835.371 6        41.947                  
  21207820.817 7    157230.319 7     -1683.798 7        44.847                  
  20881446.078 6     49859.216 6      -569.492 6        37.970                  
  22274369.560 6   -262232.948 6      2711.094 6        41.322                  
  20378534.552 7     -9487.988 7        59.930 7        43.414                  
 18  6  4 18 07 36.7238020  0  5G01G07G11G17G30                                 
  20749297.384 7    -84516.430 7       835.416 7        42.420                  
  21207888.492 7    157398.660 7     -1683.618 7        44.661                  
  20881490.792 6     49916.170 6      -569.702 6        39.903                  
  22274353.864 6   -262504.057 6      2711.022 6        39.507                  
  20378568.483 7     -9494.010 7        60.253 7        43.758                  
 18  6  4 18 07 36.8238020  0  5G01G07G11G17G30                                 
  20749270.818 6    -84600.000 6       835.490 6        41.407                  
  21207910.930 7    157566.996 7     -1683.344 7        44.926                  
  20881492.843 6     49973.112 6      -569.513 6        41.080                  
  22274287.901 6   -262775.174 6      2711.494 6        40.903                  
  20378553.069 7     -9500.048 7        60.165 7        43.597                  
 18  6  4 18 07 36.9238020  0  5G01G07G11G17G30                                 
  20749267.522 6    -84683.508 6       834.725 6        40.332                  
  21207953.585 7    157735.398 7     -1684.275 7        44.040                  
  20881516.627 6     50030.119 6      -570.404 6        38.655                  
  22274247.615 7   -263046.223 7      2710.001 7        43.584                  
  20378560.106 7     -9506.001 7        59.479 7        44.940                  
 18  6  4 18 07 37.0238020  0  5G01G07G11G17G30                                 
  20749284.189 7    -84766.966 7       834.317 7        42.654                  
  21208019.454 7    157903.840 7     -1684.751 7        44.208                  
  20881559.139 6     50087.161 6      -570.848 6        40.319                  
  22274227.222 7   -263317.245 7      2710.090 7        43.374                  
  20378596.670 7     -9511.924 7        58.881 7        43.188                  
 18  6  4 18 07 37.1238020  0  5G01G07G11G17G30                                 
  20749274.390 6    -84850.421 6       834.887 6        41.704                  
  21208051.969 7    158072.286 7     -1684.013 7        44.023                  
  20881580.434 6     50144.211 6      -570.102 6        41.294                  
  22274178.932 6   -263588.263 6      2709.973 6        40.035                  
  20378600.660 7     -9517.846 7        59.515 7        44.276                  
 18  6  4 18 07 37.2238020  0  5G01G07G11G17G30                                 
  20749264.990 6    -84933.905 6       834.862 6        39.274                  
  21208094.181 7    158240.706 7     -1684.055 7        43.518                  
  20881597.515 6     50201.242 6      -569.771 6        40.234                  
  22274129.836 6   -263859.302 6      2711.106 6        41.820                  
  20378607.055 7     -9523.790 7        59.560 7        44.581                  
 18  6  4 18 07 37.3238020  0  5G01G07G11G17G30                                 
  20749255.692 6    -85017.410 6       834.546 6        40.537                  
  21208135.168 7    158409.096 7     -1684.331 7        44.095                  
  20881616.950 7     50258.255 7      -570.623 7        42.990                  
  22274089.610 6   -264130.377 6      2710.139 6        41.244                  
  20378618.165 7     -9529.763 7        59.209 7        44.688                  
 18  6  4 18 07 37.4238020  0  5G01G07G11G17G30                                 
  20749315.883 7    -85100.775 7       832.831 7        44.851                  
  21208243.255 7    158577.628 7     -1686.303 7        47.476                  
  20881695.186 7     50315.390 7      -572.217 7        42.573                  
  22274119.568 6   -264401.305 6      2708.755 6        41.217                  
  20378689.298 6     -9535.590 6        57.103 6        41.909                  
 18  6  4 18 07 37.5238020  0  5G01G07G11G17G30                                 
  20749338.894 6    -85183.967 6       831.590 6        39.968                  
  21208308.303 7    158746.316 7     -1687.305 7        43.979                  
  20881745.780 6     50372.700 6      -573.528 6        41.078                  
  22274109.458 7   -264672.092 7      2707.124 7        44.218                  
  20378727.746 7     -9541.257 7        56.421 7        44.137                  
 18  6  4 18 07 37.6238020  0  5G01G07G11G17G30                                 
  20749342.457 7    -85267.078 7       830.914 7        42.436                  
  21208362.564 7    158915.090 7     -1688.062 7        45.471                  
  20881773.812 7     50430.081 7      -574.263 7        42.322                  
  22274074.751 7   -264942.784 7      2706.473 7        43.846                  
  20378744.487 7     -9546.844 7        55.531 7        44.189                  
 18  6  4 18 07 37.7238020  0  5G01G07G11G17G30                                 
  20749340.280 6    -85350.129 6       829.946 6        41.782                  
  21208410.170 7    159083.948 7     -1689.196 7        47.039                  
  20881799.140 7     50487.548 7      -575.202 7        43.189                  
  22274037.782 7   -265213.403 7      2705.832 7        42.518                  
  20378760.912 7     -9552.347 7        54.398 7        44.928                  
 18  6  4 18 07 37.8238020  0  5G01G07G11G17G30                                 
  20749320.390 6    -85433.116 6       830.177 6        40.024                  
  21208435.795 7    159252.843 7     -1688.295 7        43.526                  
  20881808.398 6     50545.059 6      -574.865 6        41.217                  
  22273980.223 6   -265483.982 6      2706.150 6        41.384                  
  20378750.436 7     -9557.798 7        55.039 7        44.353                  
 18  6  4 18 07 37.9238020  0  5G01G07G11G17G30                                 
  20749264.121 6    -85516.119 6       829.516 6        41.473                  
  21208431.991 7    159421.712 7     -1689.243 7        45.529                  
  20881784.529 6     50602.538 6      -574.894 6        40.894                  
  22273893.072 7   -265754.591 7      2705.789 7        42.433                  
  20378711.139 7     -9563.284 7        54.348 7        43.887                  
 18  6  4 18 07 38.0238020  0  5G01G07G11G17G30                                 
  20749367.827 7    -85598.970 7       826.722 7        42.804                  
  21208574.868 7    159590.753 7     -1692.257 7        43.709                  
  20881905.733 6     50660.190 6      -579.083 6        39.843                  
  22273954.389 6   -266025.022 6      2702.008 6        41.562                  
  20378826.212 7     -9568.601 7        51.090 7        44.865                  
 18  6  4 18 07 38.1238020  0  5G01G07G11G17G30                                 
  20749335.781 7    -85681.330 7       820.963 7        42.873                  
  21208593.085 7    159760.266 7     -1697.790 7        43.469                  
  20881902.977 7     50718.332 7      -583.926 7        42.767                  
  22273888.535 7   -266294.995 7      2697.318 7        43.128                  
  20378807.375 7     -9573.437 7        46.033 7        44.877                  
 18  6  4 18 07 38.2238020  0  5G01G07G11G17G30                                 
  20749275.051 7    -85763.225 7       817.038 7        42.880                  
  21208586.419 7    159930.257 7     -1701.909 7        43.408                  
  20881875.460 7     50776.934 7      -587.752 7        42.166                  
  22273795.778 6   -266564.483 6      2693.176 6        41.725                  
  20378767.073 7     -9577.796 7        41.179 7        44.465                  
 18  6  4 18 07 38.3238020  0  5G01G07G11G17G30                                 
  20749258.925 7    -85844.708 7       812.674 7        43.137                  
  21208618.679 7    160100.636 7     -1705.312 7        43.745                  
  20881887.936 7     50835.937 7      -591.816 7        43.215                  
  22273743.445 6   -266833.587 6      2689.162 6        41.126                  
  20378765.068 7     -9581.760 7        38.490 7        45.433                  
 18  6  4 18 07 38.4238020  0  5G01G07G11G17G30                                 
  20749261.596 7    -85925.892 7       810.133 7        42.713                  
  21208670.956 7    160271.336 7     -1708.975 7        42.050                  
  20881917.736 6     50895.240 6      -594.838 6        41.181                  
  22273714.290 6   -267102.378 6      2685.999 6        41.025                  
  20378786.792 7     -9585.417 7        34.422 7        44.619                  
 18  6  4 18 07 38.5238020  0  5G01G07G11G17G30                                 
  20749251.745 7    -86006.587 7       803.928 7        42.267                  
  21208708.739 7    160442.503 7     -1715.288 7        44.182                  
  20881935.841 7     50955.039 7      -601.579 7        44.669                  
  22273671.208 7   -267370.685 7      2679.987 7        43.705                  
  20378790.261 7     -9588.588 7        28.223 7        44.797                  
 18  6  4 18 07 38.6238020  0  5G01G07G11G17G30                                 
  20749219.281 6    -86086.540 6       795.490 6        40.534                  
  21208728.267 7    160614.419 7     -1722.724 7        45.738                  
  20881933.838 6     51015.574 6      -609.042 6        39.883                  
  22273603.778 7   -267638.265 7      2671.888 7        42.422                  
  20378777.347 6     -9591.026 6        20.640 6        41.133                  
 18  6  4 18 07 38.7238020  0  5G01G07G11G17G30                                 
  20749316.137 7    -86165.856 7       791.797 7        44.340                  
  21208863.486 7    160786.980 7     -1727.340 7        45.533                  
  20882047.818 6     51076.747 6      -613.235 6        41.378                  
  22273657.454 6   -267905.199 6      2667.577 6        41.837                  
  20378880.406 7     -9592.813 7        16.074 7        43.791                  
 18  6  4 18 07 38.8238020  0  5G01G07G11G17G30                                 
  20749299.861 6    -86244.920 6       789.718 6        40.414                  
  21208900.252 7    160959.779 7     -1728.908 7        42.312                  
  20882060.100 6     51138.171 6      -615.008 6        41.946                  
  22273606.971 6   -268171.893 6      2666.093 6        41.730                  
  20378886.005 7     -9594.350 7        14.789 7        43.744                  
 18  6  4 18 07 38.9238020  0  5G01G07G11G17G30                                 
  20749356.589 6    -86323.750 6       786.344 6        40.771                  
  21208995.311 7    161132.815 7     -1732.142 7        43.713                  
  20882136.795 6     51199.826 6      -618.441 6        41.294                  
  22273620.502 7   -268438.352 7      2662.799 7        43.945                  
  20378941.875 6     -9595.654 6        11.061 6        40.728                  
 18  6  4 18 07 39.0238020  0  5G01G07G11G17G30                                 
  20749357.016 6    -86402.139 6       781.334 6        39.840                  
  21209044.654 7    161306.289 7     -1736.864 7        44.523                  
  20882163.937 6     51261.904 6      -623.399 6        41.763                  
  22273589.976 6   -268704.383 6      2658.109 6        41.688                  
  20378958.055 7     -9596.523 7         6.534 7        45.081                  
 18  6  4 18 07 39.1238020  0  5G01G07G11G17G30                                 
  20749372.260 6    -86480.152 6       778.813 6        40.247                  
  21209106.021 6    161480.132 6     -1740.024 6        41.737                  
  20882206.142 7     51324.371 7      -625.481 7        42.419                  
  22273567.624 7   -268970.037 7      2654.880 7        42.724                  
  20378990.812 7     -9597.024 7         3.517 7        43.066                  
 18  6  4 18 07 39.2238020  0  5G01G07G11G17G30                                 
  20749346.197 6    -86557.884 6       776.029 6        40.376                  
  21209128.509 7    161654.250 7     -1742.400 7        44.300                  
  20882210.634 6     51387.119 6      -629.515 6        41.453                  
  22273501.807 6   -269235.409 6      2652.568 6        40.805                  
  20378981.217 7     -9597.231 7         0.591 7        42.626                  
 18  6  4 18 07 39.3238020  0  5G01G07G11G17G30                                 
  20749352.057 6    -86635.287 6       772.148 6        40.972                  
  21209182.802 7    161828.686 7     -1746.211 7        45.965                  
  20882243.385 6     51450.194 6      -632.073 6        41.984                  
  22273474.956 7   -269500.474 7      2648.892 7        43.222                  
  20379004.661 7     -9597.122 7        -2.609 7        43.800                  
 18  6  4 18 07 39.4238020  0  5G01G07G11G17G30                                 
  20749292.175 6    -86712.333 6       768.743 6        41.060                  
  21209177.696 7    162003.493 7     -1750.095 7        43.362                  
  20882216.571 7     51513.623 7      -636.274 7        42.005                  
  22273381.897 7   -269765.177 7      2645.462 7        42.314                  
  20378966.308 7     -9596.659 7        -6.560 7        43.541                  
 18  6  4 18 07 39.5238020  0  5G01G07G11G17G30                                 
  20749322.592 6    -86788.978 6       764.428 6        40.881                  
  21209255.798 7    162178.703 7     -1754.088 7        46.553                  
  20882269.656 6     51577.461 6      -640.269 6        39.982                  
  22273374.168 7   -270029.474 7      2640.649 7        43.288                  
  20379009.783 7     -9595.777 7       -10.802 7        44.959                  
 18  6  4 18 07 39.6238020  0  5G01G07G11G17G30                                 
  20749314.127 7    -86865.401 7       764.959 7        42.547                  
  21209298.500 7    162354.122 7     -1753.348 7        43.259                  
  20882287.175 6     51641.485 6      -639.760 6        41.040                  
  22273336.522 6   -270293.573 6      2641.886 6        40.505                  
  20379015.218 7     -9594.693 7       -10.172 7        43.369                  
 18  6  4 18 07 39.7238020  0  5G01G07G11G17G30                                 
  20749360.743 6    -86942.009 6       766.784 6        41.380                  
  21209384.798 7    162529.351 7     -1751.584 7        43.491                  
  20882356.481 7     51705.356 7      -638.181 7        44.494                  
  22273344.493 6   -270557.844 6      2643.029 6        40.539                  
  20379067.630 7     -9593.784 7        -8.569 7        44.306                  
 18  6  4 18 07 39.8238020  0  5G01G07G11G17G30                                 
  20749376.245 7    -87018.736 7       767.830 7        42.771                  
  21209447.386 7    162704.469 7     -1750.059 7        46.150                  
  20882396.762 7     51769.099 7      -635.996 7        42.648                  
  22273315.064 7   -270822.235 7      2645.264 7        43.594                  
  20379095.766 7     -9592.989 7        -6.702 7        44.300                  
 18  6  4 18 07 39.9238020  0  5G01G07G11G17G30                                 
  20749390.347 7    -87095.539 7       767.506 7        43.852                  
  21209506.035 7    162879.503 7     -1751.471 7        42.992                  
  20882438.248 7     51832.763 7      -637.717 7        42.787                  
  22273289.281 6   -271086.715 6      2643.578 6        40.124                  
  20379125.551 7     -9592.276 7        -8.260 7        44.789                  
 18  6  4 18 07 40.0238020  0  5G01G07G11G17G30                                 
  20749357.369 7    -87172.211 7       767.306 7        42.735                  
  21209525.067 7    163054.652 7     -1750.606 7        45.978                  
  20882435.629 6     51896.550 6      -637.359 6        40.982                  
  22273229.080 6   -271351.069 6      2644.829 6        41.834                  
  20379111.648 7     -9591.443 7        -7.429 7        44.225                  
 18  6  4 18 07 40.1238020  0  5G01G07G11G17G30                                 
  20749367.513 7    -87249.141 7       770.562 7        44.055                  
  21209582.853 7    163229.561 7     -1747.633 7        43.503                  
  20882470.945 7     51960.081 7      -633.830 7        43.535                  
  22273199.821 7   -271615.685 7      2647.041 7        43.198                  
  20379134.479 7     -9590.862 7        -4.402 7        43.503                  
 18  6  4 18 07 40.2238020  0  5G01G07G11G17G30                                 
  20749380.979 7    -87326.180 7       769.318 7        42.454                  
  21209645.476 7    163404.342 7     -1749.133 7        44.947                  
  20882510.275 6     52023.507 6      -635.061 6        40.140                  
  22273184.987 7   -271880.409 7      2646.314 7        44.128                  
  20379166.627 7     -9590.390 7        -5.850 7        45.376                  
 18  6  4 18 07 40.3238020  0  5G01G07G11G17G30                                 
  20749321.149 6    -87402.892 6       765.046 6        41.191                  
  21209638.091 7    163579.462 7     -1753.166 7        43.638                  
  20882484.052 7     52087.249 7      -639.659 7        42.381                  
  22273093.781 7   -272144.809 7      2641.667 7        42.662                  
  20379126.001 7     -9589.593 7       -10.532 7        44.206                  
 18  6  4 18 07 40.4238020  0  5G01G07G11G17G30                                 
  20749338.158 6    -87479.250 6       762.291 6        41.944                  
  21209701.245 7    163754.936 7     -1755.873 7        45.221                  
  20882524.596 6     52151.355 6      -642.010 6        40.311                  
  22273070.877 7   -272408.858 7      2639.474 7        42.288                  
  20379150.850 7     -9588.445 7       -12.356 7        44.432                  
 18  6  4 18 07 40.5238020  0  5G01G07G11G17G30                                 
  20749340.975 7    -87555.299 7       757.707 7        42.082                  
  21209752.694 7    163930.707 7     -1760.848 7        44.102                  
  20882554.068 6     52215.763 6      -647.252 6        40.378                  
  22273037.320 7   -272672.608 7      2634.674 7        43.134                  
  20379169.698 7     -9586.978 7       -17.766 7        43.700                  
 18  6  4 18 07 40.6238020  0  5G01G07G11G17G30                                 
  20749337.608 6    -87630.613 6       749.346 6        41.791                  
  21209793.626 7    164107.215 7     -1768.606 7        45.820                  
  20882580.146 6     52280.895 6      -655.774 6        40.204                  
  22272997.663 7   -272935.631 7      2626.221 7        42.111                  
  20379181.037 7     -9584.798 7       -25.492 7        44.036                  
 18  6  4 18 07 40.7238020  0  5G01G07G11G17G30                                 
  20749402.521 7    -87705.369 7       746.603 7        42.370                  
  21209902.413 7    164284.273 7     -1771.504 7        42.556                  
  20882665.664 6     52346.593 6      -657.446 6        38.865                  
  22273026.140 7   -273198.097 7      2623.934 7        43.488                  
  20379259.733 7     -9582.047 7       -28.515 7        42.851                  
 18  6  4 18 07 40.8238020  0  5G01G07G11G17G30                                 
  20749300.396 6    -87779.929 6       744.316 6        41.257                  
  21209853.474 7    164461.531 7     -1773.883 7        44.439                  
  20882602.077 7     52412.486 7      -660.558 7        42.169                  
  22272892.090 7   -273460.372 7      2621.627 7        43.506                  
  20379176.543 7     -9579.101 7       -30.925 7        43.271                  
 18  6  4 18 07 40.9238020  0  5G01G07G11G17G30                                 
  20749319.148 6    -87854.224 6       741.562 6        39.488                  
  21209920.013 7    164639.056 7     -1776.740 7        46.428                  
  20882643.976 6     52478.642 6      -662.817 6        39.664                  
  22272874.249 6   -273722.376 6      2618.405 6        39.069                  
  20379205.442 7     -9575.883 7       -33.584 7        45.503                  
 18  6  4 18 07 41.0238020  0  5G01G07G11G17G30                                 
  20749381.439 6    -87928.211 6       738.084 6        40.778                  
  21210028.604 7    164816.886 7     -1780.045 7        44.934                  
  20882728.442 6     52545.108 6      -666.101 6        41.116                  
  22272903.405 7   -273984.083 7      2615.459 7        44.620                  
  20379289.416 7     -9572.368 7       -36.559 7        43.999                  
 18  6  4 18 07 41.1238020  0  5G01G07G11G17G30                                 
  20749358.725 6    -88001.779 6       732.978 6        40.603                  
  21210052.772 7    164995.122 7     -1784.777 7        43.705                  
  20882734.017 6     52611.986 6      -671.196 6        39.724                  
  22272844.309 7   -274245.393 7      2610.786 7        42.905                  
  20379274.739 7     -9568.439 7       -41.918 7        43.846                  
 18  6  4 18 07 41.2238020  0  5G01G07G11G17G30                                 
  20749424.917 7    -88074.915 7       730.403 7        42.613                  
  21210165.364 7    165173.788 7     -1787.854 7        44.402                  
  20882818.119 6     52679.283 6      -674.330 6        39.115                  
  22272868.654 6   -274506.257 6      2607.532 6        40.350                  
  20379351.328 7     -9564.081 7       -44.907 7        44.905                  
 18  6  4 18 07 41.3238020  0  5G01G07G11G17G30                                 
  20749424.694 6    -88147.893 6       730.193 6        40.853                  
  21210215.436 6    165352.629 6     -1787.545 6        41.285                  
  20882844.489 6     52746.772 6      -673.904 6        41.019                  
  22272835.160 7   -274766.954 7      2607.266 7        44.188                  
  20379368.609 7     -9559.537 7       -45.110 7        44.745                  
 18  6  4 18 07 41.4238020  0  5G01G07G11G17G30                                 
  20749376.223 6    -88224.042 6       793.408 6        41.595                  
  21210212.979 7    165528.236 7     -1724.725 7        42.003                  
  20882829.605 6     52811.020 6      -611.276 6        40.474                  
  22272750.146 6   -275030.847 6      2670.835 6        41.509                  
  20379332.742 7     -9558.176 7        18.558 7        44.135                  
 18  6  4 18 07 36.1238020  0  5G01G07G11G17G30                                 
  20726459.920 7    -88816.753 7       800.560 7        42.893                  
  21187636.541 7    166822.663 7     -1737.228 7        45.794                  
  20860098.860 6     53270.870 6      -589.883 6        41.670                  
  22249586.809 6   -277030.680 6      2653.531 6        41.556                  
  20356524.036 6     -9570.034 6        -9.790 6        41.572                  
 18  6  4 18 07 36.2238020  0  5G01G07G11G17G30                                 
  20726449.966 7    -88856.264 7       781.673 7        43.654                  
  21187670.986 6    166910.358 6     -1736.289 6        41.492                  
  20860120.383 6     53302.290 6      -622.028 6        40.486                  
  22249540.789 7   -277165.103 7      2659.440 7        42.158                  
  20356531.874 7     -9570.410 7         6.824 7        43.213                  
 18  6  4 18 07 36.3238020  0  5G01G07G11G17G30                                 
  20726480.213 7    -88934.289 7       778.945 7        43.671                  
  21187747.996 7    167084.125 7     -1738.934 7        43.984                  
  20860174.342 7     53364.700 7      -625.680 7        42.875                  
  22249531.799 7   -277430.891 7      2656.859 7        42.670                  
  20356576.063 7     -9570.935 7         3.799 7        44.601                  
 18  6  4 18 07 36.4238020  0  5G01G07G11G17G30                                 
  20726525.049 6    -89012.122 6       777.619 6        41.225                  
  21187839.643 7    167258.071 7     -1739.467 7        46.614                  
  20860240.356 6     53427.285 6      -626.089 6        41.297                  
  22249541.199 7   -277696.500 7      2655.569 7        44.062                  
  20356632.922 7     -9571.271 7         3.142 7        45.313                  
 18  6  4 18 07 36.5238020  0  5G01G07G11G17G30                                 
  20726572.892 7    -89089.955 7       779.969 7        43.696                  
  21187930.396 7    167432.005 7     -1738.490 7        45.599                  
  20860311.634 7     53489.884 7      -625.162 7        43.583                  
  22249552.008 6   -277962.128 6      2657.319 6        41.247                  
  20356694.167 7     -9571.625 7         4.761 7        42.310                  
 18  6  4 18 07 36.6238020  0  5G01G07G11G17G30                                 
  20726486.944 6    -89168.067 6       782.376 6        39.773                  
  21187900.542 7    167605.679 7     -1735.161 7        44.863                  
  20860260.951 6     53552.209 6      -622.081 6        40.520                  
  22249434.461 7   -278228.009 7      2660.454 7        44.538                  
  20356627.806 7     -9572.233 7         7.474 7        44.946                  
 18  6  4 18 07 36.7238020  0  5G01G07G11G17G30                                 
  20726498.307 7    -89246.355 7       782.644 7        44.099                  
  21187960.849 7    167779.150 7     -1734.981 7        44.578                  
  20860296.615 6     53614.336 6      -621.047 6        40.094                  
  22249404.803 7   -278494.097 7      2660.691 7        43.080                  
  20356651.252 7     -9573.034 7         7.685 7        43.452                  
 18  6  4 18 07 36.8238020  0  5G01G07G11G17G30                                 
  20726455.390 7    -89324.595 7       781.475 7        43.505                  
  21187968.549 7    167952.683 7     -1735.780 7        45.797                  
  20860286.905 7     53676.500 7      -622.218 7        43.684                  
  22249336.510 7   -278760.133 7      2659.754 7        42.391                  
  20356629.126 7     -9573.784 7         6.921 7        43.652                  
 18  6  4 18 07 36.9238020  0  5G01G07G11G17G30                                 
  20726425.875 6    -89402.628 6       778.922 6        41.649                  
  21187991.409 7    168126.422 7     -1739.033 7        45.247                  
  20860286.761 6     53738.891 6      -626.034 6        39.631                  
  22249272.102 7   -279025.971 7      2656.549 7        43.591                  
  20356616.979 7     -9574.321 7         3.797 7        44.394                  
 18  6  4 18 07 37.0238020  0  5G01G07G11G17G30                                 
  20726465.335 6    -89480.276 6       774.723 6        41.592                  
  21188079.252 7    168300.522 7     -1742.784 7        44.140                  
  20860346.914 7     53801.647 7      -629.167 7        42.768                  
  22249273.491 7   -279291.431 7      2653.270 7        43.161                  
  20356667.584 7     -9574.499 7        -0.196 7        44.055                  
 18  6  4 18 07 37.1238020  0  5G01G07G11G17G30                                 
  20726549.446 7    -89557.620 7       772.433 7        43.529                  
  21188205.756 7    168474.945 7     -1745.330 7        44.458                  
  20860449.079 7     53864.725 7      -631.796 7        44.802                  
  22249317.109 7   -279556.575 7      2650.178 7        44.033                  
  20356762.051 7     -9574.342 7        -2.489 7        42.895                  
 18  6  4 18 07 37.2238020  0  5G01G07G11G17G30                                 
  20726538.343 6    -89634.819 6       771.042 6        41.587                  
  21188238.941 7    168649.511 7     -1746.363 7        44.478                  
  20860468.174 6     53927.937 6      -632.516 6        41.212                  
  22249270.077 7   -279821.592 7      2649.701 7        42.532                  
  20356764.232 7     -9574.055 7        -3.176 7        44.138                  
 18  6  4 18 07 37.3238020  0  5G01G07G11G17G30                                 
  20726484.353 6    -89711.907 6       770.656 6        40.662                  
  21188236.026 7    168824.186 7     -1746.833 7        46.379                  
  20860446.441 6     53991.257 6      -633.447 6        40.444                  
  22249183.923 7   -280086.491 7      2648.406 7        43.830                  
  20356724.603 7     -9573.659 7        -4.433 7        43.795                  
 18  6  4 18 07 37.4238020  0  5G01G07G11G17G30                                 
  20726486.791 6    -89788.950 6       770.390 6        40.449                  
  21188288.392 7    168998.906 7     -1747.288 7        43.033                  
  20860475.854 6     54054.628 6      -633.990 6        41.666                  
  22249154.284 6   -280351.347 6      2648.543 6        41.646                  
  20356745.444 6     -9573.218 6        -4.409 6        41.603                  
 18  6  4 18 07 37.5238020  0  5G01G07G11G17G30                                 
  20726520.118 6    -89865.938 6       769.773 6        40.507                  
  21188364.310 7    169173.661 7     -1747.846 7        43.117                  
  20860533.767 6     54118.049 6      -634.528 6        40.759                  
  22249142.567 7   -280616.157 7      2648.007 7        42.570                  
  20356789.473 7     -9572.725 7        -5.320 7        44.587                  
 18  6  4 18 07 37.6238020  0  5G01G07G11G17G30                                 
  20726576.983 6    -89942.974 6       771.544 6        40.346                  
  21188468.676 7    169348.380 7     -1746.246 7        43.589                  
  20860611.474 6     54181.425 6      -632.679 6        41.089                  
  22249163.454 7   -280881.025 7      2649.389 7        42.947                  
  20356863.244 7     -9572.266 7        -3.637 7        43.252                  
 18  6  4 18 07 37.7238020  0  5G01G07G11G17G30                                 
  20726593.842 6    -90020.156 6       771.495 6        41.059                  
  21188532.795 7    169522.951 7     -1745.254 7        43.950                  
  20860655.006 6     54244.642 6      -631.877 6        41.034                  
  22249152.163 6   -281146.032 6      2650.479 6        41.839                  
  20356898.682 7     -9571.973 7        -2.688 7        42.829                  
 18  6  4 18 07 37.8238020  0  5G01G07G11G17G30                                 
  20726573.799 6    -90097.384 6       772.750 6        40.697                  
  21188560.530 7    169697.453 7     -1745.185 7        44.502                  
  20860663.403 6     54307.807 6      -631.563 6        40.691                  
  22249092.576 7   -281411.116 7      2651.336 7        42.578                  
  20356889.045 7     -9571.730 7        -1.990 7        45.593                  
 18  6  4 18 07 37.9238020  0  5G01G07G11G17G30                                 
  20726556.300 6    -90174.705 6       774.364 6        41.861                  
  21188593.229 7    169871.883 7     -1743.071 7        44.105                  
  20860673.866 6     54370.903 6      -629.969 6        40.467                  
  22249036.102 7   -281676.267 7      2652.266 7        43.914                  
  20356885.625 7     -9571.566 7        -0.997 7        44.074                  
 18  6  4 18 07 38.0238020  0  5G01G07G11G17G30                                 
  20726526.761 6    -90252.188 6       775.366 6        41.104                  
  21188611.467 7    170046.137 7     -1741.531 7        44.212                  
  20860674.960 6     54433.817 6      -628.682 6        41.331                  
  22248976.182 6   -281941.596 6      2654.093 6        41.762                  
  20356869.441 7     -9571.564 7         0.612 7        44.417                  
 18  6  4 18 07 38.1238020  0  5G01G07G11G17G30                                 
  20726538.373 6    -90329.821 6       776.552 6        41.831                  
  21188671.772 7    170220.243 7     -1740.899 7        44.304                  
  20860712.689 7     54496.578 7      -626.577 7        42.741                  
  22248945.609 7   -282207.074 7      2655.033 7        44.106                  
  20356898.338 7     -9571.712 7         2.237 7        44.868                  
 18  6  4 18 07 38.2238020  0  5G01G07G11G17G30                                 
  20726541.485 7    -90407.456 7       775.635 7        42.711                  
  21188724.825 7    170394.354 7     -1742.119 7        42.345                  
  20860741.198 6     54559.343 6      -628.653 6        41.310                  
  22248914.942 7   -282472.560 7      2654.006 7        43.274                  
  20356915.356 7     -9571.871 7         0.311 7        44.462                  
 18  6  4 18 07 38.3238020  0  5G01G07G11G17G30                                 
  20726515.007 6    -90484.778 6       770.263 6        41.635                  
  21188745.807 7    170568.766 7     -1746.631 7        43.336                  
  20860745.430 6     54622.409 6      -633.428 6        40.548                  
  22248851.919 7   -282737.741 7      2649.201 7        43.567                  
  20356903.123 7     -9571.714 7        -3.969 7        44.279                  
 18  6  4 18 07 38.4238020  0  5G01G07G11G17G30                                 
  20726549.220 7    -90561.576 7       765.481 7        42.584                  
  21188830.296 7    170743.706 7     -1752.075 7        42.529                  
  20860801.784 6     54686.007 6      -638.423 6        41.710                  
  22248855.069 7   -283002.399 7      2643.912 7        42.070                  
  20356954.086 7     -9571.033 7        -9.348 7        44.132                  
 18  6  4 18 07 38.5238020  0  5G01G07G11G17G30                                 
  20726606.686 7    -90637.803 7       759.506 7        42.336                  
  21188931.453 7    170919.211 7     -1758.164 7        44.309                  
  20860881.624 7     54750.180 7      -644.680 7        42.605                  
  22248876.174 6   -283266.488 6      2638.017 6        41.650                  
  20357026.869 7     -9569.787 7       -15.489 7        44.386                  
 18  6  4 18 07 38.6238020  0  5G01G07G11G17G30                                 
  20726596.644 6    -90713.451 6       753.833 6        41.415                  
  21188972.028 7    171095.301 7     -1763.630 7        45.684                  
  20860899.333 6     54814.924 6      -650.426 6        39.622                  
  22248833.956 6   -283530.002 6      2632.469 6        40.395                  
  20357033.897 7     -9567.965 7       -21.010 7        44.602                  
 18  6  4 18 07 38.7238020  0  5G01G07G11G17G30                                 
  20726591.958 6    -90788.608 6       749.497 6        41.173                  
  21189013.922 7    171271.869 7     -1767.299 7        44.506                  
  20860922.043 6     54880.167 6      -653.558 6        41.810                  
  22248790.167 7   -283793.037 7      2628.623 7        42.869                  
  20357040.410 7     -9565.637 7       -25.060 7        44.122                  
 18  6  4 18 07 38.8238020  0  5G01G07G11G17G30                                 
  20726547.942 7    -90863.420 7       746.537 7        43.017                  
  21189017.469 7    171448.785 7     -1771.172 7        44.649                  
  20860911.393 7     54945.739 7      -657.776 7        42.373                  
  22248711.876 7   -284055.727 7      2625.169 7        43.548                  
  20357012.029 7     -9562.984 7       -28.221 7        43.629                  
 18  6  4 18 07 38.9238020  0  5G01G07G11G17G30                                 
  20726532.468 6    -90937.835 6       741.886 6        40.480                  
  21189052.712 7    171626.093 7     -1774.857 7        44.309                  
  20860925.791 6     55011.702 6      -662.400 6        39.900                  
  22248658.887 7   -284318.021 7      2620.724 7        42.355                  
  20357018.126 7     -9559.924 7       -33.219 7        42.508                  
 18  6  4 18 07 39.0238020  0  5G01G07G11G17G30                                 
  20726608.935 6    -91011.794 6       737.678 6        40.764                  
  21189173.668 7    171803.850 7     -1779.523 7        45.950                  
  20861019.590 6     55078.134 6      -665.750 6        39.078                  
  22248692.536 7   -284579.868 7      2616.730 7        42.548                  
  20357103.391 7     -9556.413 7       -36.846 7        44.675                  
 18  6  4 18 07 39.1238020  0  5G01G07G11G17G30                                 
  20726575.928 7    -91085.525 7       737.561 7        42.020                  
  21189189.595 7    171981.839 7     -1779.586 7        43.952                  
  20861017.187 6     55144.787 6      -666.197 6        41.057                  
  22248624.576 7   -284841.494 7      2616.379 7        42.255                  
  20357084.273 7     -9552.678 7       -36.493 7        44.264                  
 18  6  4 18 07 39.2238020  0  5G01G07G11G17G30                                 
  20726554.337 6    -91159.410 6       740.500 6        41.896                  
  21189217.552 7    172159.663 7     -1776.840 7        43.013                  
  20861023.389 6     55211.274 6      -663.759 6        41.772                  
  22248568.364 7   -285103.272 7      2619.635 7        44.617                  
  20357073.535 7     -9549.089 7       -34.922 7        43.678                  
 18  6  4 18 07 39.3238020  0  5G01G07G11G17G30                                 
  20726526.118 6    -91233.610 6       743.854 6        41.293                  
  21189238.460 7    172337.166 7     -1773.470 7        43.320                  
  20861025.461 6     55277.455 6      -659.607 6        40.509                  
  22248506.530 7   -285365.377 7      2622.821 7        42.571                  
  20357060.453 7     -9545.824 7       -30.966 7        43.288                  
 18  6  4 18 07 39.4238020  0  5G01G07G11G17G30                                 
  20726569.342 6    -91308.126 6       746.264 6        40.816                  
  21189327.975 7    172514.373 7     -1770.794 7        44.470                  
  20861091.448 7     55343.320 7      -657.869 7        42.647                  
  22248512.328 7   -285627.788 7      2624.793 7        42.935                  
  20357119.059 7     -9542.857 7       -28.501 7        42.799                  
 18  6  4 18 07 39.5238020  0  5G01G07G11G17G30                                 
  20726533.927 7    -91382.815 7       747.154 7        42.689                  
  21189343.627 7    172691.380 7     -1768.961 7        45.362                  
  20861087.172 6     55409.007 6      -656.288 6        40.140                  
  22248444.806 7   -285890.382 7      2626.912 7        42.257                  
  20357101.856 7     -9540.077 7       -26.992 7        42.213                  
 18  6  4 18 07 39.6238020  0  5G01G07G11G17G30                                 
  20726616.689 7    -91457.685 7       749.618 7        42.565                  
  21189472.746 7    172868.217 7     -1767.981 7        43.626                  
  20861186.762 6     55474.515 6      -654.128 6        40.026                  
  22248491.949 7   -286153.164 7      2628.463 7        43.997                  
  20357197.555 7     -9537.485 7       -25.233 7        43.168                  
 18  6  4 18 07 39.7238020  0  5G01G07G11G17G30                                 
  20726552.045 6    -91532.684 6       750.852 6        41.341                  
  21189457.873 7    173044.909 7     -1765.962 7        44.060                  
  20861157.370 7     55539.874 7      -652.744 7        42.327                  
  22248394.752 7   -286416.084 7      2630.094 7        42.480                  
  20357149.970 7     -9535.020 7       -23.917 7        43.510                  
 18  6  4 18 07 39.8238020  0  5G01G07G11G17G30                                 
  20726571.603 6    -91607.860 6       752.456 6        41.475                  
  21189524.758 7    173221.436 7     -1764.413 7        45.392                  
  20861200.962 7     55605.066 7      -651.003 7        42.394                  
  22248376.039 6   -286679.176 6      2631.828 6        41.398                  
  20357181.281 7     -9532.727 7       -21.802 7        43.576                  
 18  6  4 18 07 39.9238020  0  5G01G07G11G17G30                                 
  20726627.876 6    -91683.235 6       755.200 6        41.643                  
  21189626.206 7    173397.762 7     -1762.018 7        46.118                  
  20861276.622 7     55670.067 7      -648.634 7        42.424                  
  22248388.108 7   -286942.471 7      2634.122 7        43.638                  
  20357245.883 6     -9530.632 6       -20.016 6        41.588                  
 18  6  4 18 07 40.0238020  0  5G01G07G11G17G30                                 
  20726651.001 6    -91758.825 6       756.626 6        41.658                  
  21189694.072 7    173573.855 7     -1760.273 7        43.825                  
  20861326.580 6     55734.835 6      -647.113 6        40.065                  
  22248373.799 7   -287205.990 7      2635.911 7        42.126                  
  20357286.267 6     -9528.761 6       -17.602 6        41.946                  
 18  6  4 18 07 40.1238020  0  5G01G07G11G17G30                                 
  20726618.941 7    -91834.550 7       757.775 7        43.984                  
  21189712.883 7    173749.830 7     -1759.170 7        45.194                  
  20861322.591 6     55799.485 6      -645.876 6        40.150                  
  22248306.601 6   -287469.645 6      2637.522 6        40.548                  
  20357264.061 7     -9527.017 7       -16.801 7        44.142                  
 18  6  4 18 07 40.2238020  0  5G01G07G11G17G30                                 
  20726605.530 6    -91910.439 6       760.436 6        41.651                  
  21189747.286 7    173925.634 7     -1757.068 7        42.050                  
  20861339.683 6     55863.966 6      -643.362 6        41.171                  
  22248258.417 7   -287733.466 7      2639.059 7        43.167                  
  20357270.003 7     -9525.438 7       -14.930 7        43.404                  
 18  6  4 18 07 40.3238020  0  5G01G07G11G17G30                                 
  20726602.981 6    -91986.558 6       762.380 6        41.173                  
  21189795.051 7    174101.195 7     -1754.170 7        46.182                  
  20861364.860 7     55928.203 7      -641.781 7        42.839                  
  22248221.455 6   -287997.529 6      2641.980 6        41.484                  
  20357286.882 7     -9524.104 7       -11.838 7        43.575                  
 18  6  4 18 07 40.4238020  0  5G01G07G11G17G30                                 
  20726641.528 7    -92062.954 7       765.079 7        42.367                  
  21189879.352 7    174276.491 7     -1751.500 7        45.321                  
  20861428.125 6     55992.169 6      -637.823 6        41.751                  
  22248225.899 7   -288261.862 7      2644.562 7        44.127                  
  20357344.038 7     -9523.034 7        -9.478 7        43.395                  
 18  6  4 18 07 40.5238020  0  5G01G07G11G17G30                                 
  20726688.408 6    -92139.566 6       766.978 6        41.900                  
  21189970.786 7    174451.561 7     -1749.636 7        45.500                  
  20861497.263 6     56055.914 6      -636.712 6        40.383                  
  22248238.587 7   -288526.428 7      2646.688 7        42.974                  
  20357403.254 7     -9522.185 7        -7.567 7        46.948                  
 18  6  4 18 07 40.6238020  0  5G01G07G11G17G30                                 
  20726680.915 6    -92216.424 6       769.907 6        40.890                  
  21190014.644 7    174626.381 7     -1746.934 7        43.783                  
  20861515.471 6     56119.420 6      -633.527 6        40.657                  
  22248194.324 7   -288791.237 7      2649.425 7        43.304                  
  20357408.864 7     -9521.591 7        -4.617 7        43.995                  
 18  6  4 18 07 40.7238020  0  5G01G07G11G17G30                                 
  20726734.751 7    -92293.505 7       771.169 7        43.024                  
  21190107.401 7    174800.978 7     -1745.543 7        42.791                  
  20861592.549 6     56182.694 6      -632.275 6        41.529                  
  22248202.073 7   -289056.268 7      2651.498 7        43.538                  
  20357471.144 7     -9521.207 7        -3.307 7        44.361                  
 18  6  4 18 07 40.8238020  0  5G01G07G11G17G30                                 
  20726684.668 7    -92370.683 7       772.245 7        43.000                  
  21190107.769 7    174975.473 7     -1744.552 7        43.698                  
  20861575.076 6     56245.861 6      -631.238 6        38.731                  
  22248121.210 7   -289321.411 7      2651.379 7        42.728                  
  20357436.949 7     -9520.933 7        -2.523 7        42.199                  
 18  6  4 18 07 40.9238020  0  5G01G07G11G17G30                                 
  20726617.490 7    -92447.893 7       772.274 7        42.306                  
  21190092.615 7    175149.937 7     -1744.529 7        45.565                  
  20861542.683 6     56309.016 6      -631.802 6        40.926                  
  22248023.676 7   -289586.577 7      2651.556 7        42.929                  
  20357388.259 6     -9520.673 6        -2.411 6        40.930                  
 18  6  4 18 07 41.0238020  0  5G01G07G11G17G30                                 
  20726621.204 6    -92525.100 6       771.777 6        40.174                  
  21190143.237 7    175324.406 7     -1744.790 7        43.582                  
  20861573.444 6     56372.166 6      -631.404 6        41.365                  
  22247989.764 7   -289851.747 7      2651.560 7        42.989                  
  20357405.986 7     -9520.426 7        -2.954 7        44.260                  
 18  6  4 18 07 41.1238020  0  5G01G07G11G17G30                                 
  20726632.846 6    -92602.236 6       771.421 6        40.898                  
  21190201.544 7    175498.942 7     -1745.670 7        43.652                  
  20861610.814 7     56435.374 7      -632.636 7        42.507                  
  22247961.762 6   -290116.869 6      2650.781 6        40.616                  
  20357430.316 7     -9520.104 7        -3.236 7        42.619                  
 18  6  4 18 07 41.2238020  0  5G01G07G11G17G30                                 
  20726642.197 7    -92679.336 7       770.370 7        44.058                  
  21190261.527 7    175673.506 7     -1745.971 7        45.050                  
  20861646.172 6     56498.632 6      -632.924 6        41.397                  
  22247938.718 6   -290381.943 6      2650.558 6        39.177                  
  20357459.088 6     -9519.752 6        -3.793 6        41.455                  
 18  6  4 18 07 41.3238020  0  5G01G07G11G17G30                                 
  20726733.409 6    -92756.334 6       769.334 6        41.668                  
  21190395.059 7    175848.176 7     -1747.499 7        44.850                  
  20861753.892 6     56561.982 6      -633.814 6        40.802                  
  22247985.847 6   -290646.920 6      2649.107 6        40.379                  
  20357558.729 6     -9519.296 6        -5.205 6        41.776                  
 18  6  4 18 07 41.4238020  0  5G01G07G11G17G30                                 
  20726737.947 6    -92833.225 6       768.632 6        40.866                  
  21190452.010 7    176022.956 7     -1747.852 7        43.471                  
  20861784.384 7     56625.443 7      -635.301 7        43.353                  
  22247958.181 6   -290911.797 6      2648.451 6        41.325                  
  20357583.681 7     -9518.734 7        -6.138 7        43.398                  
 18  6  4 18 07 41.5238020  0  5G01G07G11G17G30                                 
  20726670.978 7    -92910.035 7       767.462 7        42.286                  
  21190435.258 7    176197.803 7     -1749.119 7        44.395                  
  20861753.527 7     56688.969 7      -635.715 7        42.415                  
  22247861.230 6   -291176.589 6      2647.448 6        40.451                  
  20357536.237 7     -9518.092 7        -6.688 7        43.660                  
 18  6  4 18 07 41.6238020  0  5G01G07G11G17G30                                 
  20726652.764 6    -92986.709 6       765.970 6        41.335                  
  21190464.702 7    176372.798 7     -1751.297 7        43.660                  
  20861764.123 6     56752.647 6      -637.589 6        41.398                  
  22247808.209 7   -291441.246 7      2645.722 7        44.129                  
  20357530.077 7     -9517.308 7        -8.780 7        45.153                  
 18  6  4 18 07 41.7238020  0  5G01G07G11G17G30                                 
  20726648.036 7    -93063.179 7       763.290 7        42.931                  
  21190512.638 7    176547.983 7     -1752.590 7        46.289                  
  20861784.870 6     56816.521 6      -639.910 6        40.372                  
  22247770.461 7   -291705.726 7      2643.749 7        42.514                  
  20357541.093 7     -9516.330 7       -10.996 7        43.104                  
 18  6  4 18 07 41.8238020  0  5G01G07G11G17G30                                 
  20726616.659 7    -93139.420 7       761.053 7        44.168                  
  21190529.925 7    176723.390 7     -1755.154 7        43.692                  
  20861783.430 7     56880.616 7      -642.164 7        42.378                  
  22247705.840 7   -291969.972 7      2641.138 7        42.140                  
  20357521.749 7     -9515.129 7       -13.093 7        43.847                  
 18  6  4 18 07 41.9238020  0  5G01G07G11G17G30                                 
  20726681.438 6    -93215.404 6       758.852 6        41.169                  
  21190635.204 7    176899.056 7     -1758.176 7        42.997                  
  20861870.811 6     56944.970 6      -645.013 6        41.156                  
  22247732.145 7   -292233.957 7      2638.734 7        42.581                  
  20357600.050 7     -9513.666 7       -15.955 7        43.027                  
 18  6  4 18 07 42.0238020  0  5G01G07G11G17G30                                 
  20726706.089 7    -93291.125 7       755.627 7        43.617                  
  21190698.802 7    177074.996 7     -1760.682 7        42.966                  
  20861922.364 6     57009.588 6      -647.718 6        41.550                  
  22247716.575 7   -292497.688 7      2635.425 7        42.891                  
  20357632.909 7     -9511.929 7       -19.327 7        43.257                  
 18  6  4 18 07 48.1238020  0  5G01G07G11G17G30                                 
  20749534.128 7    -93368.168 7       751.498 7        42.336                  
  21213580.177 7    177254.588 7     -1765.163 7        45.586                  
  20884774.717 6     57075.626 6      -651.959 6        41.816                  
  22270509.630 7   -292766.951 7      2631.811 7        43.041                  
  20380475.806 7     -9510.003 7       -22.602 7        44.428                  
 18  6  4 18 07 48.2238020  0  5G01G07G11G17G30                                 
  20749568.043 7    -93441.478 7       748.553 7        42.264                  
  21213659.484 7    177427.934 7     -1767.674 7        44.478                  
  20884833.748 6     57139.910 6      -654.576 6        39.591                  
  22270510.817 7   -293024.070 7      2629.305 7        42.719                  
  20380527.855 7     -9507.398 7       -25.953 7        44.870                  
 18  6  4 18 07 48.3238020  0  5G01G07G11G17G30                                 
  20749505.631 7    -93516.200 7       746.003 7        42.652                  
  21213645.095 7    177604.850 7     -1770.430 7        43.827                  
  20884806.700 7     57205.517 7      -656.652 7        43.323                  
  22270412.789 6   -293286.822 6      2626.002 6        40.269                  
  20380481.402 7     -9504.675 7       -28.129 7        42.712                  
 18  6  4 18 07 48.4238020  0  5G01G07G11G17G30                                 
  20749489.505 6    -93590.738 6       745.440 6        41.766                  
  21213680.750 7    177781.944 7     -1771.128 7        44.434                  
  20884818.035 6     57271.312 6      -658.979 6        41.797                  
  22270357.021 6   -293549.382 6      2625.437 6        40.491                  
  20380481.767 7     -9501.768 7       -29.318 7        44.067                  
 18  6  4 18 07 48.5238020  0  5G01G07G11G17G30                                 
  20749531.508 7    -93665.294 7       746.214 7        42.116                  
  21213768.312 7    177959.031 7     -1770.291 7        44.698                  
  20884882.654 6     57337.092 6      -656.856 6        41.588                  
  22270361.369 7   -293811.974 7      2626.663 7        42.279                  
  20380537.742 7     -9498.883 7       -28.689 7        43.440                  
 18  6  4 18 07 48.6238020  0  5G01G07G11G17G30                                 
  20749559.297 7    -93740.032 7       748.504 7        44.232                  
  21213845.687 7    178135.935 7     -1767.661 7        43.941                  
  20884932.534 6     57402.675 6      -654.304 6        38.722                  
  22270354.979 7   -294074.741 7      2629.115 7        43.920                  
  20380579.181 7     -9496.163 7       -25.697 7        44.050                  
 18  6  4 18 07 48.7238020  0  5G01G07G11G17G30                                 
  20749552.722 6    -93815.055 6       751.939 6        41.877                  
  21213890.118 7    178312.547 7     -1764.216 7        44.807                  
  20884952.510 7     57467.978 7      -651.239 7        42.531                  
  22270316.039 7   -294337.799 7      2632.149 7        43.421                  
  20380588.756 7     -9493.739 7       -22.336 7        45.729                  
 18  6  4 18 07 48.8238020  0  5G01G07G11G17G30                                 
  20749588.270 6    -93890.448 6       755.783 6        41.591                  
  21213971.385 7    178488.769 7     -1760.915 7        44.502                  
  20885012.250 6     57532.905 6      -647.789 6        40.844                  
  22270313.304 6   -294601.243 6      2636.091 6        40.864                  
  20380640.830 7     -9491.693 7       -18.507 7        44.468                  
 18  6  4 18 07 48.9238020  0  5G01G07G11G17G30                                 
  20749601.825 6    -93966.158 6       758.110 6        40.677                  
  21214031.189 7    178664.685 7     -1757.607 7        44.288                  
  20885051.236 6     57597.516 6      -645.131 6        39.948                  
  22270289.676 6   -294864.991 6      2638.729 6        41.120                  
  20380666.923 7     -9489.960 7       -16.303 7        44.068                  
 18  6  4 18 07 49.0238020  0  5G01G07G11G17G30                                 
  20749493.884 6    -94042.037 6       758.990 6        41.711                  
  21213976.852 7    178840.439 7     -1757.211 7        42.859                  
  20884982.009 6     57661.955 6      -643.992 6        39.312                  
  22270147.940 7   -295128.919 7      2639.439 7        43.011                  
  20380576.755 7     -9488.398 7       -15.214 7        45.693                  
 18  6  4 18 07 49.1238020  0  5G01G07G11G17G30                                 
  20749528.363 7    -94117.916 7       758.551 7        43.206                  
  21214058.116 7    179016.176 7     -1757.917 7        44.085                  
  20885038.219 6     57726.400 6      -644.758 6        40.873                  
  22270145.425 7   -295392.858 7      2639.168 7        43.086                  
  20380621.632 7     -9486.843 7       -15.988 7        44.633                  
 18  6  4 18 07 49.2238020  0  5G01G07G11G17G30                                 
  20749604.229 6    -94193.712 6       757.460 6        41.462                  
  21214180.417 7    179192.004 7     -1758.754 7        46.879                  
  20885131.592 6     57790.915 6      -645.637 6        40.473                  
  22270190.032 6   -295656.711 6      2637.853 6        41.921                  
  20380710.730 7     -9485.195 7       -17.177 7        44.443                  
 18  6  4 18 07 49.3238020  0  5G01G07G11G17G30                                 
  20749549.898 6    -94269.460 6       757.736 6        38.350                  
  21214181.199 7    179367.890 7     -1758.755 7        45.116                  
  20885109.366 6     57855.492 6      -645.769 6        40.476                  
  22270104.073 7   -295920.508 7      2638.235 7        43.123                  
  20380677.712 7     -9483.495 7       -16.646 7        44.179                  
 18  6  4 18 07 49.4238020  0  5G01G07G11G17G30                                 
  20749501.479 7    -94345.214 7       757.660 7        42.698                  
  21214180.905 7    179543.747 7     -1758.559 7        45.734                  
  20885092.982 6     57920.051 6      -645.079 6        40.091                  
  22270019.471 7   -296184.340 7      2638.413 7        42.252                  
  20380640.762 7     -9481.822 7       -16.814 7        44.276                  
 18  6  4 18 07 49.5238020  0  5G01G07G11G17G30                                 
  20749533.400 6    -94421.023 6       758.435 6        40.546                  
  21214257.647 7    179719.546 7     -1757.503 7        42.270                  
  20885149.368 6     57984.550 6      -644.635 6        41.487                  
  22270010.183 7   -296448.220 7      2639.620 7        42.355                  
  20380687.083 7     -9480.191 7       -15.761 7        44.065                  
 18  6  4 18 07 49.6238020  0  5G01G07G11G17G30                                 
  20749562.953 7    -94496.973 7       760.188 7        42.705                  
  21214332.095 7    179895.217 7     -1755.565 7        44.511                  
  20885204.528 6     58048.912 6      -643.475 6        40.291                  
  22270003.028 6   -296712.239 6      2640.864 6        41.683                  
  20380733.729 7     -9478.704 7       -13.968 7        45.037                  
 18  6  4 18 07 49.7238020  0  5G01G07G11G17G30                                 
  20749547.153 6    -94573.041 6       761.390 6        40.980                  
  21214365.507 7    180070.753 7     -1755.024 7        45.041                  
  20885218.983 6     58113.169 6      -641.755 6        40.180                  
  22269956.202 6   -296976.390 6      2641.962 6        41.406                  
  20380738.709 7     -9477.330 7       -13.228 7        46.676                  
 18  6  4 18 07 49.8238020  0  5G01G07G11G17G30                                 
  20749588.136 7    -94649.164 7       761.188 7        42.279                  
  21214449.596 7    180246.236 7     -1754.859 7        45.041                  
  20885283.407 6     58177.344 6      -641.511 6        39.847                  
  22269957.425 7   -297240.597 7      2642.281 7        42.010                  
  20380791.611 6     -9476.021 6       -13.519 6        41.894                  
 18  6  4 18 07 49.9238020  0  5G01G07G11G17G30                                 
  20749551.074 6    -94725.304 6       761.118 6        39.154                  
  21214463.200 7    180421.715 7     -1754.879 7        44.171                  
  20885276.118 7     58241.518 7      -641.431 7        42.464                  
  22269883.783 7   -297504.819 7      2642.190 7        44.165                  
  20380767.935 7     -9474.731 7       -12.565 7        46.063                  
 18  6  4 18 07 50.0238020  0  5G01G07G11G17G30                                 
  20749472.801 7    -94801.487 7       762.719 7        42.881                  
  21214436.664 7    180597.134 7     -1753.100 7        43.648                  
  20885232.618 6     58305.638 6      -640.935 6        40.927                  
  22269770.551 6   -297769.099 6      2643.502 6        41.059                  
  20380703.888 7     -9473.471 7       -11.937 7        44.044                  
 18  6  4 18 07 50.1238020  0  5G01G07G11G17G30                                 
  20749540.629 6    -94877.798 6       763.692 6        41.142                  
  21214551.268 7    180772.414 7     -1752.549 7        43.515                  
  20885318.978 7     58369.630 7      -638.976 7        43.504                  
  22269803.330 7   -298033.504 7      2644.866 7        42.006                  
  20380785.514 7     -9472.354 7       -10.882 7        46.344                  
 18  6  4 18 07 50.2238020  0  5G01G07G11G17G30                                 
  20749590.456 7    -94954.231 7       764.939 7        42.250                  
  21214647.384 7    180947.578 7     -1751.052 7        44.114                  
  20885391.657 7     58433.491 7      -638.491 7        42.753                  
  22269818.682 6   -298298.039 6      2645.461 6        41.223                  
  20380854.416 7     -9471.353 7        -9.244 7        44.125                  
 18  6  4 18 07 50.3238020  0  5G01G07G11G17G30                                 
  20749576.716 6    -95030.721 6       765.178 6        39.480                  
  21214683.215 6    181122.685 6     -1750.841 6        41.893                  
  20885405.260 7     58497.305 7      -637.801 7        43.850                  
  22269774.363 7   -298562.631 7      2646.426 7        42.700                  
  20380853.971 7     -9470.410 7        -9.254 7        45.771                  
 18  6  4 18 07 50.4238020  0  5G01G07G11G17G30                                 
  20749499.159 6    -95107.304 6       766.554 6        41.510                  
  21214664.208 7    181297.698 7     -1749.524 7        43.476                  
  20885360.989 6     58561.031 6      -636.480 6        41.604                  
  22269666.163 6   -298827.324 6      2647.557 6        41.101                  
  20380798.033 7     -9469.556 7        -7.616 7        45.695                  
 18  6  4 18 07 50.5238020  0  5G01G07G11G17G30                                 
  20749549.881 6    -95184.078 6       769.021 6        40.812                  
  21214757.870 7    181472.520 7     -1746.793 7        44.510                  
  20885433.384 6     58624.549 6      -633.650 6        40.657                  
  22269673.558 7   -299092.205 7      2650.382 7        43.447                  
  20380858.842 7     -9468.904 7        -5.394 7        42.367                  
 18  6  4 18 07 50.6238020  0  5G01G07G11G17G30                                 
  20749580.974 6    -95261.108 6       771.477 6        40.444                  
  21214828.926 7    181647.070 7     -1744.024 7        45.619                  
  20885490.498 6     58687.802 6      -631.641 6        40.291                  
  22269663.970 7   -299357.353 7      2652.649 7        43.212                  
  20380900.477 7     -9468.504 7        -2.769 7        43.307                  
 18  6  4 18 07 50.7238020  0  5G01G07G11G17G30                                 
  20749539.910 6    -95338.357 6       773.214 6        40.971                  
  21214835.940 7    181821.409 7     -1742.964 7        43.812                  
  20885482.138 6     58750.852 6      -629.876 6        41.316                  
  22269590.496 6   -299622.732 6      2654.388 6        41.925                  
  20380875.758 6     -9468.334 6        -1.083 6        41.484                  
 18  6  4 18 07 50.8238020  0  5G01G07G11G17G30                                 
  20749577.207 7    -95415.745 7       774.566 7        44.175                  
  21214918.647 7    181995.606 7     -1741.335 7        43.971                  
  20885543.175 6     58813.761 6      -627.989 6        41.577                  
  22269590.502 6   -299888.251 6      2655.790 6        41.853                  
  20380928.398 7     -9468.287 7         0.177 7        43.706                  
 18  6  4 18 07 50.9238020  0  5G01G07G11G17G30                                 
  20749600.113 6    -95493.216 6       775.018 6        41.405                  
  21214990.833 7    182169.721 7     -1740.815 7        43.035                  
  20885588.465 6     58876.582 6      -628.090 6        41.027                  
  22269578.753 7   -300153.831 7      2656.363 7        42.683                  
  20380963.419 7     -9468.333 7         0.737 7        43.930                  
 18  6  4 18 07 51.0238020  0  5G01G07G11G17G30                                 
  20749575.845 7    -95570.757 7       775.489 7        42.362                  
  21215018.774 7    182343.758 7     -1739.882 7        44.301                  
  20885591.666 7     58939.328 7      -627.334 7        42.848                  
  22269521.297 7   -300419.506 7      2656.859 7        43.083                  
  20380953.187 7     -9468.452 7         1.664 7        43.319                  
 18  6  4 18 07 51.1238020  0  5G01G07G11G17G30                                 
  20749533.646 6    -95648.390 6       776.931 6        40.517                  
  21215030.756 7    182517.694 7     -1738.663 7        44.251                  
  20885579.599 7     59001.976 7      -625.692 7        42.923                  
  22269445.482 7   -300685.287 7      2658.379 7        45.160                  
  20380929.456 6     -9468.666 6         2.644 6        41.771                  
 18  6  4 18 07 51.2238020  0  5G01G07G11G17G30                                 
  20749589.241 7    -95726.180 7       778.939 7        43.108                  
  21215133.284 7    182691.494 7     -1736.884 7        43.370                  
  20885656.101 6     59064.485 6      -624.056 6        40.607                  
  22269461.996 7   -300951.202 7      2660.541 7        42.702                  
  20381001.580 7     -9469.026 7         4.888 7        44.163                  
 18  6  4 18 07 51.3238020  0  5G01G07G11G17G30                                 
  20749562.924 7    -95804.178 7       781.272 7        42.860                  
  21215147.534 7    182865.062 7     -1735.023 7        46.131                  
  20885662.373 6     59126.772 6      -621.801 6        39.465                  
  22269395.849 7   -301217.358 7      2662.349 7        43.481                  
  20380984.229 7     -9469.607 7         6.764 7        44.287                  
 18  6  4 18 07 51.4238020  0  5G01G07G11G17G30                                 
  20749571.866 6    -95882.348 6       782.061 6        41.333                  
  21215204.293 7    183038.461 7     -1733.666 7        46.656                  
  20885697.531 6     59188.876 6      -620.164 6        38.879                  
  22269368.033 7   -301483.673 7      2663.771 7        43.097                  
  20381009.000 7     -9470.354 7         7.847 7        44.202                  
 18  6  4 18 07 51.5238020  0  5G01G07G11G17G30                                 
  20749604.803 6    -95960.576 6       782.487 6        41.828                  
  21215283.830 7    183211.806 7     -1733.147 7        44.829                  
  20885753.358 7     59250.932 7      -620.684 7        42.107                  
  22269361.899 7   -301750.059 7      2663.943 7        42.304                  
  20381055.000 7     -9471.157 7         8.142 7        43.431                  
 18  6  4 18 07 51.6238020  0  5G01G07G11G17G30                                 
  20749577.228 6    -96038.822 6       782.325 6        39.146                  
  21215308.144 7    183385.111 7     -1732.930 7        44.787                  
  20885754.490 6     59312.959 6      -620.474 6        39.694                  
  22269298.036 7   -302016.469 7      2664.198 7        42.993                  
  20381043.397 7     -9471.996 7         8.452 7        44.276                  
 18  6  4 18 07 51.7238020  0  5G01G07G11G17G30                                 
  20749637.339 6    -96116.959 6       779.335 6        41.734                  
  21215411.382 7    183558.544 7     -1736.494 7        44.420                  
  20885836.483 6     59375.106 6      -623.351 6        39.812                  
  22269320.606 7   -302282.765 7      2660.833 7        42.166                  
  20381118.303 7     -9472.709 7         5.032 7        45.356                  
 18  6  4 18 07 51.8238020  0  5G01G07G11G17G30                                 
  20749658.956 6    -96194.569 6       772.924 6        41.634                  
  21215478.911 7    183732.505 7     -1742.545 7        45.272                  
  20885881.914 6     59437.780 6      -629.617 6        41.281                  
  22269301.510 7   -302548.539 7      2654.733 7        43.479                  
  20381150.151 7     -9472.904 7        -1.229 7        42.650                  
 18  6  4 18 07 51.9238020  0  5G01G07G11G17G30                                 
  20749589.741 6    -96271.637 6       768.646 6        40.677                  
  21215462.899 7    183906.996 7     -1746.914 7        43.818                  
  20885846.869 6     59500.993 6      -634.443 6        41.499                  
  22269201.475 7   -302813.769 7      2650.315 7        43.349                  
  20381099.398 7     -9472.542 7        -5.527 7        45.133                  
 18  6  4 18 07 52.0238020  0  5G01G07G11G17G30                                 
  20749581.151 6    -96348.365 6       766.895 6        41.869                  
  21215503.900 7    184081.824 7     -1748.994 7        47.326                  
  20885863.878 7     59564.532 7      -636.259 7        42.024                  
  22269156.572 7   -303078.677 7      2648.165 7        45.095                  
  20381100.840 7     -9471.855 7        -7.723 7        44.951                  
 18  6  4 18 07 52.1238020  0  5G01G07G11G17G30                                 
  20749580.033 6    -96425.013 6       766.473 6        38.479                  
  21215549.784 7    184256.733 7     -1748.760 7        43.631                  
  20885891.473 6     59628.159 6      -635.910 6        41.208                  
  22269123.942 7   -303343.500 7      2648.597 7        42.248                  
  20381117.832 7     -9471.087 7        -7.605 7        43.166                  
 18  6  4 18 07 52.2238020  0  5G01G07G11G17G30                                 
  20749670.321 7    -96501.706 7       766.991 7        45.818                  
  21215679.965 7    184431.598 7     -1748.441 7        43.647                  
  20885999.461 6     59691.749 6      -635.842 6        40.609                  
  22269175.656 7   -303608.382 7      2649.218 7        43.840                  
  20381216.528 7     -9470.368 7        -6.798 7        43.458                  
 18  6  4 18 07 52.3238020  0  5G01G07G11G17G30                                 
  20749709.365 6    -96578.482 6       768.528 6        41.342                  
  21215768.172 7    184606.369 7     -1747.147 7        43.725                  
  20886060.489 6     59755.228 6      -633.836 6        40.292                  
  22269176.716 7   -303873.339 7      2650.128 7        42.544                  
  20381272.687 7     -9469.727 7        -5.584 7        44.361                  
 18  6  4 18 07 52.4238020  0  5G01G07G11G17G30                                 
  20749728.052 6    -96655.380 6       769.654 6        41.742                  
  21215832.175 7    184781.019 7     -1745.879 7        44.020                  
  20886105.780 6     59818.609 6      -633.377 6        40.792                  
  22269161.453 7   -304138.432 7      2651.501 7        42.333                  
  20381307.988 7     -9469.218 7        -4.526 7        43.193                  
 18  6  4 18 07 52.5238020  0  5G01G07G11G17G30                                 
  20749682.301 6    -96732.439 6       771.442 6        40.807                  
  21215836.976 7    184955.509 7     -1744.366 7        44.706                  
  20886092.722 7     59881.830 7      -631.268 7        44.443                  
  22269081.939 7   -304403.672 7      2653.029 7        42.039                  
  20381280.934 7     -9468.855 7        -2.990 7        42.839                  
 18  6  4 18 07 52.6238020  0  5G01G07G11G17G30                                 
  20749673.471 6    -96809.614 6       772.371 6        41.448                  
  21215874.165 7    185129.867 7     -1742.512 7        44.461                  
  20886112.049 7     59944.895 7      -629.907 7        42.210                  
  22269034.574 7   -304669.059 7      2655.004 7        42.271                  
  20381283.769 6     -9468.627 6        -1.460 6        40.774                  
 18  6  4 18 07 52.7238020  0  5G01G07G11G17G30                                 
  20749624.458 7    -96886.984 7       774.957 7        42.225                  
  21215875.015 7    185304.032 7     -1740.630 7        45.572                  
  20886095.727 7     60007.788 7      -628.268 7        42.609                  
  22268958.222 6   -304934.638 6      2656.757 6        40.983                  
  20381250.969 7     -9468.592 7         0.730 7        42.091                  
 18  6  4 18 07 52.8238020  0  5G01G07G11G17G30                                 
  20749669.733 6    -96964.600 6       777.136 6        41.759                  
  21215965.169 7    185477.951 7     -1737.866 7        44.735                  
  20886162.250 7     60070.439 7      -624.774 7        42.490                  
  22268965.261 6   -305200.462 6      2659.504 6        41.923                  
  20381306.240 7     -9468.798 7         3.433 7        44.182                  
 18  6  4 18 07 52.9238020  0  5G01G07G11G17G30                                 
  20749634.026 7    -97042.490 7       780.643 7        43.950                  
  21215984.714 7    185651.605 7     -1734.638 7        44.079                  
  20886155.941 7     60132.809 7      -622.024 7        42.032                  
  22268899.622 7   -305466.562 7      2662.656 7        42.365                  
  20381291.162 7     -9469.270 7         6.275 7        42.665                  
 18  6  4 18 07 53.0238020  0  5G01G07G11G17G30                                 
  20749642.025 7    -97120.711 7       783.921 7        43.003                  
  21216042.690 7    185824.921 7     -1731.853 7        46.456                  
  20886188.712 7     60194.853 7      -619.105 7        42.927                  
  22268867.887 7   -305732.996 7      2665.889 7        42.589                  
  20381313.903 7     -9470.083 7         9.531 7        43.133                  
 18  6  4 18 07 53.1238020  0  5G01G07G11G17G30                                 
  20749679.665 6    -97199.166 6       784.808 6        40.061                  
  21216127.480 7    185997.990 7     -1730.129 7        45.867                  
  20886247.072 6     60256.654 6      -617.485 6        41.001                  
  22268866.171 6   -305999.664 6      2667.132 6        40.380                  
  20381360.785 7     -9471.120 7        11.198 7        43.721                  
 18  6  4 18 07 53.2238020  0  5G01G07G11G17G30                                 
  20749662.538 6    -97277.734 6       786.347 6        41.474                  
  21216153.672 7    186170.955 7     -1728.927 7        45.805                  
  20886261.346 6     60318.342 6      -616.175 6        41.819                  
  22268813.139 7   -306266.452 7      2668.660 7        42.243                  
  20381357.358 7     -9472.276 7        12.235 7        43.991                  
 18  6  4 18 07 53.3238020  0  5G01G07G11G17G30                                 
  20749677.977 7    -97356.475 7       788.466 7        43.313                  
  21216215.504 7    186343.734 7     -1726.530 7        45.172                  
  20886302.884 6     60379.856 6      -613.590 6        39.400                  
  22268793.322 7   -306533.423 7      2671.165 7        42.384                  
  20381388.429 7     -9473.616 7        14.568 7        43.299                  
 18  6  4 18 07 53.4238020  0  5G01G07G11G17G30                                 
  20749673.871 6    -97435.489 6       791.490 6        40.498                  
  21216261.422 7    186516.243 7     -1723.833 7        44.083                  
  20886325.873 6     60441.086 6      -611.004 6        40.864                  
  22268749.859 6   -306800.662 6      2673.693 6        41.334                  
  20381401.476 7     -9475.226 7        17.626 7        42.162                  
 18  6  4 18 07 53.5238020  0  5G01G07G11G17G30                                 
  20749701.738 6    -97514.652 6       791.534 6        41.322                  
  21216334.942 7    186688.603 7     -1724.039 7        44.883                  
  20886378.103 7     60502.168 7      -611.362 7        44.844                  
  22268741.165 7   -307068.074 7      2673.807 7        42.475                  
  20381443.323 7     -9476.992 7        16.702 7        43.215                  
 18  6  4 18 07 53.6238020  0  5G01G07G11G17G30                                 
  20749657.180 6    -97593.671 6       789.231 6        41.938                  
  21216343.319 7    186861.107 7     -1725.771 7        44.811                  
  20886364.678 6     60563.390 6      -612.958 6        41.340                  
  22268662.649 6   -307335.337 6      2671.922 6        41.887                  
  20381417.231 7     -9478.608 7        15.729 7        43.900                  
 18  6  4 18 07 53.7238020  0  5G01G07G11G17G30                                 
  20749657.299 6    -97672.631 6       789.992 6        38.933                  
  21216389.799 7    187033.665 7     -1725.106 7        45.773                  
  20886389.946 6     60624.686 6      -612.667 6        41.927                  
  22268626.303 6   -307602.538 6      2672.390 6        41.599                  
  20381423.930 7     -9480.161 7        16.114 7        45.478                  
 18  6  4 18 07 53.8238020  0  5G01G07G11G17G30                                 
  20749673.050 6    -97751.730 6       792.263 6        41.012                  
  21216452.203 7    187206.075 7     -1722.903 7        45.023                  
  20886432.494 6     60685.826 6      -610.237 6        40.408                  
  22268611.274 7   -307869.888 7      2674.580 7        42.122                  
  20381458.031 7     -9481.866 7        17.877 7        42.876                  
 18  6  4 18 07 53.9238020  0  5G01G07G11G17G30                                 
  20749669.440 6    -97831.087 6       795.188 6        40.850                  
  21216494.027 7    187378.232 7     -1719.904 7        44.388                  
  20886457.821 7     60746.721 7      -607.366 7        43.136                  
  22268571.318 6   -308137.491 6      2677.482 6        41.406                  
  20381469.564 7     -9483.811 7        21.142 7        43.145                  
 18  6  4 18 07 54.0238020  0  5G01G07G11G17G30                                 
  20749637.285 6    -97910.761 6       798.710 6        41.798                  
  21216517.210 7    187550.062 7     -1716.710 7        45.302                  
  20886455.872 6     60807.280 6      -603.903 6        39.873                  
  22268508.886 6   -308405.430 6      2681.228 6        40.715                  
  20381462.078 7     -9486.092 7        24.538 7        42.923                  
 18  6  4 18 07 54.1238020  0  5G01G07G11G17G30                                 
  20749642.844 6    -97990.734 6       800.304 6        40.947                  
  21216571.025 7    187721.583 7     -1714.084 7        46.835                  
  20886487.620 7     60867.544 7      -601.743 7        43.580                  
  22268478.532 6   -308673.660 6      2683.293 6        41.351                  
  20381482.826 7     -9488.666 7        26.702 7        44.506                  
 18  6  4 18 07 54.2238020  0  5G01G07G11G17G30                                 
  20749663.045 6    -98070.778 6       799.284 6        41.159                  
  21216633.882 7    187893.050 7     -1715.635 7        44.173                  
  20886532.809 6     60927.730 6      -603.281 6        41.339                  
  22268460.711 6   -308941.977 6      2682.359 6        41.121                  
  20381510.747 7     -9491.317 7        25.616 7        42.225                  
 18  6  4 18 07 54.3238020  0  5G01G07G11G17G30                                 
  20749770.803 7    -98150.668 7       798.573 7        43.432                  
  21216785.944 7    188064.663 7     -1716.920 7        44.241                  
  20886654.544 6     60988.083 6      -603.579 6        40.939                  
  22268524.701 7   -309210.142 7      2680.959 7        44.916                  
  20381630.063 7     -9493.807 7        24.470 7        44.764                  
 18  6  4 18 07 54.4238020  0  5G01G07G11G17G30                                 
  20749710.047 7    -98230.381 7       795.535 7        42.125                  
  21216775.512 7    188236.452 7     -1719.395 7        43.856                  
  20886626.855 7     61048.617 7      -606.975 7        42.349                  
  22268425.494 6   -309478.111 6      2678.485 6        41.943                  
  20381582.790 7     -9496.125 7        21.483 7        43.272                  
 18  6  4 18 07 54.5238020  0  5G01G07G11G17G30                                 
  20749702.259 6    -98309.882 6       795.523 6        41.291                  
  21216813.100 7    188408.451 7     -1719.714 7        44.655                  
  20886648.076 6     61109.351 6      -606.798 6        40.840                  
  22268385.125 7   -309745.899 7      2678.084 7        44.096                  
  20381588.607 7     -9498.233 7        21.412 7        42.715                  
 18  6  4 18 07 54.6238020  0  5G01G07G11G17G30                                 
  20749617.402 7    -98389.470 7       796.142 7        43.070                  
  21216784.117 7    188580.364 7     -1718.773 7        43.674                  
  20886599.222 6     61170.000 6      -606.469 6        40.790                  
  22268269.268 7   -310013.764 7      2678.832 7        43.698                  
  20381526.181 7     -9500.414 7        22.119 7        43.866                  
 18  6  4 18 07 54.7238020  0  5G01G07G11G17G30                                 
  20749638.108 7    -98469.083 7       795.846 7        42.360                  
  21216853.946 7    188752.253 7     -1719.159 7        44.939                  
  20886643.851 7     61230.619 7      -606.327 7        42.172                  
  22268254.202 7   -310281.654 7      2678.440 7        43.819                  
  20381562.632 7     -9502.629 7        21.712 7        44.771                  
 18  6  4 18 07 54.8238020  0  5G01G07G11G17G30                                 
  20749648.137 6    -98548.562 6       794.018 6        41.787                  
  21216912.035 7    188924.258 7     -1720.844 7        47.432                  
  20886678.703 6     61291.356 6      -607.987 6        40.267                  
  22268228.950 6   -310549.438 6      2677.062 6        41.812                  
  20381585.102 7     -9504.716 7        20.130 7        44.854                  
 18  6  4 18 07 54.9238020  0  5G01G07G11G17G30                                 
  20749672.349 7    -98627.942 7       793.213 7        42.672                  
  21216984.057 7    189096.372 7     -1721.616 7        42.242                  
  20886726.680 6     61352.215 6      -609.089 6        39.294                  
  22268223.875 7   -310817.095 7      2676.477 7        44.523                  
  20381623.721 7     -9506.694 7        19.546 7        44.438                  
 18  6  4 18 07 55.0238020  0  5G01G07G11G17G30                                 
  20749728.822 6    -98707.246 6       792.675 6        41.257                  
  21217085.149 7    189268.569 7     -1722.112 7        43.494                  
  20886803.988 6     61413.141 6      -609.525 6        40.403                  
  22268237.080 6   -311084.704 6      2675.626 6        41.272                  
  20381692.972 7     -9508.603 7        18.307 7        45.170                  
 18  6  4 18 07 55.1238020  0  5G01G07G11G17G30                                 
  20749735.667 6    -98786.394 6       790.662 6        40.784                  
  21217140.015 7    189440.902 7     -1724.277 7        46.013                  
  20886836.950 6     61474.227 6      -611.832 6        39.625                  
  22268206.767 7   -311352.149 7      2673.732 7        42.544                  
  20381714.901 7     -9510.361 7        16.946 7        43.873                  
 18  6  4 18 07 55.2238020  0  5G01G07G11G17G30                                 
  20749764.795 6    -98865.395 6       789.350 6        40.836                  
  21217212.455 7    189613.377 7     -1725.502 7        44.930                  
  20886890.646 6     61535.438 6      -612.964 6        40.552                  
  22268202.164 6   -311619.469 6      2672.338 6        41.843                  
  20381755.152 7     -9511.972 7        15.398 7        43.473                  
 18  6  4 18 07 55.3238020  0  5G01G07G11G17G30                                 
  20749761.346 6    -98944.283 6       788.545 6        41.567                  
  21217258.183 7    189785.976 7     -1726.073 7        45.326                  
  20886914.843 6     61596.786 6      -613.711 6        39.328                  
  22268157.798 7   -311886.666 7      2671.706 7        42.449                  
  20381769.374 7     -9513.466 7        14.685 7        45.786                  
 18  6  4 18 07 55.4238020  0  5G01G07G11G17G30                                 
  20749701.071 6    -99023.061 6       786.487 6        41.326                  
  21217249.237 7    189958.670 7     -1728.257 7        43.567                  
  20886887.294 7     61658.216 7      -615.572 7        42.759                  
  22268064.066 7   -312153.763 7      2669.966 7        42.434                  
  20381723.444 7     -9514.861 7        12.700 7        45.858                  
 18  6  4 18 07 55.5238020  0  5G01G07G11G17G30                                 
  20749658.975 6    -99101.548 6       783.667 6        41.836                  
  21217259.290 7    190131.658 7     -1730.771 7        45.183                  
  20886876.043 6     61719.950 6      -618.325 6        40.935                  
  22267988.588 7   -312420.565 7      2666.795 7        42.110                  
  20381698.559 7     -9515.976 7        10.165 7        44.183                  
 18  6  4 18 07 55.6238020  0  5G01G07G11G17G30                                 
  20749704.524 7    -99180.007 7       786.085 7        42.397                  
  21217348.276 7    190304.665 7     -1728.738 7        44.617                  
  20886945.068 6     61781.703 6      -616.159 6        40.648                  
  22267996.988 7   -312687.348 7      2669.338 7        43.444                  
  20381758.633 7     -9517.048 7        11.962 7        45.357                  
 18  6  4 18 07 55.7238020  0  5G01G07G11G17G30                                 
  20749668.076 6    -99258.859 6       791.107 6        41.708                  
  21217364.652 7    190477.292 7     -1724.060 7        43.616                  
  20886938.088 6     61843.085 6      -611.567 6        39.248                  
  22267928.154 6   -312954.516 6      2673.742 6        41.489                  
  20381738.573 7     -9518.496 7        17.139 7        43.569                  
 18  6  4 18 07 55.8238020  0  5G01G07G11G17G30                                 
  20749671.615 7    -99338.116 7       793.703 7        42.885                  
  21217412.022 7    190649.500 7     -1720.762 7        45.538                  
  20886970.297 6     61904.033 6      -608.005 6        39.993                  
  22267894.380 6   -313222.114 6      2677.625 6        41.017                  
  20381756.544 7     -9520.376 7        19.843 7        45.059                  
 18  6  4 18 07 55.9238020  0  5G01G07G11G17G30                                 
  20749686.873 6    -99417.521 6       794.019 6        41.413                  
  21217477.411 7    190821.553 7     -1720.251 7        45.145                  
  20887009.874 7     61964.838 7      -608.014 7        43.050                  
  22267874.982 7   -313489.859 7      2677.796 7        42.024                  
  20381788.342 7     -9522.385 7        20.385 7        46.082                  
 18  6  4 18 07 56.0238020  0  5G01G07G11G17G30                                 
  20749702.034 7    -99497.023 7       796.141 7        42.126                  
  21217539.882 7    190993.514 7     -1719.206 7        44.874                  
  20887050.835 6     62025.545 6      -606.067 6        39.662                  
  22267850.062 6   -313757.695 6      2678.681 6        40.359                  
  20381819.720 7     -9524.508 7        21.768 7        42.862                  
 18  6  4 18 07 56.1238020  0  5G01G07G11G17G30                                 
  20749660.227 7    -99576.636 7       796.470 7        42.458                  
  21217548.420 7    191165.370 7     -1717.646 7        45.530                  
  20887038.464 6     62086.129 6      -605.548 6        40.576                  
  22267774.993 6   -314025.654 6      2680.115 6        40.499                  
  20381787.804 7     -9526.740 7        22.976 7        45.682                  
 18  6  4 18 07 56.2238020  0  5G01G07G11G17G30                                 
  20749629.656 7    -99656.353 7       797.987 7        42.348                  
  21217571.134 7    191337.108 7     -1716.695 7        44.008                  
  20887035.130 6     62146.627 6      -604.157 6        39.366                  
  22267708.694 6   -314293.724 6      2681.534 6        41.909                  
  20381769.892 7     -9529.076 7        24.157 7        42.661                  
 18  6  4 18 07 56.3238020  0  5G01G07G11G17G30                                 
  20749657.645 7    -99736.275 7       801.025 7        42.489                  
  21217640.228 7    191508.624 7     -1713.604 7        45.958                  
  20887089.237 6     62206.890 6      -601.131 6        40.511                  
  22267698.242 7   -314561.993 7      2684.479 7        42.868                  
  20381809.542 7     -9531.617 7        26.848 7        42.260                  
 18  6  4 18 07 56.4238020  0  5G01G07G11G17G30                                 
  20749698.063 6    -99816.586 6       805.075 6        39.676                  
  21217724.343 7    191679.774 7     -1709.073 7        44.449                  
  20887153.949 6     62266.795 6      -596.271 6        40.933                  
  22267706.442 7   -314830.659 7      2688.840 7        42.934                  
  20381865.419 7     -9534.548 7        31.880 7        43.349                  
 18  6  4 18 07 56.5238020  0  5G01G07G11G17G30                                 
  20749700.767 6    -99897.378 6       810.224 6        40.832                  
  21217775.646 7    191850.419 7     -1704.249 7        44.615                  
  20887183.609 6     62326.192 6      -592.076 6        40.918                  
  22267673.214 6   -315099.823 6      2694.223 6        41.057                  
  20381885.146 7     -9537.976 7        36.372 7        43.028                  
 18  6  4 18 07 56.6238020  0  5G01G07G11G17G30                                 
  20749656.270 6    -99978.638 6       814.590 6        41.922                  
  21217782.863 7    192020.617 7     -1700.027 7        44.134                  
  20887170.288 6     62385.152 6      -587.878 6        40.159                  
  22267595.844 7   -315369.435 7      2698.018 7        42.788                  
  20381857.169 7     -9541.832 7        40.648 7        45.503                  
 18  6  4 18 07 56.7238020  0  5G01G07G11G17G30                                 
  20749665.950 6   -100060.156 6       815.653 6        39.371                  
  21217839.867 7    192190.547 7     -1698.935 7        42.107                  
  20887204.961 6     62443.825 6      -585.989 6        40.661                  
  22267568.342 6   -315639.316 6      2699.106 6        41.921                  
  20381878.428 7     -9545.973 7        41.497 7        43.367                  
 18  6  4 18 07 56.8238020  0  5G01G07G11G17G30                                 
  20749635.053 6   -100141.645 6       813.440 6        41.490                  
  21217858.089 7    192360.515 7     -1700.981 7        45.143                  
  20887206.184 6     62502.549 6      -588.164 6        38.845                  
  22267501.875 7   -315909.170 7      2697.341 7        43.427                  
  20381867.927 7     -9550.086 7        40.050 7        44.590                  
 18  6  4 18 07 56.9238020  0  5G01G07G11G17G30                                 
  20749682.101 6   -100222.905 6       812.497 6        40.768                  
  21217951.070 7    192530.688 7     -1702.158 7        44.255                  
  20887274.958 6     62561.470 6      -589.869 6        40.928                  
  22267513.288 6   -316178.819 6      2696.138 6        40.933                  
  20381929.031 7     -9553.971 7        38.508 7        42.361                  
 18  6  4 18 07 57.0238020  0  5G01G07G11G17G30                                 
  20749718.461 7   -100304.233 7       814.699 7        44.434                  
  21218033.606 7    192700.806 7     -1699.320 7        44.723                  
  20887334.609 6     62620.347 6      -587.350 6        39.288                  
  22267506.688 7   -316448.515 7      2698.485 7        42.907                  
  20381980.415 7     -9557.913 7        40.882 7        44.483                  
 18  6  4 18 07 57.1238020  0  5G01G07G11G17G30                                 
  20749708.498 7   -100385.937 7       819.095 7        42.263                  
  21218071.760 7    192870.543 7     -1695.505 7        45.820                  
  20887351.622 6     62678.834 6      -582.732 6        40.770                  
  22267458.937 6   -316718.605 6      2703.091 6        40.444                  
  20381981.657 7     -9562.233 7        45.107 7        44.311                  
 18  6  4 18 07 57.2238020  0  5G01G07G11G17G30                                 
  20749701.066 7   -100467.933 7       820.382 7        42.388                  
  21218115.120 7    193039.981 7     -1693.982 7        44.482                  
  20887371.658 6     62737.024 6      -581.287 6        40.532                  
  22267420.868 7   -316988.987 7      2704.314 7        42.565                  
  20381992.548 7     -9566.855 7        47.001 7        46.057                  
 18  6  4 18 07 57.3238020  0  5G01G07G11G17G30                                 
  20749672.311 7   -100550.025 7       821.645 7        43.757                  
  21218137.632 7    193209.326 7     -1692.575 7        45.872                  
  20887372.019 6     62795.125 6      -580.140 6        40.199                  
  22267358.584 7   -317259.473 7      2705.670 7        43.264                  
  20381979.489 7     -9571.575 7        47.992 7        44.974                  
 18  6  4 18 07 57.4238020  0  5G01G07G11G17G30                                 
  20749715.378 7   -100632.338 7       825.016 7        42.746                  
  21218230.557 7    193378.437 7     -1689.538 7        46.186                  
  20887435.312 6     62852.993 6      -577.371 6        38.330                  
  22267366.863 6   -317530.191 6      2708.733 6        40.614                  
  20382037.155 7     -9576.523 7        51.105 7        43.837                  
 18  6  4 18 07 57.5238020  0  5G01G07G11G17G30                                 
  20749756.980 7   -100715.025 7       828.526 7        42.043                  
  21218315.699 7    193547.182 7     -1685.284 7        47.638                  
  20887501.261 6     62910.498 6      -572.839 6        39.944                  
  22267375.858 7   -317801.276 7      2713.073 7        44.327                  
  20382094.607 7     -9581.838 7        54.969 7        42.159                  
 18  6  4 18 07 57.6238020  0  5G01G07G11G17G30                                 
  20749795.109 7   -100798.137 7       833.554 7        42.472                  
  21218399.429 7    193715.486 7     -1680.899 7        44.869                  
  20887562.335 6     62967.568 6      -568.353 6        40.428                  
  22267377.490 6   -318072.797 6      2717.596 6        41.103                  
  20382146.427 6     -9587.579 6        59.886 6        41.907                  
 18  6  4 18 07 57.7238020  0  5G01G07G11G17G30                                 
  20749771.950 7   -100881.633 7       835.968 7        43.534                  
  21218423.268 7    193883.417 7     -1678.188 7        45.585                  
  20887568.536 6     63024.243 6      -565.312 6        41.888                  
  22267317.677 6   -318344.708 6      2719.896 6        41.727                  
  20382134.623 7     -9593.698 7        62.282 7        43.116                  
 18  6  4 18 07 57.8238020  0  5G01G07G11G17G30                                 
  20749775.598 6   -100965.281 6       836.799 6        41.033                  
  21218470.416 7    194051.200 7     -1677.130 7        44.648                  
  20887600.987 6     63080.794 6      -565.773 6        40.467                  
  22267281.347 6   -318616.755 6      2720.761 6        41.559                  
  20382152.618 7     -9599.976 7        62.922 7        44.188                  
 18  6  4 18 07 57.9238020  0  5G01G07G11G17G30                                 
  20749760.536 6   -101048.961 6       836.359 6        41.832                  
  21218502.069 7    194218.932 7     -1678.007 7        45.649                  
  20887615.560 6     63137.292 6      -565.358 6        41.541                  
  22267228.568 7   -318888.862 7      2720.930 7        43.281                  
  20382152.507 7     -9606.289 7        62.715 7        42.758                  
 18  6  4 18 07 58.0238020  0  5G01G07G11G17G30                                 
  20749738.661 6   -101132.435 6       833.276 6        41.808                  
  21218531.873 7    194386.884 7     -1681.348 7        43.796                  
  20887621.864 6     63193.995 6      -568.813 6        39.947                  
  22267171.009 7   -319160.745 7      2716.991 7        42.506                  
  20382146.905 7     -9612.393 7        59.364 7        43.651                  
 18  6  4 18 07 58.1238020  0  5G01G07G11G17G30                                 
  20749746.800 7   -101215.626 7       830.861 7        44.984                  
  21218589.185 7    194555.098 7     -1683.080 7        44.455                  
  20887655.884 6     63250.976 6      -570.732 6        39.625                  
  22267143.166 7   -319432.368 7      2715.600 7        42.444                  
  20382171.930 7     -9618.223 7        57.708 7        44.295                  
 18  6  4 18 07 58.2238020  0  5G01G07G11G17G30                                 
  20749708.479 6   -101298.565 6       826.773 6        40.989                  
  21218601.268 7    194723.579 7     -1686.682 7        45.769                  
  20887646.951 6     63308.212 6      -574.532 6        38.917                  
  22267071.107 7   -319703.737 7      2711.268 7        42.394                  
  20382144.839 7     -9623.793 7        53.337 7        44.692                  
 18  6  4 18 07 58.3238020  0  5G01G07G11G17G30                                 
  20749696.066 7   -101381.046 7       823.805 7        42.136                  
  21218639.137 7    194892.514 7     -1690.968 7        45.457                  
  20887662.161 6     63365.920 6      -578.256 6        40.013                  
  22267029.085 6   -319974.653 6      2707.869 6        40.741                  
  20382148.368 7     -9628.899 7        49.653 7        42.435                  
 18  6  4 18 07 58.4238020  0  5G01G07G11G17G30                                 
  20749752.799 7   -101463.414 7       824.067 7        42.513                  
  21218735.227 7    195061.543 7     -1689.576 7        44.115                  
  20887742.387 6     63423.716 6      -577.546 6        41.420                  
  22267043.026 7   -320245.471 7      2708.717 7        43.883                  
  20382217.207 7     -9633.916 7        50.868 7        43.769                  
 18  6  4 18 07 58.5238020  0  5G01G07G11G17G30                                 
  20749800.658 6   -101546.035 6       828.597 6        40.816                  
  21218825.227 7    195230.331 7     -1685.584 7        44.741                  
  20887811.451 6     63481.272 6      -573.497 6        38.571                  
  22267045.535 7   -320516.528 7      2712.826 7        43.525                  
  20382271.366 7     -9639.165 7        54.170 7        44.250                  
 18  6  4 18 07 58.6238020  0  5G01G07G11G17G30                                 
  20749750.356 7   -101629.128 7       833.745 7        42.790                  
  21218827.932 7    195398.649 7     -1680.548 7        45.409                  
  20887793.832 6     63538.354 6      -567.806 6        38.524                  
  22266965.428 7   -320788.067 7      2718.196 7        42.532                  
  20382242.120 7     -9644.883 7        60.290 7        45.250                  
 18  6  4 18 07 58.7238020  0  5G01G07G11G17G30                                 
  20749791.639 6   -101712.773 6       839.178 6        41.270                  
  21218919.019 7    195566.394 7     -1674.593 7        44.879                  
  20887857.629 6     63594.870 6      -562.522 6        41.810                  
  22266971.769 6   -321060.174 6      2723.826 6        40.135                  
  20382304.268 7     -9651.172 7        65.627 7        42.587                  
 18  6  4 18 07 58.8238020  0  5G01G07G11G17G30                                 
  20749783.844 7   -101796.968 7       844.564 7        43.135                  
  21218959.374 7    195733.593 7     -1669.626 7        44.542                  
  20887877.509 6     63650.835 6      -557.165 6        40.534                  
  22266933.751 6   -321332.816 6      2728.970 6        41.969                  
  20382310.765 7     -9658.002 7        70.736 7        43.350                  
 18  6  4 18 07 58.9238020  0  5G01G07G11G17G30                                 
  20749731.558 7   -101881.628 7       848.230 7        42.956                  
  21218960.825 7    195900.334 7     -1665.368 7        44.858                  
  20887857.360 6     63706.344 6      -553.072 6        37.915                  
  22266851.175 7   -321605.927 7      2733.338 7        42.590                  
  20382278.316 7     -9665.291 7        75.059 7        43.805                  
 18  6  4 18 07 59.0238020  0  5G01G07G11G17G30                                 
  20749719.191 7   -101966.713 7       853.479 7        42.725                  
  21218992.040 7    196066.636 7     -1660.332 7        46.969                  
  20887874.033 6     63761.408 6      -547.858 6        39.290                  
  22266799.348 7   -321879.490 7      2737.746 7        42.200                  
  20382274.768 7     -9673.024 7        79.600 7        45.022                  
 18  6  4 18 07 59.1238020  0  5G01G07G11G17G30                                 
  20749762.797 6   -102052.258 6       857.488 6        40.750                  
  21219083.792 7    196232.487 7     -1656.718 7        44.802                  
  20887938.491 6     63816.030 6      -544.232 6        38.416                  
  22266797.870 7   -322153.485 7      2742.017 7        42.713                  
  20382332.209 7     -9681.206 7        83.681 7        43.768                  
 18  6  4 18 07 59.2238020  0  5G01G07G11G17G30                                 
  20749765.664 6   -102138.232 6       861.828 6        40.100                  
  21219135.245 7    196397.898 7     -1651.784 7        44.139                  
  20887966.746 6     63870.213 6      -540.050 6        40.599                  
  22266762.070 6   -322427.937 6      2746.913 6        41.408                  
  20382347.338 7     -9689.823 7        88.443 7        43.366                  
 18  6  4 18 07 59.3238020  0  5G01G07G11G17G30                                 
  20749792.255 7   -102224.641 7       865.730 7        43.446                  
  21219204.823 7    196562.880 7     -1648.242 7        44.197                  
  20888019.622 6     63923.970 6      -535.625 6        41.561                  
  22266755.219 7   -322702.809 7      2750.271 7        42.388                  
  20382388.836 7     -9698.865 7        91.950 7        42.968                  
 18  6  4 18 07 59.4238020  0  5G01G07G11G17G30                                 
  20749856.594 5   -102311.186 5       856.370 5        34.354                  
  21219313.112 6    196727.715 6     -1657.813 6        39.837                  
  20888104.684 5     63977.495 5      -537.865 5        33.951                  
  22266780.586 5   -322977.860 5      2741.041 5        33.812                  
  20382467.705 5     -9708.078 5        82.975 5        30.735                  
 18  6  4 18 07 54.1238020  0  5G01G07G11G17G30                                 
  20727166.811 6   -102921.744 6       792.237 6        41.897                  
  21196966.620 7    198001.127 7     -1671.661 7        46.174                  
  20865609.478 6     64416.373 6      -592.360 6        39.261                  
  22243840.495 7   -325001.105 7      2690.319 7        44.533                  
  20359885.683 7     -9738.904 7        68.730 7        44.521                  
 18  6  4 18 07 54.2238020  0  5G01G07G11G17G30                                 
  20727192.553 6   -102963.419 6       824.698 6        40.042                  
  21197039.240 7    198086.494 7     -1689.068 7        44.399                  
  20865658.921 6     64445.548 6      -576.831 6        40.440                  
  22243835.239 6   -325138.073 6      2710.036 6        39.464                  
  20359924.036 7     -9741.479 7        51.141 7        43.116                  
 18  6  4 18 07 54.3238020  0  5G01G07G11G17G30                                 
  20727228.129 6   -103045.872 6       823.946 6        39.310                  
  21197124.862 7    198255.402 7     -1689.503 7        44.312                  
  20865717.050 7     64503.242 7      -577.522 7        42.884                  
  22243838.961 7   -325409.050 7      2709.203 7        42.404                  
  20359978.061 7     -9746.591 7        50.391 7        43.409                  
 18  6  4 18 07 54.4238020  0  5G01G07G11G17G30                                 
  20727203.775 6   -103128.191 6       822.387 6        41.686                  
  21197148.200 7    198424.458 7     -1691.482 7        45.332                  
  20865722.698 6     64561.066 6      -579.255 6        41.515                  
  22243777.066 7   -325679.889 7      2707.931 7        42.614                  
  20359967.085 7     -9751.554 7        48.817 7        44.281                  
 18  6  4 18 07 54.5238020  0  5G01G07G11G17G30                                 
  20727157.047 6   -103210.329 6       820.037 6        40.790                  
  21197151.767 7    198593.676 7     -1693.274 7        46.673                  
  20865708.845 7     64619.058 7      -581.007 7        42.482                  
  22243693.322 6   -325950.546 6      2705.261 6        41.468                  
  20359938.099 7     -9756.341 7        46.950 7        43.265                  
 18  6  4 18 07 54.6238020  0  5G01G07G11G17G30                                 
  20727085.031 6   -103292.155 6       816.076 6        39.786                  
  21197128.489 7    198763.215 7     -1697.859 7        46.311                  
  20865671.094 6     64677.384 6      -585.226 6        38.115                  
  22243588.787 7   -326220.902 7      2701.094 7        42.579                  
  20359875.320 7     -9760.819 7        42.474 7        44.656                  
 18  6  4 18 07 54.7238020  0  5G01G07G11G17G30                                 
  20727121.905 7   -103373.553 7       812.821 7        42.626                  
  21197212.633 7    198933.166 7     -1700.663 7        44.786                  
  20865731.380 7     64736.111 7      -588.791 7        43.603                  
  22243592.808 7   -326490.838 7      2698.013 7        45.245                  
  20359929.044 7     -9764.877 7        39.057 7        45.303                  
 18  6  4 18 07 54.8238020  0  5G01G07G11G17G30                                 
  20727093.072 6   -103454.777 6       812.647 6        40.725                  
  21197231.583 7    199103.303 7     -1700.770 7        43.881                  
  20865734.513 6     64795.028 6      -589.071 6        41.607                  
  22243528.451 6   -326760.587 6      2698.271 6        41.462                  
  20359917.993 7     -9768.751 7        39.269 7        44.833                  
 18  6  4 18 07 54.9238020  0  5G01G07G11G17G30                                 
  20727152.435 6   -103536.205 6       816.055 6        41.408                  
  21197335.144 7    199273.232 7     -1697.689 7        44.426                  
  20865814.333 6     64853.739 6      -585.181 6        38.117                  
  22243549.417 6   -327030.559 6      2701.365 6        41.921                  
  20359988.834 7     -9772.824 7        42.523 7        44.123                  
 18  6  4 18 07 55.0238020  0  5G01G07G11G17G30                                 
  20727257.228 7   -103618.103 7       821.444 7        42.269                  
  21197480.946 7    199442.679 7     -1691.816 7        45.395                  
  20865936.195 6     64911.971 6      -579.055 6        40.067                  
  22243609.849 7   -327301.006 7      2707.119 7        42.585                  
  20360107.372 7     -9777.369 7        48.340 7        45.912                  
 18  6  4 18 07 55.1238020  0  5G01G07G11G17G30                                 
  20727231.635 7   -103700.360 7       822.527 7        42.837                  
  21197507.613 7    199611.764 7     -1690.796 7        42.465                  
  20865939.210 6     64969.832 6      -578.931 6        40.348                  
  22243553.060 6   -327571.811 6      2708.148 6        40.472                  
  20360098.219 7     -9782.289 7        49.142 7        44.206                  
 18  6  4 18 07 55.2238020  0  5G01G07G11G17G30                                 
  20727286.343 6   -103782.565 6       822.021 6        40.897                  
  21197605.609 7    199780.893 7     -1691.312 7        44.913                  
  20866015.188 6     65027.751 6      -579.535 6        39.418                  
  22243569.214 6   -327842.578 6      2707.627 6        41.781                  
  20360163.493 7     -9787.155 7        48.211 7        43.259                  
 18  6  4 18 07 55.3238020  0  5G01G07G11G17G30                                 
  20727204.058 6   -103864.726 6       821.260 6        41.240                  
  21197580.904 7    199950.069 7     -1692.605 7        45.142                  
  20865968.901 6     65085.714 6      -580.102 6        38.686                  
  22243458.751 7   -328113.301 7      2706.430 7        42.135                  
  20360106.846 7     -9791.981 7        47.708 7        43.570                  
 18  6  4 18 07 55.4238020  0  5G01G07G11G17G30                                 
  20727189.753 6   -103946.679 6       817.701 6        40.351                  
  21197612.558 7    200119.466 7     -1695.653 7        45.143                  
  20865983.982 6     65143.906 6      -583.340 6        39.530                  
  22243406.146 6   -328383.804 6      2703.352 6        40.770                  
  20360105.067 7     -9796.585 7        44.154 7        43.253                  
 18  6  4 18 07 55.5238020  0  5G01G07G11G17G30                                 
  20727233.027 6   -104028.359 6       816.611 6        41.019                  
  21197697.951 7    200289.122 7     -1696.589 7        45.184                  
  20866050.371 6     65202.339 6      -584.761 6        40.520                  
  22243410.099 6   -328654.058 6      2702.714 6        40.935                  
  20360158.014 7     -9800.922 7        43.271 7        43.386                  
 18  6  4 18 07 55.6238020  0  5G01G07G11G17G30                                 
  20727270.336 6   -104110.130 6       818.996 6        41.118                  
  21197780.005 7    200458.686 7     -1694.224 7        42.666                  
  20866110.720 6     65260.688 6      -582.294 6        40.351                  
  22243404.522 7   -328924.397 7      2704.337 7        43.295                  
  20360206.885 7     -9805.352 7        45.913 7        46.231                  
 18  6  4 18 07 55.7238020  0  5G01G07G11G17G30                                 
  20727321.346 6   -104192.071 6       818.832 6        40.835                  
  21197875.009 7    200628.079 7     -1694.585 7        45.282                  
  20866184.656 6     65318.867 6      -582.720 6        41.674                  
  22243417.705 7   -329194.911 7      2704.866 7        42.722                  
  20360273.302 7     -9809.956 7        45.112 7        42.465                  
 18  6  4 18 07 55.8238020  0  5G01G07G11G17G30                                 
  20727223.681 6   -104273.673 6       812.495 6        40.934                  
  21197834.494 7    200797.803 7     -1700.601 7        45.044                  
  20866123.765 6     65377.391 6      -588.239 6        40.526                  
  22243292.143 6   -329465.096 6      2698.411 6        41.572                  
  20360196.772 7     -9814.224 7        39.497 7        43.638                  
 18  6  4 18 07 55.9238020  0  5G01G07G11G17G30                                 
  20727259.478 6   -104354.659 6       808.296 6        41.353                  
  21197917.719 7    200968.152 7     -1705.165 7        45.112                  
  20866181.935 6     65436.525 6      -593.464 6        40.038                  
  22243290.600 6   -329734.658 6      2693.578 6        41.589                  
  20360246.089 7     -9817.873 7        34.758 7        44.680                  
 18  6  4 18 07 56.0238020  0  5G01G07G11G17G30                                 
  20727253.356 6   -104435.503 6       809.471 6        41.188                  
  21197956.899 7    201138.632 7     -1703.719 7        45.425                  
  20866205.897 6     65495.802 6      -591.355 6        39.887                  
  22243247.108 7   -330004.087 7      2695.513 7        43.233                  
  20360256.791 7     -9821.383 7        36.514 7        44.129                  
 18  6  4 18 07 56.1238020  0  5G01G07G11G17G30                                 
  20727244.286 7   -104516.661 7       814.039 7        42.766                  
  21197998.696 7    201308.789 7     -1699.158 7        43.777                  
  20866221.947 6     65554.756 6      -587.375 6        39.543                  
  22243204.141 6   -330273.831 6      2699.917 6        38.286                  
  20360257.649 7     -9825.199 7        40.274 7        43.953                  
 18  6  4 18 07 56.2238020  0  5G01G07G11G17G30                                 
  20727250.889 6   -104598.339 6       819.250 6        40.675                  
  21198049.558 7    201478.437 7     -1694.089 7        44.645                  
  20866256.927 6     65613.198 6      -581.540 6        41.738                  
  22243176.779 6   -330544.094 6      2705.410 6        41.600                  
  20360279.125 7     -9829.535 7        46.055 7        43.844                  
 18  6  4 18 07 56.3238020  0  5G01G07G11G17G30                                 
  20727316.173 6   -104680.490 6       823.870 6        41.652                  
  21198156.596 6    201647.601 6     -1689.247 6        40.803                  
  20866342.514 6     65671.156 6      -577.689 6        40.850                  
  22243199.460 6   -330814.849 6      2709.587 6        40.168                  
  20360353.627 7     -9834.360 7        50.575 7        45.479                  
 18  6  4 18 07 56.4238020  0  5G01G07G11G17G30                                 
  20727317.825 6   -104763.150 6       829.824 6        40.929                  
  21198209.962 7    201816.247 7     -1683.633 7        46.951                  
  20866368.354 6     65728.581 6      -570.960 6        41.492                  
  22243166.695 7   -331086.126 7      2715.791 7        42.574                  
  20360368.085 7     -9839.693 7        55.870 7        46.024                  
 18  6  4 18 07 56.5238020  0  5G01G07G11G17G30                                 
  20727294.506 7   -104846.394 7       834.663 7        44.111                  
  21198235.514 7    201984.318 7     -1678.111 7        44.761                  
  20866374.487 6     65785.457 6      -566.414 6        40.205                  
  22243111.032 6   -331357.963 6      2720.488 6        40.184                  
  20360358.899 7     -9845.594 7        61.436 7        44.763                  
 18  6  4 18 07 56.6238020  0  5G01G07G11G17G30                                 
  20727307.304 7   -104930.023 7       837.477 7        42.707                  
  21198296.415 7    202152.003 7     -1675.430 7        44.164                  
  20866414.117 6     65841.942 6      -563.811 6        40.756                  
  22243088.968 7   -331630.210 7      2724.274 7        43.065                  
  20360390.907 7     -9851.885 7        64.537 7        44.403                  
 18  6  4 18 07 56.7238020  0  5G01G07G11G17G30                                 
  20727302.675 7   -105013.860 7       838.626 7        43.143                  
  21198340.138 7    202319.464 7     -1674.426 7        44.732                  
  20866436.462 6     65898.196 6      -561.638 6        41.181                  
  22243050.692 6   -331902.674 6      2724.763 6        40.896                  
  20360399.369 7     -9858.402 7        65.260 7        42.836                  
 18  6  4 18 07 56.8238020  0  5G01G07G11G17G30                                 
  20727341.612 7   -105097.708 7       837.975 7        45.627                  
  21198419.491 7    202486.927 7     -1675.092 7        45.338                  
  20866500.027 6     65954.448 6      -563.438 6        39.692                  
  22243046.174 7   -332175.130 7      2724.105 7        42.599                  
  20360448.002 7     -9864.905 7        64.682 7        42.362                  
 18  6  4 18 07 56.9238020  0  5G01G07G11G17G30                                 
  20727345.218 7   -105181.556 7       839.458 7        43.958                  
  21198470.436 7    202654.381 7     -1673.327 7        45.386                  
  20866531.566 6     66010.704 6      -561.212 6        41.129                  
  22243010.515 7   -332447.608 7      2725.948 7        43.014                  
  20360469.213 7     -9871.427 7        66.701 7        44.563                  
 18  6  4 18 07 57.0238020  0  5G01G07G11G17G30                                 
  20727338.932 7   -105265.716 7       843.727 7        44.006                  
  21198515.037 7    202821.527 7     -1669.261 7        45.152                  
  20866552.985 6     66066.651 6      -557.560 6        39.289                  
  22242974.318 7   -332720.399 7      2729.975 7        44.518                  
  20360481.969 7     -9878.260 7        69.920 7        43.337                  
 18  6  4 18 07 57.1238020  0  5G01G07G11G17G30                                 
  20727249.622 7   -105350.315 7       848.415 7        42.766                  
  21198483.854 7    202988.216 7     -1664.766 7        44.582                  
  20866498.198 7     66122.138 7      -552.309 7        42.272                  
  22242852.945 7   -332993.628 7      2735.103 7        42.929                  
  20360411.869 7     -9885.530 7        75.168 7        43.443                  
 18  6  4 18 07 57.2238020  0  5G01G07G11G17G30                                 
  20727306.095 6   -105435.347 6       852.374 6        41.486                  
  21198586.694 7    203154.478 7     -1660.532 7        44.546                  
  20866575.144 6     66177.198 6      -548.536 6        41.174                  
  22242874.752 7   -333267.300 7      2738.256 7        43.475                  
  20360482.495 7     -9893.238 7        79.237 7        44.764                  
 18  6  4 18 07 57.3238020  0  5G01G07G11G17G30                                 
  20727339.902 7   -105520.762 7       855.864 7        42.004                  
  21198662.221 7    203320.345 7     -1656.766 7        46.188                  
  20866632.562 7     66231.867 7      -544.987 7        43.142                  
  22242866.100 7   -333541.365 7      2742.983 7        42.670                  
  20360523.055 7     -9901.340 7        82.660 7        44.184                  
 18  6  4 18 07 57.4238020  0  5G01G07G11G17G30                                 
  20727292.968 6   -105606.605 6       860.731 6        41.215                  
  21198666.869 7    203485.798 7     -1652.333 7        44.487                  
  20866618.247 6     66286.130 6      -540.421 6        41.535                  
  22242785.933 7   -333815.848 7      2746.517 7        43.470                  
  20360495.202 7     -9909.847 7        87.397 7        43.913                  
 18  6  4 18 07 57.5238020  0  5G01G07G11G17G30                                 
  20727318.162 7   -105692.793 7       862.819 7        42.051                  
  21198738.899 7    203650.895 7     -1650.050 7        46.718                  
  20866666.978 6     66340.045 6      -538.052 6        41.665                  
  22242775.132 7   -334090.680 7      2749.635 7        42.053                  
  20360532.260 7     -9918.711 7        89.549 7        42.089                  
 18  6  4 18 07 57.6238020  0  5G01G07G11G17G30                                 
  20727332.714 7   -105779.214 7       865.689 7        44.967                  
  21198801.189 7    203815.754 7     -1647.052 7        45.959                  
  20866707.856 6     66393.693 6      -534.847 6        39.498                  
  22242754.748 7   -334365.767 7      2752.350 7        42.037                  
  20360564.555 7     -9927.816 7        92.751 7        43.604                  
 18  6  4 18 07 57.7238020  0  5G01G07G11G17G30                                 
  20727314.785 7   -105865.950 7       869.083 7        42.995                  
  21198835.323 7    203980.293 7     -1643.481 7        45.303                  
  20866717.557 6     66447.049 6      -531.729 6        40.628                  
  22242703.034 7   -334641.168 7      2755.795 7        42.196                  
  20360562.792 7     -9937.238 7        95.821 7        44.232                  
 18  6  4 18 07 57.8238020  0  5G01G07G11G17G30                                 
  20727298.077 6   -105953.031 6       872.477 6        41.540                  
  21198870.509 7    204144.505 7     -1640.676 7        46.387                  
  20866728.148 6     66500.064 6      -528.756 6        41.105                  
  22242652.308 7   -334916.896 7      2758.680 7        42.102                  
  20360561.431 7     -9946.986 7        98.994 7        43.196                  
 18  6  4 18 07 57.9238020  0  5G01G07G11G17G30                                 
  20727323.249 6   -106040.410 6       875.335 6        41.776                  
  21198937.974 7    204308.401 7     -1637.507 7        45.848                  
  20866778.801 6     66552.771 6      -525.395 6        39.772                  
  22242635.681 7   -335192.945 7      2761.906 7        44.387                  
  20360596.649 7     -9957.051 7       102.031 7        44.926                  
 18  6  4 18 07 58.0238020  0  5G01G07G11G17G30                                 
  20727328.802 7   -106128.134 7       878.969 7        42.527                  
  21198985.899 7    204471.955 7     -1633.530 7        43.966                  
  20866813.635 7     66605.130 7      -521.834 7        44.040                  
  22242604.104 6   -335469.339 6      2766.023 6        40.690                  
  20360616.222 7     -9967.454 7       105.726 7        42.925                  
 18  6  4 18 07 58.1238020  0  5G01G07G11G17G30                                 
  20727367.030 6   -106216.197 6       882.619 6        40.483                  
  21199073.815 7    204635.159 7     -1630.504 7        43.328                  
  20866873.300 7     66657.152 7      -519.104 7        42.083                  
  22242611.203 6   -335746.080 6      2769.152 6        41.613                  
  20360669.984 7     -9978.195 7       109.390 7        46.393                  
 18  6  4 18 07 58.2238020  0  5G01G07G11G17G30                                 
  20727372.912 7   -106304.564 7       884.082 7        43.030                  
  21199125.166 7    204798.072 7     -1628.043 7        45.551                  
  20866907.690 7     66708.859 7      -515.384 7        42.412                  
  22242576.736 6   -336023.115 6      2771.089 6        41.895                  
  20360692.964 7     -9989.238 7       111.305 7        44.429                  
 18  6  4 18 07 58.3238020  0  5G01G07G11G17G30                                 
  20727362.743 6   -106393.030 6       884.266 6        41.921                  
  21199164.987 7    204960.869 7     -1628.465 7        47.427                  
  20866926.777 7     66760.478 7      -516.957 7        42.309                  
  22242533.552 6   -336300.267 6      2770.906 6        40.639                  
  20360703.526 7    -10000.400 7       111.006 7        44.880                  
 18  6  4 18 07 58.4238020  0  5G01G07G11G17G30                                 
  20727348.043 6   -106481.287 6       880.894 6        40.942                  
  21199201.363 7    205123.882 7     -1632.284 7        44.532                  
  20866939.302 7     66812.307 7      -520.279 7        42.078                  
  22242481.096 6   -336577.205 6      2767.519 6        40.410                  
  20360703.348 7    -10011.321 7       107.455 7        45.272                  
 18  6  4 18 07 58.5238020  0  5G01G07G11G17G30                                 
  20727340.082 6   -106569.189 6       877.032 6        41.235                  
  21199241.583 7    205287.255 7     -1635.150 7        43.538                  
  20866958.724 6     66864.487 6      -523.452 6        41.361                  
  22242437.198 6   -336853.803 6      2764.671 6        41.043                  
  20360708.128 7    -10021.917 7       104.101 7        44.125                  
 18  6  4 18 07 58.6238020  0  5G01G07G11G17G30                                 
  20727342.357 7   -106656.747 7       874.401 7        42.283                  
  21199293.785 7    205450.962 7     -1638.717 7        43.265                  
  20866987.370 6     66917.004 6      -526.933 6        39.133                  
  22242409.195 7   -337130.046 7      2760.958 7        42.510                  
  20360727.130 7    -10032.158 7       100.993 7        44.207                  
 18  6  4 18 07 58.7238020  0  5G01G07G11G17G30                                 
  20727335.317 6   -106743.999 6       870.834 6        41.958                  
  21199334.516 7    205614.978 7     -1641.319 7        44.341                  
  20867008.728 6     66969.831 6      -529.308 6        40.814                  
  22242367.045 7   -337405.998 7      2758.273 7        43.094                  
  20360735.624 7    -10042.092 7        98.028 7        45.294                  
 18  6  4 18 07 58.8238020  0  5G01G07G11G17G30                                 
  20727356.225 7   -106831.027 7       869.880 7        42.062                  
  21199397.919 7    205779.200 7     -1642.777 7        44.306                  
  20867056.212 7     67022.866 7      -530.849 7        42.186                  
  22242352.464 7   -337681.733 7      2756.473 7        42.596                  
  20360768.602 7    -10051.816 7        96.762 7        45.395                  
 18  6  4 18 07 58.9238020  0  5G01G07G11G17G30                                 
  20727343.108 7   -106917.918 7       868.270 7        43.434                  
  21199432.844 7    205943.565 7     -1644.743 7        45.302                  
  20867069.350 6     67076.056 6      -532.371 6        39.716                  
  22242296.032 7   -337957.332 7      2755.605 7        42.076                  
  20360762.439 7    -10061.386 7        94.993 7        43.980                  
 18  6  4 18 07 59.0238020  0  5G01G07G11G17G30                                 
  20727311.861 7   -107004.814 7       869.805 7        42.951                  
  21199453.714 7    206107.928 7     -1642.217 7        46.068                  
  20867068.688 6     67129.236 6      -531.069 6        41.048                  
  22242232.103 7   -338232.944 7      2756.879 7        42.325                  
  20360751.221 7    -10070.973 7        97.044 7        45.124                  
 18  6  4 18 07 59.1238020  0  5G01G07G11G17G30                                 
  20727348.717 6   -107091.967 6       873.844 6        41.000                  
  21199539.998 7    206272.030 7     -1639.151 7        44.760                  
  20867127.146 7     67182.154 7      -527.148 7        42.828                  
  22242233.851 7   -338508.806 7      2760.731 7        46.103                  
  20360803.137 8    -10080.810 8       100.063 8        48.381                  
 18  6  4 18 07 59.2238020  0  5G01G07G11G17G30                                 
  20727390.505 7   -107179.524 7       877.725 7        43.494                  
  21199626.046 7    206435.717 7     -1634.544 7        45.190                  
  20867192.031 6     67234.661 6      -522.729 6        40.848                  
  22242239.510 7   -338785.086 7      2764.801 7        44.161                  
  20360857.696 7    -10091.050 7       104.722 7        43.568                  
 18  6  4 18 07 59.3238020  0  5G01G07G11G17G30                                 
  20727409.954 6   -107267.520 6       881.477 6        41.716                  
  21199690.513 7    206598.966 7     -1630.932 7        42.631                  
  20867238.153 7     67286.731 7      -519.712 7        43.414                  
  22242217.678 6   -339061.809 6      2769.204 6        40.124                  
  20360893.276 7    -10101.738 7       108.289 7        43.998                  
 18  6  4 18 07 59.4238020  0  5G01G07G11G17G30                                 
  20727414.066 7   -107355.726 7       881.668 7        43.019                  
  21199738.649 7    206762.003 7     -1630.562 7        44.183                  
  20867269.932 6     67338.585 6      -518.459 6        38.653                  
  22242183.246 7   -339338.747 7      2769.017 7        44.742                  
  20360908.713 7    -10112.639 7       109.042 7        44.501                  
 18  6  4 18 07 59.5238020  0  5G01G07G11G17G30                                 
  20727386.762 7   -107443.755 7       878.704 7        43.215                  
  21199758.310 7    206925.225 7     -1634.027 7        42.794                  
  20867271.761 7     67390.628 7      -522.058 7        42.480                  
  22242120.311 6   -339615.495 6      2765.966 6        41.968                  
  20360889.689 7    -10123.356 7       105.102 7        44.176                  
 18  6  4 18 07 59.6238020  0  5G01G07G11G17G30                                 
  20727378.841 6   -107531.461 6       875.661 6        39.883                  
  21199800.834 7    207088.770 7     -1636.938 7        45.369                  
  20867292.920 6     67442.983 6      -524.974 6        39.329                  
  22242081.993 6   -339891.936 6      2762.857 6        41.678                  
  20360903.654 7    -10133.755 7       102.776 7        44.031                  
 18  6  4 18 07 59.7238020  0  5G01G07G11G17G30                                 
  20727387.487 7   -107618.920 7       874.284 7        44.038                  
  21199860.095 7    207252.553 7     -1637.838 7        46.119                  
  20867325.480 6     67495.586 6      -526.477 6        40.646                  
  22242053.526 7   -340168.137 7      2761.630 7        44.706                  
  20360925.208 7    -10143.902 7       101.451 7        43.125                  
 18  6  4 18 07 59.8238020  0  5G01G07G11G17G30                                 
  20727459.399 7   -107706.419 7       876.128 7        43.441                  
  21199976.497 7    207416.285 7     -1636.333 7        43.860                  
  20867416.793 6     67548.150 6      -524.036 6        41.481                  
  22242087.534 6   -340444.372 6      2763.667 6        41.623                  
  20361011.010 7    -10154.090 7       102.902 7        42.983                  
 18  6  4 18 07 59.9238020  0  5G01G07G11G17G30                                 
  20727434.846 7   -107794.236 7       880.262 7        43.559                  
  21200003.048 7    207579.700 7     -1632.002 7        47.180                  
  20867421.546 7     67600.383 7      -520.466 7        42.012                  
  22242033.826 6   -340720.941 6      2768.018 6        41.935                  
  20361003.491 7    -10164.606 7       107.155 7        43.103                  
 18  6  4 18 08  0.0238020  0  5G01G07G11G17G30                                 
  20727395.901 6   -107882.509 6       884.558 6        41.844                  
  21200014.073 7    207742.658 7     -1627.255 7        44.962                  
  20867413.787 6     67652.166 6      -515.661 6        41.041                  
  22241962.114 6   -340997.972 6      2772.620 6        41.788                  
  20360979.645 7    -10175.574 7       112.010 7        43.824                  
 18  6  4 18 08  6.1238020  0  5G01G07G11G17G30                                 
  20749909.087 6   -107973.185 6       889.675 6        41.779                  
  21222574.966 7    207909.022 7     -1622.788 7        43.855                  
  20889955.031 6     67704.721 6      -511.063 6        39.673                  
  22264442.648 7   -341282.334 7      2776.601 7        44.645                  
  20383507.902 7    -10187.175 7       116.275 7        43.624                  
 18  6  4 18 08  6.2238020  0  5G01G07G11G17G30                                 
  20749962.653 6   -108060.350 6       893.027 6        40.541                  
  21222669.091 7    208067.267 7     -1619.702 7        43.780                  
  20890031.095 7     67754.430 7      -507.532 7        42.036                  
  22264451.544 7   -341553.328 7      2780.721 7        43.862                  
  20383571.486 7    -10198.810 7       119.696 7        45.226                  
 18  6  4 18 08  6.3238020  0  5G01G07G11G17G30                                 
  20749981.836 7   -108149.767 7       894.923 7        42.026                  
  21222735.494 7    208229.065 7     -1617.110 7        44.510                  
  20890075.368 6     67805.062 6      -505.536 6        38.097                  
  22264434.522 7   -341831.511 7      2782.714 7        42.863                  
  20383606.300 7    -10210.919 7       122.233 7        43.544                  
 18  6  4 18 08  6.4238020  0  5G01G07G11G17G30                                 
  20749991.565 6   -108239.199 6       892.895 6        41.890                  
  21222794.496 7    208390.862 7     -1619.431 7        44.001                  
  20890110.751 6     67855.679 6      -507.478 6        41.902                  
  22264406.287 7   -342109.701 7      2780.466 7        43.672                  
  20383633.130 7    -10223.043 7       119.636 7        43.940                  
 18  6  4 18 08  6.5238020  0  5G01G07G11G17G30                                 
  20749946.687 4   -108327.562 4       863.141 4        29.470                  
  21222800.215 5    208554.209 5     -1668.639 5        30.387                  
  20890097.653 5     67907.214 5      -533.489 5        30.880                  
  22264325.109 5   -342386.827 5      2751.141 5        30.828                  
  20383604.545 4    -10233.949 4        82.115 4        28.653                  
 18  6  4 18 08  6.6238020  0  5G01G07G11G17G30                                 
  20749936.489 6   -108409.009 6       766.817 6        39.633                  
  21222839.631 7    208726.955 7     -1761.903 7        44.533                  
  20890114.993 6     67965.272 6      -628.383 6        41.104                  
  22264286.271 7   -342656.647 7      2649.360 7        43.970                  
  20383609.823 7    -10236.435 7       -17.836 7        43.323                  
 18  6  4 18 08  7.3238020  0  5G01G07G11G17G30                                 
  20749975.416 6   -108978.771 6       799.597 6        39.723                  
  21223213.311 7    210040.006 7     -1742.179 7        44.574                  
  20890336.684 6     68444.826 6      -633.853 6        39.235                  
  22264069.419 7   -344641.262 7      2681.861 7        44.425                  
  20383749.069 7    -10226.730 7        -5.139 7        42.792                  
 18  6  4 18 08  7.4238020  0  5G01G07G11G17G30                                 
  20749924.759 6   -109017.781 6       771.260 6        40.889                  
  21223215.324 7    210127.939 7     -1740.549 7        43.614                  
  20890318.779 6     68476.577 6      -628.715 6        40.421                  
  22263988.221 7   -344775.681 7      2659.601 7        43.209                  
  20383718.950 7    -10226.694 7        -1.124 7        43.516                  
 18  6  4 18 08  7.5238020  0  5G01G07G11G17G30                                 
  20749920.598 7   -109094.835 7       769.692 7        42.028                  
  21223258.579 7    210302.086 7     -1742.297 7        45.538                  
  20890340.890 6     68539.560 6      -631.173 6        39.876                  
  22263948.422 7   -345041.540 7      2657.292 7        43.228                  
  20383724.998 7    -10226.457 7        -3.417 7        45.357                  
 18  6  4 18 08  7.6238020  0  5G01G07G11G17G30                                 
  20749953.384 6   -109171.744 6       769.246 6        40.946                  
  21223334.505 7    210476.366 7     -1742.588 7        44.286                  
  20890397.832 6     68602.676 6      -630.452 6        40.740                  
  22263943.018 7   -345307.267 7      2657.763 7        44.258                  
  20383769.015 7    -10226.071 7        -3.675 7        43.678                  
 18  6  4 18 08  7.7238020  0  5G01G07G11G17G30                                 
  20749908.764 6   -109248.853 6       773.341 6        41.688                  
  21223344.661 7    210650.450 7     -1738.981 7        44.992                  
  20890385.179 6     68665.596 6      -627.510 6        39.924                  
  22263871.041 7   -345573.195 7      2661.221 7        44.837                  
  20383748.573 7    -10225.887 7         0.149 7        42.972                  
 18  6  4 18 08  7.8238020  0  5G01G07G11G17G30                                 
  20749928.402 7   -109326.370 7       776.741 7        43.129                  
  21223412.748 7    210824.111 7     -1734.445 7        43.887                  
  20890429.543 6     68728.107 6      -622.773 6        41.011                  
  22263854.818 7   -345839.542 7      2665.325 7        45.127                  
  20383785.035 7    -10226.114 7         4.606 7        45.133                  
 18  6  4 18 08  7.9238020  0  5G01G07G11G17G30                                 
  20749977.035 7   -109404.260 7       780.495 7        43.795                  
  21223501.709 7    210997.414 7     -1731.606 7        43.620                  
  20890501.087 6     68790.254 6      -620.247 6        39.783                  
  22263856.090 6   -346106.261 6      2668.676 6        41.157                  
  20383842.609 7    -10226.710 7         7.066 7        44.318                  
 18  6  4 18 08  8.0238020  0  5G01G07G11G17G30                                 
  20749975.046 7   -109482.360 7       781.994 7        42.980                  
  21223550.093 7    211170.506 7     -1730.044 7        45.418                  
  20890524.259 6     68852.170 6      -618.483 6        38.394                  
  22263818.054 7   -346373.195 7      2670.014 7        42.385                  
  20383853.363 7    -10227.528 7         8.992 7        45.365                  
 18  6  4 18 08  8.1238020  0  5G01G07G11G17G30                                 
  20749952.218 6   -109560.593 6       782.867 6        40.977                  
  21223577.341 7    211343.453 7     -1728.856 7        45.528                  
  20890530.255 6     68913.965 6      -616.829 6        40.759                  
  22263757.301 7   -346640.264 7      2671.776 7        42.058                  
  20383845.691 7    -10228.474 7         9.987 7        43.138                  
 18  6  4 18 08  8.2238020  0  5G01G07G11G17G30                                 
  20749960.926 7   -109638.991 7       785.133 7        43.202                  
  21223636.389 7    211516.225 7     -1726.594 7        46.417                  
  20890563.768 6     68975.576 6      -615.257 6        39.491                  
  22263732.353 7   -346907.505 7      2673.496 7        42.863                  
  20383870.310 7    -10229.586 7        12.460 7        44.040                  
 18  6  4 18 08  8.3238020  0  5G01G07G11G17G30                                 
  20750027.107 6   -109717.666 6       788.290 6        41.457                  
  21223745.451 7    211688.723 7     -1723.399 7        44.212                  
  20890648.563 7     69036.922 7      -612.024 7        42.440                  
  22263758.734 7   -347175.029 7      2676.707 7        42.787                  
  20383943.622 7    -10230.975 7        15.416 7        43.604                  
 18  6  4 18 08  8.4238020  0  5G01G07G11G17G30                                 
  20750049.047 7   -109796.704 7       792.453 7        42.261                  
  21223814.661 7    211860.861 7     -1719.134 7        45.884                  
  20890695.595 6     69097.913 6      -607.857 6        38.737                  
  22263737.996 7   -347442.915 7      2680.952 7        43.398                  
  20383982.435 7    -10232.737 7        19.413 7        44.606                  
 18  6  4 18 08  8.5238020  0  5G01G07G11G17G30                                 
  20750002.791 6   -109876.130 6       795.593 6        40.635                  
  21223818.274 7    212032.606 7     -1715.874 7        45.649                  
  20890681.665 6     69158.497 6      -604.268 6        40.680                  
  22263662.710 7   -347711.200 7      2684.558 7        43.172                  
  20383952.352 7    -10234.865 7        23.049 7        44.080                  
 18  6  4 18 08  8.6238020  0  5G01G07G11G17G30                                 
  20750011.881 7   -109955.772 7       797.198 7        42.480                  
  21223872.324 7    212204.125 7     -1715.147 7        44.047                  
  20890717.245 6     69218.866 6      -603.175 6        40.325                  
  22263639.601 7   -347979.703 7      2685.590 7        44.499                  
  20383973.471 7    -10237.237 7        24.058 7        42.823                  
 18  6  4 18 08  8.7238020  0  5G01G07G11G17G30                                 
  20749967.725 6   -110035.410 6       794.771 6        41.320                  
  21223877.784 7    212375.655 7     -1716.246 7        44.854                  
  20890705.340 6     69279.250 6      -605.015 6        41.720                  
  22263559.463 7   -348248.202 7      2683.529 7        43.391                  
  20383945.665 7    -10239.590 7        22.193 7        45.138                  
 18  6  4 18 08  8.8238020  0  5G01G07G11G17G30                                 
  20749958.708 7   -110114.686 7       790.459 7        42.485                  
  21223916.384 7    212547.552 7     -1721.572 7        43.736                  
  20890727.085 7     69339.993 7      -610.465 7        42.155                  
  22263516.247 7   -348516.334 7      2678.668 7        43.662                  
  20383959.169 7    -10241.586 7        17.179 7        43.553                  
 18  6  4 18 08  8.9238020  0  5G01G07G11G17G30                                 
  20749947.193 6   -110193.392 6       784.143 6        41.449                  
  21223953.788 7    212720.017 7     -1727.087 7        43.251                  
  20890745.183 6     69401.292 6      -615.064 6        40.665                  
  22263471.398 7   -348783.908 7      2673.046 7        42.756                  
  20383967.848 7    -10243.007 7        11.761 7        43.638                  
 18  6  4 18 08  9.0238020  0  5G01G07G11G17G30                                 
  20749971.797 7   -110271.700 7       782.162 7        43.004                  
  21224024.676 7    212892.868 7     -1729.813 7        44.956                  
  20890792.517 7     69463.006 7      -618.313 7        43.212                  
  22263458.456 7   -349051.090 7      2670.807 7        42.400                  
  20384001.383 7    -10244.037 7         9.514 7        46.016                  
 18  6  4 18 08  9.1238020  0  5G01G07G11G17G30                                 
  20750000.980 7   -110349.795 7       779.890 7        42.441                  
  21224097.836 7    213065.939 7     -1731.702 7        44.482                  
  20890844.491 6     69524.920 6      -619.925 6        39.671                  
  22263446.795 7   -349318.059 7      2668.686 7        44.134                  
  20384037.572 7    -10244.847 7         6.918 7        45.690                  
 18  6  4 18 08  9.2238020  0  5G01G07G11G17G30                                 
  20750043.760 7   -110427.684 7       777.901 7        43.830                  
  21224188.019 7    213239.204 7     -1733.508 7        44.471                  
  20890908.884 6     69587.030 6      -622.032 6        40.361                  
  22263451.382 7   -349584.834 7      2666.825 7        44.311                  
  20384095.118 7    -10245.466 7         5.142 7        43.505                  
 18  6  4 18 08  9.3238020  0  5G01G07G11G17G30                                 
  20750043.587 7   -110505.446 7       777.478 7        42.488                  
  21224239.165 7    213412.609 7     -1734.192 7        45.174                  
  20890933.392 6     69649.282 6      -623.063 6        41.961                  
  22263417.378 7   -349851.480 7      2666.323 7        44.108                  
  20384108.575 7    -10245.942 7         4.780 7        42.599                  
 18  6  4 18 08  9.4238020  0  5G01G07G11G17G30                                 
  20750000.378 7   -110583.172 7       777.427 7        42.609                  
  21224247.847 7    213586.037 7     -1734.149 7        45.063                  
  20890922.547 6     69711.564 6      -622.484 6        41.381                  
  22263344.629 7   -350118.097 7      2666.270 7        42.412                  
  20384086.374 7    -10246.392 7         4.457 7        44.436                  
 18  6  4 18 08  9.5238020  0  5G01G07G11G17G30                                 
  20750033.179 7   -110660.923 7       778.285 7        43.469                  
  21224323.018 7    213759.415 7     -1733.524 7        45.329                  
  20890978.828 7     69773.794 7      -622.048 7        42.419                  
  22263337.329 7   -350384.753 7      2666.982 7        43.864                  
  20384127.020 7    -10246.875 7         5.297 7        45.282                  
 18  6  4 18 08  9.6238020  0  5G01G07G11G17G30                                 
  20750095.243 6   -110738.828 6       779.449 6        40.415                  
  21224428.574 7    213932.661 7     -1731.594 7        45.791                  
  20891061.601 6     69835.897 6      -620.152 6        40.137                  
  22263363.849 6   -350651.557 6      2669.059 6        41.919                  
  20384202.132 7    -10247.514 7         7.329 7        43.740                  
 18  6  4 18 08  9.7238020  0  5G01G07G11G17G30                                 
  20750062.589 6   -110816.902 6       781.741 6        41.518                  
  21224441.556 7    214105.727 7     -1729.613 7        45.880                  
  20891062.214 6     69897.824 6      -618.221 6        39.400                  
  22263295.506 6   -350918.529 6      2670.512 6        41.852                  
  20384186.785 7    -10248.301 7         8.769 7        43.029                  
 18  6  4 18 08  9.8238020  0  5G01G07G11G17G30                                 
  20750042.209 7   -110895.120 7       782.348 7        44.859                  
  21224469.891 7    214278.649 7     -1729.391 7        42.580                  
  20891070.389 6     69959.599 6      -617.844 6        40.587                  
  22263237.362 7   -351185.654 7      2671.463 7        42.148                  
  20384179.377 7    -10249.255 7         9.306 7        45.939                  
 18  6  4 18 08  9.9238020  0  5G01G07G11G17G30                                 
  20750084.710 6   -110973.240 6       779.758 6        41.884                  
  21224556.740 7    214451.676 7     -1731.273 7        43.672                  
  20891135.929 6     70021.481 6      -620.374 6        40.799                  
  22263239.821 6   -351452.685 6      2668.943 6        40.765                  
  20384235.702 7    -10250.096 7         7.598 7        44.526                  
 18  6  4 18 08 10.0238020  0  5G01G07G11G17G30                                 
  20749996.374 7   -111051.135 7       778.516 7        42.796                  
  21224522.387 7    214624.922 7     -1733.090 7        44.878                  
  20891082.325 7     70083.583 7      -621.099 7        42.427                  
  22263115.541 7   -351719.503 7      2667.646 7        42.836                  
  20384161.029 6    -10250.715 6         5.712 6        41.832                  
 18  6  4 18 08 10.1238020  0  5G01G07G11G17G30                                 
  20749992.973 6   -111128.997 6       778.642 6        41.991                  
  21224571.528 7    214798.197 7     -1732.557 7        45.873                  
  20891105.335 6     70145.704 6      -621.324 6        41.515                  
  22263077.416 7   -351986.281 7      2668.140 7        42.796                  
  20384177.432 7    -10251.301 7         5.750 7        43.096                  
 18  6  4 18 08 10.2238020  0  5G01G07G11G17G30                                 
  20750022.539 6   -111206.880 6       778.591 6        40.951                  
  21224648.480 7    214971.436 7     -1733.097 7        45.768                  
  20891159.103 6     70207.807 6      -621.089 6        41.296                  
  22263071.617 7   -352253.098 7      2667.500 7        43.222                  
  20384224.430 7    -10251.914 7         5.691 7        43.717                  
 18  6  4 18 08 10.3238020  0  5G01G07G11G17G30                                 
  20750008.761 6   -111284.434 6       772.319 6        40.581                  
  21224685.678 7    215145.021 7     -1738.682 7        44.876                  
  20891172.009 6     70270.245 6      -627.661 6        39.282                  
  22263026.303 6   -352519.571 6      2661.630 6        41.930                  
  20384224.390 7    -10252.204 7        -0.222 7        43.356                  
 18  6  4 18 08 10.4238020  0  5G01G07G11G17G30                                 
  20750060.989 7   -111361.431 7       767.709 7        42.996                  
  21224782.307 7    215319.159 7     -1743.449 7        46.331                  
  20891245.580 6     70333.241 6      -632.060 6        39.855                  
  22263042.999 6   -352785.503 6      2657.586 6        41.799                  
  20384289.230 7    -10251.933 7        -4.772 7        44.513                  
 18  6  4 18 08 10.5238020  0  5G01G07G11G17G30                                 
  20750108.807 6   -111437.987 6       763.849 6        39.992                  
  21224873.773 6    215493.719 6     -1747.526 6        41.869                  
  20891315.160 6     70396.663 6      -636.191 6        41.202                  
  22263049.743 7   -353051.004 7      2652.887 7        42.183                  
  20384347.872 7    -10251.223 7        -9.053 7        43.192                  
 18  6  4 18 08 10.6238020  0  5G01G07G11G17G30                                 
  20750058.252 7   -111514.222 7       761.132 7        43.969                  
  21224874.067 7    215668.608 7     -1750.186 7        44.271                  
  20891297.881 6     70460.404 6      -638.644 6        40.130                  
  22262971.219 6   -353316.181 6      2650.367 6        39.363                  
  20384316.382 7    -10250.197 7       -11.657 7        43.139                  
 18  6  4 18 08 10.7238020  0  5G01G07G11G17G30                                 
  20749979.194 6   -111590.166 6       757.459 6        40.952                  
  21224844.347 7    215843.793 7     -1753.754 7        43.409                  
  20891257.522 7     70524.457 7      -642.288 7        42.129                  
  22262858.195 7   -353581.071 7      2647.523 7        42.485                  
  20384259.049 7    -10248.869 7       -15.007 7        44.119                  
 18  6  4 18 08 10.8238020  0  5G01G07G11G17G30                                 
  20749974.300 7   -111665.843 7       756.818 7        42.485                  
  21224889.674 7    216019.224 7     -1754.525 7        44.724                  
  20891279.233 6     70588.750 6      -643.164 6        38.784                  
  22262815.804 7   -353845.697 7      2646.101 7        42.050                  
  20384269.958 7    -10247.290 7       -15.859 7        43.582                  
 18  6  4 18 08 10.9238020  0  5G01G07G11G17G30                                 
  20749997.830 6   -111741.567 6       757.506 6        41.587                  
  21224960.731 7    216194.630 7     -1753.289 7        45.133                  
  20891325.592 6     70653.007 6      -641.645 6        40.123                  
  22262799.236 7   -354110.370 7      2647.224 7        42.270                  
  20384304.458 7    -10245.742 7       -14.712 7        43.201                  
 18  6  4 18 08 11.0238020  0  5G01G07G11G17G30                                 
  20749964.256 7   -111817.520 7       761.630 7        44.549                  
  21224974.817 7    216369.788 7     -1749.703 7        43.484                  
  20891323.222 6     70717.029 6      -638.738 6        39.472                  
  22262732.314 7   -354375.274 7      2651.065 7        42.654                  
  20384284.908 7    -10244.436 7       -11.485 7        42.871                  
 18  6  4 18 08 11.1238020  0  5G01G07G11G17G30                                 
  20749994.536 6   -111893.881 6       765.904 6        41.581                  
  21225052.528 7    216544.538 7     -1745.166 7        45.706                  
  20891376.013 6     70780.648 6      -633.981 6        41.882                  
  22262725.519 7   -354640.590 7      2654.959 7        42.580                  
  20384327.747 7    -10243.528 7        -6.505 7        43.767                  
 18  6  4 18 08 11.2238020  0  5G01G07G11G17G30                                 
  20750080.750 6   -111970.548 6       766.746 6        41.055                  
  21225178.973 7    216718.990 7     -1744.228 7        44.742                  
  20891479.897 6     70843.949 6      -632.411 6        39.574                  
  22262770.927 7   -354906.222 7      2656.844 7        42.418                  
  20384421.792 7    -10242.927 7        -6.202 7        43.054                  
 18  6  4 18 08 11.3238020  0  5G01G07G11G17G30                                 
  20750063.092 6   -112047.212 6       766.288 6        39.578                  
  21225210.207 7    216893.431 7     -1744.786 7        43.438                  
  20891492.560 6     70907.267 6      -633.863 6        40.339                  
  22262718.640 6   -355171.856 6      2656.113 6        41.915                  
  20384424.006 7    -10242.326 7        -6.185 7        42.389                  
 18  6  4 18 08 11.4238020  0  5G01G07G11G17G30                                 
  20750053.252 7   -112123.765 7       764.506 7        42.796                  
  21225246.134 7    217067.994 7     -1746.185 7        44.980                  
  20891512.410 7     70970.684 7      -634.812 7        42.183                  
  22262673.174 7   -355437.375 7      2654.669 7        42.728                  
  20384429.866 7    -10241.624 7        -7.820 7        42.108                  
 18  6  4 18 08 11.5238020  0  5G01G07G11G17G30                                 
  20750034.530 7   -112200.251 7       765.536 7        43.301                  
  21225280.194 7    217242.611 7     -1746.133 7        43.213                  
  20891521.351 6     71034.168 6      -634.512 6        40.214                  
  22262621.199 7   -355702.837 7      2654.554 7        42.827                  
  20384429.039 7    -10240.847 7        -7.469 7        45.329                  
 18  6  4 18 08 11.6238020  0  5G01G07G11G17G30                                 
  20750032.965 7   -112276.791 7       765.743 7        42.110                  
  21225331.211 7    217417.171 7     -1745.153 7        44.605                  
  20891546.655 6     71097.597 6      -634.022 6        41.408                  
  22262591.787 6   -355968.355 6      2655.825 6        41.870                  
  20384449.530 7    -10240.127 7        -7.108 7        43.730                  
 18  6  4 18 08 11.7238020  0  5G01G07G11G17G30                                 
  20750119.256 7   -112353.401 7       766.216 7        42.841                  
  21225458.219 7    217591.667 7     -1745.137 7        43.567                  
  20891650.582 6     71160.953 6      -633.349 6        39.797                  
  22262634.672 7   -356233.941 7      2655.963 7        43.022                  
  20384544.434 6    -10239.478 6        -5.954 6        41.135                  
 18  6  4 18 08 11.8238020  0  5G01G07G11G17G30                                 
  20750073.398 6   -112430.025 6       766.683 6        39.209                  
  21225460.135 7    217766.130 7     -1743.841 7        43.972                  
  20891635.818 7     71224.298 7      -633.430 7        42.384                  
  22262549.001 7   -356499.560 7      2656.477 7        42.749                  
  20384507.458 7    -10238.846 7        -6.295 7        45.175                  
 18  6  4 18 08 11.9238020  0  5G01G07G11G17G30                                 
  20750095.622 7   -112506.761 7       767.975 7        42.180                  
  21225529.741 7    217940.481 7     -1742.758 7        43.607                  
  20891682.101 6     71287.528 6      -631.034 6        41.043                  
  22262535.853 7   -356765.300 7      2658.274 7        43.869                  
  20384543.711 7    -10238.332 7        -3.684 7        44.532                  
 18  6  4 18 08 12.0238020  0  5G01G07G11G17G30                                 
  20750087.133 6   -112583.685 6       770.123 6        39.526                  
  21225569.450 7    218114.660 7     -1740.982 7        47.234                  
  20891702.338 6     71350.562 6      -629.311 6        40.087                  
  22262493.583 7   -357031.208 7      2659.994 7        43.951                  
  20384552.673 7    -10237.990 7        -3.033 7        42.947                  
 18  6  4 18 08  6.1238020  0  5G01G07G11G17G30                                 
  20727690.155 6   -112658.719 6       771.622 6        41.573                  
  21203218.478 7    218284.587 7     -1739.106 7        44.062                  
  20869330.943 6     71412.136 6      -628.513 6        40.903                  
  22240063.154 7   -357290.099 7      2661.497 7        43.486                  
  20362171.157 7    -10237.644 7        -0.740 7        44.056                  
 18  6  4 18 08  6.2238020  0  5G01G07G11G17G30                                 
  20727641.912 7   -112737.939 7       771.972 7        43.087                  
  21203222.729 7    218462.572 7     -1739.131 7        44.947                  
  20869315.507 6     71476.232 6      -627.871 6        40.498                  
  22239979.699 7   -357563.467 7      2661.792 7        42.991                  
  20362143.615 7    -10237.737 7        -0.899 7        44.276                  
 18  6  4 18 08  6.3238020  0  5G01G07G11G17G30                                 
  20727614.540 7   -112815.117 7       771.751 7        42.385                  
  21203244.503 7    218636.483 7     -1738.914 7        44.583                  
  20869317.042 6     71539.005 6      -627.306 6        38.395                  
  22239914.656 7   -357829.662 7      2662.293 7        42.735                  
  20362127.551 7    -10237.656 7        -0.744 7        43.941                  
 18  6  4 18 08  6.4238020  0  5G01G07G11G17G30                                 
  20727743.804 7   -112892.337 7       772.713 7        42.471                  
  21203416.492 7    218810.330 7     -1738.090 7        44.080                  
  20869457.174 6     71601.722 6      -626.832 6        40.195                  
  22239999.679 7   -358095.904 7      2662.748 7        44.486                  
  20362264.655 7    -10237.633 7         0.225 7        44.288                  
 18  6  4 18 08  6.5238020  0  5G01G07G11G17G30                                 
  20727693.392 6   -112969.673 6       773.760 6        40.931                  
  21203415.339 7    218984.083 7     -1736.931 7        44.283                  
  20869439.855 6     71664.354 6      -626.056 6        39.931                  
  22239910.946 7   -358362.252 7      2663.932 7        45.457                  
  20362229.376 7    -10237.712 7         1.309 7        45.532                  
 18  6  4 18 08  6.6238020  0  5G01G07G11G17G30                                 
  20727587.432 7   -113047.120 7       775.609 7        42.859                  
  21203366.297 7    219157.711 7     -1735.604 7        45.337                  
  20869372.197 6     71726.858 6      -624.151 6        40.907                  
  22239778.123 7   -358628.720 7      2665.507 7        44.260                  
  20362145.371 7    -10237.905 7         2.827 7        42.552                  
 18  6  4 18 08  6.7238020  0  5G01G07G11G17G30                                 
  20727604.393 6   -113124.744 6       777.063 6        39.426                  
  21203430.455 7    219331.151 7     -1733.359 7        45.820                  
  20869414.651 7     71789.171 7      -621.951 7        43.669                  
  22239759.494 7   -358895.385 7      2667.592 7        42.054                  
  20362177.678 7    -10238.289 7         4.804 7        42.708                  
 18  6  4 18 08  6.8238020  0  5G01G07G11G17G30                                 
  20727622.381 6   -113202.568 6       778.684 6        40.402                  
  21203493.270 6    219504.404 6     -1731.729 6        41.405                  
  20869459.354 6     71851.304 6      -620.318 6        41.049                  
  22239744.125 7   -359162.236 7      2669.241 7        43.477                  
  20362211.124 7    -10238.853 7         6.197 7        44.809                  
 18  6  4 18 08  6.9238020  0  5G01G07G11G17G30                                 
  20727657.498 7   -113280.540 7       781.074 7        43.657                  
  21203575.465 7    219677.504 7     -1730.505 7        43.421                  
  20869516.670 6     71913.266 6      -618.876 6        40.788                  
  22239742.744 7   -359429.254 7      2671.066 7        42.677                  
  20362258.539 7    -10239.578 7         8.218 7        43.801                  
 18  6  4 18 08  7.0238020  0  5G01G07G11G17G30                                 
  20727676.806 7   -113358.643 7       780.943 7        42.670                  
  21203643.056 7    219850.468 7     -1728.885 7        42.967                  
  20869561.135 6     71975.116 6      -618.150 6        41.754                  
  22239725.987 7   -359696.385 7      2672.011 7        43.285                  
  20362294.976 7    -10240.428 7         9.018 7        43.773                  
 18  6  4 18 08  7.1238020  0  5G01G07G11G17G30                                 
  20727717.305 7   -113436.836 7       782.931 7        44.649                  
  21203725.579 7    220023.338 7     -1728.077 7        42.453                  
  20869625.455 6     72036.865 6      -617.054 6        40.211                  
  22239726.235 6   -359963.625 6      2672.811 6        41.512                  
  20362346.275 7    -10241.376 7        10.166 7        44.790                  
 18  6  4 18 08  7.2238020  0  5G01G07G11G17G30                                 
  20727741.546 6   -113515.174 6       784.008 6        41.150                  
  21203792.880 7    220196.063 7     -1726.447 7        43.001                  
  20869675.325 6     72098.469 6      -614.926 6        41.475                  
  22239709.351 6   -360231.011 6      2674.678 6        41.413                  
  20362382.113 7    -10242.472 7        11.596 7        44.435                  
 18  6  4 18 08  7.3238020  0  5G01G07G11G17G30                                 
  20727680.241 6   -113593.645 6       784.974 6        41.516                  
  21203793.716 7    220368.652 7     -1725.456 7        45.468                  
  20869644.912 7     72159.929 7      -614.244 7        42.338                  
  22239621.584 7   -360498.534 7      2675.857 7        43.099                  
  20362346.903 7    -10243.699 7        12.765 7        46.392                  
 18  6  4 18 08  7.4238020  0  5G01G07G11G17G30                                 
  20727662.180 6   -113672.188 6       785.796 6        41.481                  
  21203822.031 7    220541.168 7     -1724.897 7        43.891                  
  20869657.024 7     72221.325 7      -613.892 7        43.244                  
  22239568.734 7   -360766.131 7      2676.297 7        44.001                  
  20362343.080 7    -10244.992 7        13.070 7        45.017                  
 18  6  4 18 08  7.5238020  0  5G01G07G11G17G30                                 
  20727643.626 6   -113750.780 6       785.936 6        39.916                  
  21203849.811 7    220713.641 7     -1724.563 7        43.204                  
  20869666.079 6     72282.678 6      -613.585 6        41.760                  
  22239517.579 7   -361033.781 7      2676.583 7        45.585                  
  20362330.538 7    -10246.336 7        13.688 7        43.336                  
 18  6  4 18 08  7.6238020  0  5G01G07G11G17G30                                 
  20727685.610 7   -113829.354 7       785.102 7        42.282                  
  21203936.158 7    220886.120 7     -1725.229 7        46.472                  
  20869731.518 6     72344.049 6      -613.979 6        41.447                  
  22239521.310 7   -361301.417 7      2676.064 7        42.156                  
  20362386.832 7    -10247.667 7        12.950 7        43.385                  
 18  6  4 18 08  7.7238020  0  5G01G07G11G17G30                                 
  20727703.528 7   -113907.864 7       784.726 7        42.135                  
  21204000.761 7    221058.675 7     -1725.873 7        45.296                  
  20869774.432 6     72405.475 6      -614.601 6        41.080                  
  22239500.356 7   -361568.995 7      2675.086 7        43.150                  
  20362418.074 7    -10248.924 7        12.169 7        44.131                  
 18  6  4 18 08  7.8238020  0  5G01G07G11G17G30                                 
  20727714.382 6   -113986.275 6       783.946 6        40.444                  
  21204057.748 7    221231.294 7     -1726.188 7        43.323                  
  20869811.057 7     72466.981 7      -614.765 7        42.948                  
  22239469.911 6   -361836.490 6      2674.739 6        40.668                  
  20362440.834 7    -10250.106 7        11.622 7        46.972                  
 18  6  4 18 08  7.9238020  0  5G01G07G11G17G30                                 
  20727702.493 7   -114064.682 7       784.220 7        42.366                  
  21204094.881 7    221403.932 7     -1726.525 7        43.083                  
  20869829.795 7     72528.502 7      -615.812 7        42.343                  
  22239425.291 6   -362103.973 6      2675.213 6        41.487                  
  20362451.661 7    -10251.282 7        11.523 7        44.627                  
 18  6  4 18 08  8.0238020  0  5G01G07G11G17G30                                 
  20727753.018 6   -114143.105 6       784.569 6        41.920                  
  21204190.095 7    221576.557 7     -1726.062 7        43.718                  
  20869901.630 6     72590.003 6      -614.537 6        41.387                  
  22239434.731 7   -362371.478 7      2675.182 7        43.627                  
  20362513.887 7    -10252.460 7        12.084 7        42.644                  
 18  6  4 18 08  8.1238020  0  5G01G07G11G17G30                                 
  20727739.900 6   -114221.543 6       784.319 6        41.529                  
  21204228.306 7    221749.161 7     -1726.198 7        44.192                  
  20869915.790 7     72651.502 7      -615.043 7        43.633                  
  22239389.749 7   -362638.999 7      2674.991 7        44.359                  
  20362516.576 7    -10253.663 7        11.973 7        44.076                  
 18  6  4 18 08  8.2238020  0  5G01G07G11G17G30                                 
  20727739.651 6   -114299.959 6       784.230 6        41.598                  
  21204274.506 7    221921.781 7     -1726.138 7        45.335                  
  20869943.262 7     72713.011 7      -615.272 7        43.204                  
  22239355.889 6   -362906.500 6      2675.102 6        41.692                  
  20362530.328 7    -10254.840 7        11.744 7        43.072                  
 18  6  4 18 08  8.3238020  0  5G01G07G11G17G30                                 
  20727740.789 6   -114378.367 6       783.337 6        41.691                  
  21204323.102 7    222094.416 7     -1726.706 7        43.489                  
  20869971.320 6     72774.526 6      -615.207 6        41.397                  
  22239320.527 7   -363174.001 7      2675.005 7        43.108                  
  20362545.278 7    -10256.004 7        11.494 7        45.178                  
 18  6  4 18 08  8.4238020  0  5G01G07G11G17G30                                 
  20727699.729 6   -114456.774 6       784.715 6        40.080                  
  21204333.993 7    222267.053 7     -1725.837 7        44.595                  
  20869962.416 6     72836.048 6      -614.979 6        41.066                  
  22239246.420 6   -363441.502 6      2674.785 6        41.262                  
  20362524.884 7    -10257.175 7        11.760 7        45.309                  
 18  6  4 18 08  8.5238020  0  5G01G07G11G17G30                                 
  20727741.967 7   -114535.222 7       784.572 7        42.155                  
  21204414.589 7    222439.636 7     -1725.999 7        42.906                  
  20870027.807 6     72897.525 6      -614.468 6        41.972                  
  22239248.339 7   -363709.050 7      2676.013 7        42.963                  
  20362570.262 7    -10258.380 7        12.495 7        43.949                  
 18  6  4 18 08  8.6238020  0  5G01G07G11G17G30                                 
  20727783.912 6   -114613.743 6       785.400 6        40.116                  
  21204504.122 7    222612.152 7     -1724.684 7        44.115                  
  20870091.640 6     72958.932 6      -613.491 6        40.527                  
  22239251.400 7   -363976.661 7      2676.442 7        43.288                  
  20362627.222 7    -10259.662 7        13.095 7        45.651                  
 18  6  4 18 08  8.7238020  0  5G01G07G11G17G30                                 
  20727737.124 6   -114692.345 6       786.794 6        40.563                  
  21204515.491 7    222784.586 7     -1723.600 7        46.557                  
  20870073.528 7     73020.246 7      -612.686 7        44.749                  
  22239178.662 7   -364244.380 7      2677.772 7        43.358                  
  20362598.675 7    -10261.024 7        14.172 7        43.021                  
 18  6  4 18 08  8.8238020  0  5G01G07G11G17G30                                 
  20727766.431 7   -114771.008 7       787.108 7        42.945                  
  21204588.874 7    222956.936 7     -1723.086 7        43.597                  
  20870126.204 6     73081.486 6      -612.158 6        40.234                  
  22239170.343 7   -364512.162 7      2678.201 7        42.834                  
  20362636.398 7    -10262.465 7        14.586 7        43.240                  
 18  6  4 18 08  8.9238020  0  5G01G07G11G17G30                                 
  20727797.716 6   -114849.783 6       788.283 6        40.503                  
  21204663.907 7    223129.186 7     -1722.024 7        44.700                  
  20870183.983 7     73142.628 7      -611.158 7        43.549                  
  22239165.103 7   -364780.057 7      2679.478 7        44.269                  
  20362686.043 7    -10264.004 7        15.983 7        42.124                  
 18  6  4 18 08  9.0238020  0  5G01G07G11G17G30                                 
  20727794.531 7   -114928.632 7       788.468 7        42.020                  
  21204711.565 7    223301.365 7     -1721.904 7        45.999                  
  20870207.942 6     73203.691 6      -610.661 6        39.816                  
  22239125.261 7   -365048.021 7      2679.926 7        44.723                  
  20362701.460 7    -10265.625 7        16.055 7        43.623                  
 18  6  4 18 08  9.1238020  0  5G01G07G11G17G30                                 
  20727781.230 6   -115007.437 6       787.868 6        40.544                  
  21204747.160 7    223473.571 7     -1722.137 7        43.279                  
  20870224.909 6     73264.797 6      -611.364 6        40.518                  
  22239068.136 7   -365315.964 7      2678.984 7        42.202                  
  20362708.985 7    -10267.199 7        15.917 7        44.383                  
 18  6  4 18 08  9.2238020  0  5G01G07G11G17G30                                 
  20727794.908 7   -115086.175 7       786.444 7        43.396                  
  21204806.296 7    223645.844 7     -1723.533 7        45.387                  
  20870262.807 7     73325.970 7      -612.004 7        42.131                  
  22239040.695 7   -365583.827 7      2678.047 7        43.069                  
  20362729.758 7    -10268.714 7        14.348 7        42.974                  
 18  6  4 18 08  9.3238020  0  5G01G07G11G17G30                                 
  20727785.972 6   -115164.759 6       784.935 6        40.273                  
  21204848.094 7    223818.284 7     -1725.171 7        46.594                  
  20870280.004 7     73387.296 7      -614.216 7        42.141                  
  22239000.765 7   -365851.552 7      2676.292 7        45.252                  
  20362733.757 7    -10270.064 7        12.438 7        43.748                  
 18  6  4 18 08  9.4238020  0  5G01G07G11G17G30                                 
  20727789.044 7   -115243.172 7       783.674 7        42.636                  
  21204900.086 7    223990.876 7     -1726.393 7        47.092                  
  20870309.970 6     73448.790 6      -615.586 6        41.865                  
  22238966.998 7   -366119.102 7      2674.988 7        43.530                  
  20362753.886 7    -10271.256 7        11.743 7        43.503                  
 18  6  4 18 08  9.5238020  0  5G01G07G11G17G30                                 
  20727775.315 6   -115321.527 6       783.417 6        39.509                  
  21204933.597 7    224163.537 7     -1726.761 7        42.615                  
  20870326.878 6     73510.330 6      -615.677 6        40.921                  
  22238923.515 7   -366386.597 7      2674.810 7        43.493                  
  20362759.101 7    -10272.382 7        11.005 7        44.175                  
 18  6  4 18 08  9.6238020  0  5G01G07G11G17G30                                 
  20727727.473 7   -115399.821 7       782.204 7        42.171                  
  21204936.326 7    224336.262 7     -1727.988 7        44.667                  
  20870311.692 6     73571.957 6      -616.561 6        40.388                  
  22238841.153 7   -366654.034 7      2674.024 7        43.015                  
  20362728.338 6    -10273.439 6        10.194 6        41.600                  
 18  6  4 18 08  9.7238020  0  5G01G07G11G17G30                                 
  20727809.395 7   -115478.025 7       781.825 7        42.288                  
  21205056.480 7    224509.056 7     -1727.948 7        46.262                  
  20870412.093 6     73633.647 6      -616.946 6        41.323                  
  22238884.394 7   -366921.388 7      2673.346 7        42.920                  
  20362814.839 7    -10274.425 7         9.321 7        44.148                  
 18  6  4 18 08  9.8238020  0  5G01G07G11G17G30                                 
  20727782.527 7   -115556.231 7       782.972 7        42.613                  
  21205080.331 7    224681.854 7     -1727.137 7        45.140                  
  20870414.767 6     73695.348 6      -616.777 6        41.558                  
  22238823.023 7   -367188.748 7      2674.005 7        44.414                  
  20362804.171 7    -10275.407 7        10.333 7        45.061                  
 18  6  4 18 08  9.9238020  0  5G01G07G11G17G30                                 
  20727826.357 7   -115634.579 7       784.301 7        43.640                  
  21205167.710 7    224854.501 7     -1725.756 7        43.452                  
  20870480.594 6     73756.903 6      -614.428 6        41.050                  
  22238825.121 7   -367456.256 7      2676.198 7        43.272                  
  20362857.180 7    -10276.527 7        12.212 7        44.336                  
 18  6  4 18 08 10.0238020  0  5G01G07G11G17G30                                 
  20727785.462 7   -115713.073 7       785.682 7        42.591                  
  21205179.832 7    225027.010 7     -1724.332 7        42.216                  
  20870471.190 6     73818.295 6      -613.468 6        41.099                  
  22238747.131 7   -367723.914 7      2676.951 7        42.868                  
  20362836.792 7    -10277.798 7        13.491 7        42.002                  
 18  6  4 18 08 10.1238020  0  5G01G07G11G17G30                                 
  20727770.347 6   -115791.749 6       787.340 6        41.121                  
  21205217.308 7    225199.325 7     -1722.372 7        46.437                  
  20870484.313 6     73879.518 6      -611.221 6        39.276                  
  22238699.478 7   -367991.760 7      2679.673 7        44.319                  
  20362841.846 7    -10279.253 7        15.299 7        43.871                  
 18  6  4 18 08 10.2238020  0  5G01G07G11G17G30                                 
  20727782.777 6   -115870.618 6       789.845 6        41.419                  
  21205278.352 7    225371.448 7     -1720.010 7        45.512                  
  20870521.781 6     73940.536 6      -608.733 6        41.527                  
  22238676.690 7   -368259.799 7      2681.401 7        43.126                  
  20362868.858 7    -10280.890 7        17.517 7        43.536                  
 18  6  4 18 08 10.3238020  0  5G01G07G11G17G30                                 
  20727761.591 6   -115949.737 6       792.262 6        40.069                  
  21205307.464 7    225543.323 7     -1717.720 7        44.835                  
  20870530.798 6     74001.316 6      -606.434 6        41.368                  
  22238623.270 6   -368528.080 6      2684.146 6        41.729                  
  20362867.513 7    -10282.781 7        20.369 7        44.018                  
 18  6  4 18 08 10.4238020  0  5G01G07G11G17G30                                 
  20727858.905 7   -116029.003 7       793.448 7        44.264                  
  21205443.536 7    225715.038 7     -1716.512 7        44.872                  
  20870645.113 7     74061.933 7      -606.045 7        42.075                  
  22238675.798 7   -368796.542 7      2685.019 7        42.546                  
  20362972.011 7    -10284.847 7        20.709 7        44.863                  
 18  6  4 18 08 10.5238020  0  5G01G07G11G17G30                                 
  20727851.085 6   -116108.355 6       793.618 6        41.295                  
  21205482.262 7    225886.671 7     -1716.237 7        44.864                  
  20870664.821 6     74122.469 6      -605.095 6        41.419                  
  22238630.145 7   -369065.074 7      2685.424 7        42.365                  
  20362974.699 7    -10286.963 7        21.682 7        42.892                  
 18  6  4 18 08 10.6238020  0  5G01G07G11G17G30                                 
  20727889.542 6   -116187.744 6       794.030 6        39.311                  
  21205561.971 7    226058.254 7     -1715.573 7        44.269                  
  20870727.610 7     74182.966 7      -604.858 7        42.198                  
  22238631.614 7   -369333.651 7      2686.235 7        44.176                  
  20363023.447 7    -10289.149 7        22.072 7        43.410                  
 18  6  4 18 08 10.7238020  0  5G01G07G11G17G30                                 
  20727902.315 6   -116267.179 6       794.043 6        40.761                  
  21205624.113 7    226229.809 7     -1715.521 7        45.971                  
  20870765.568 6     74243.421 6      -604.552 6        40.588                  
  22238611.259 7   -369602.277 7      2686.309 7        43.193                  
  20363052.711 7    -10291.357 7        22.113 7        43.699                  
 18  6  4 18 08 10.8238020  0  5G01G07G11G17G30                                 
  20727866.011 7   -116346.574 7       793.549 7        42.206                  
  21205640.506 7    226401.393 7     -1716.371 7        45.804                  
  20870758.364 7     74303.910 7      -605.417 7        42.897                  
  22238539.556 7   -369870.871 7      2685.496 7        43.473                  
  20363030.808 7    -10293.543 7        21.202 7        45.103                  
 18  6  4 18 08 10.9238020  0  5G01G07G11G17G30                                 
  20727859.648 6   -116425.874 6       793.031 6        40.908                  
  21205683.079 7    226573.075 7     -1717.547 7        43.597                  
  20870780.441 7     74364.496 7      -606.586 7        42.917                  
  22238500.209 7   -370139.372 7      2684.385 7        42.786                  
  20363042.503 7    -10295.627 7        20.260 7        45.103                  
 18  6  4 18 08 11.0238020  0  5G01G07G11G17G30                                 
  20727814.727 6   -116505.022 6       790.336 6        40.715                  
  21205687.946 7    226744.897 7     -1718.801 7        44.897                  
  20870770.082 6     74425.229 6      -607.887 6        41.680                  
  22238421.346 6   -370407.728 6      2682.304 6        40.952                  
  20363020.421 7    -10297.565 7        18.672 7        44.032                  
 18  6  4 18 08 11.1238020  0  5G01G07G11G17G30                                 
  20727839.532 7   -116584.017 7       789.285 7        42.645                  
  21205760.855 7    226916.880 7     -1720.626 7        43.448                  
  20870818.491 6     74486.123 6      -609.869 6        39.718                  
  22238411.401 7   -370675.925 7      2681.682 7        44.304                  
  20363059.530 7    -10299.339 7        16.827 7        45.314                  
 18  6  4 18 08 11.2238020  0  5G01G07G11G17G30                                 
  20727919.722 6   -116662.863 6       787.823 6        40.669                  
  21205881.096 7    227089.011 7     -1722.116 7        44.300                  
  20870916.609 6     74547.146 6      -611.065 6        40.806                  
  22238450.878 7   -370943.982 7      2679.806 7        43.499                  
  20363145.063 7    -10300.968 7        15.748 7        44.596                  
 18  6  4 18 08 11.3238020  0  5G01G07G11G17G30                                 
  20727870.333 6   -116741.560 6       786.127 6        40.477                  
  21205884.495 7    227261.282 7     -1723.015 7        45.200                  
  20870899.705 6     74608.331 6      -612.644 6        39.812                  
  22238367.571 7   -371211.895 7      2678.816 7        46.235                  
  20363115.414 7    -10302.455 7        14.021 7        43.786                  
 18  6  4 18 08 11.4238020  0  5G01G07G11G17G30                                 
  20727864.570 6   -116820.173 6       786.252 6        40.590                  
  21205928.233 7    227433.628 7     -1723.921 7        45.803                  
  20870921.474 6     74669.591 6      -612.587 6        40.299                  
  22238331.144 6   -371479.733 6      2678.229 6        41.273                  
  20363126.112 7    -10303.850 7        13.891 7        44.414                  
 18  6  4 18 08 11.5238020  0  5G01G07G11G17G30                                 
  20727914.902 7   -116898.759 7       785.418 7        43.328                  
  21206028.837 7    227606.008 7     -1723.618 7        43.504                  
  20870990.944 7     74730.867 7      -612.662 7        43.361                  
  22238337.402 7   -371747.550 7      2677.936 7        42.884                  
  20363191.023 7    -10305.235 7        13.807 7        44.220                  
 18  6  4 18 08 11.6238020  0  5G01G07G11G17G30                                 
  20727938.299 7   -116977.344 7       786.233 7        43.356                  
  21206095.514 7    227778.374 7     -1723.920 7        45.197                  
  20871039.088 6     74792.151 6      -613.151 6        41.141                  
  22238322.794 7   -372015.373 7      2678.219 7        43.269                  
  20363223.379 7    -10306.612 7        13.524 7        43.447                  
 18  6  4 18 08 11.7238020  0  5G01G07G11G17G30                                 
  20727913.782 7   -117055.891 7       785.382 7        42.633                  
  21206120.416 7    227950.795 7     -1724.322 7        44.047                  
  20871044.605 6     74853.478 6      -612.988 6        40.662                  
  22238265.197 7   -372283.148 7      2677.740 7        43.943                  
  20363215.320 7    -10307.936 7        13.299 7        43.975                  
 18  6  4 18 08 11.8238020  0  5G01G07G11G17G30                                 
  20727896.180 7   -117134.469 7       786.222 7        42.710                  
  21206151.447 7    228123.168 7     -1723.119 7        45.406                  
  20871057.188 6     74914.766 6      -612.311 6        41.432                  
  22238217.789 7   -372550.962 7      2678.653 7        43.250                  
  20363216.101 6    -10309.317 6        14.575 6        41.832                  
 18  6  4 18 08 11.9238020  0  5G01G07G11G17G30                                 
  20727922.958 6   -117213.186 6       787.761 6        41.688                  
  21206227.933 7    228295.401 7     -1721.481 7        44.973                  
  20871105.970 6     74975.917 6      -610.623 6        40.946                  
  22238204.682 6   -372818.923 6      2680.209 6        40.350                  
  20363255.794 7    -10310.825 7        15.815 7        44.279                  
 18  6  4 18 08 12.0238020  0  5G01G07G11G17G30                                 
  20727864.650 6   -117292.065 6       789.701 6        41.220                  
  21206218.917 7    228467.474 7     -1719.511 7        44.897                  
  20871082.750 6     75036.908 6      -609.302 6        40.584                  
  22238113.641 7   -373087.041 7      2682.272 7        44.587                  
  20363215.644 7    -10312.492 7        17.484 7        45.315                  
 18  6  4 18 08 18.1238020  0  5G01G07G11G17G30                                 
  20750186.057 7   -117373.238 7       790.989 7        42.999                  
  21228586.252 7    228643.638 7     -1718.925 7        43.655                  
  20893430.404 6     75099.090 6      -607.718 6        39.847                  
  22260397.001 7   -373362.867 7      2683.528 7        44.734                  
  20385547.750 7    -10314.507 7        18.862 7        44.739                  
 18  6  4 18 08 18.2238020  0  5G01G07G11G17G30                                 
  20750260.057 6   -117450.220 6       791.217 6        41.135                  
  21228701.279 7    228811.218 7     -1718.495 7        44.711                  
  20893523.544 6     75158.479 6      -607.592 6        39.755                  
  22260430.589 7   -373623.706 7      2683.479 7        42.663                  
  20385630.744 7    -10316.241 7        18.996 7        44.140                  
