     2.10           OBSERVATION DATA    G                   RINEX VERSION / TYPE
BLANK OR G = GPS,  R = GLONASS,  E = GALILEO,  M = MIXED    COMMENT             
GNSS-SDR            heath                1-JUN-18 18:14     PGM / RUN BY / DATE 
GPS OBSERVATION DATA FILE GENERATED BY GNSS-SDR             COMMENT             
GNSS-SDR VERSION 0.0.9                                      COMMENT             
See http://gnss-sdr.org                                     COMMENT             
DEFAULT MARKER NAME                                         MARKER NAME         
heath               CTTC                                    OBSERVER / AGENCY   
GNSS-SDR            Software Receiver   0.0.9               REC # / TYPE / VERS 
Antenna number      Antenna type                            ANT # / TYPE        
        0.0000        0.0000        0.0000                  APPROX POSITION XYZ 
        0.0000        0.0000        0.0000                  ANTENNA: DELTA H/E/N
     1     1                                                WAVELENGTH FACT L1/2
     4    C1    L1    D1    S1                              # / TYPES OF OBSERV 
  2018    06    01    18    14   49.1628020     GPS         TIME OF FIRST OBS   
    18                                                      LEAP SECONDS        
                                                            END OF HEADER       
 18  6  1 18 14 49.1628020  0  5G01G07G11G18G30                                 
  20749461.348 6    -80997.962 6      1059.581 6        38.680                  
  21059391.278 7    118834.757 7     -1525.060 7        43.238                  
  20796352.882 7     32511.429 7      -385.657 7        42.457                  
  21476867.651 7     51743.165 7      -651.537 7        44.261                  
  20333270.099 7    -18054.797 7       254.779 7        44.404                  
 18  6  1 18 14 49.2628020  0  5G01G07G11G18G30                                 
  20749495.175 6    -81103.891 6      1059.532 6        41.551                  
  21059469.900 7    118987.228 7     -1524.457 7        42.463                  
  20796409.867 6     32549.961 6      -384.917 6        41.357                  
  21476926.416 6     51808.282 6      -650.932 6        40.807                  
  20333312.367 6    -18080.298 6       255.196 6        40.990                  
 18  6  1 18 14 49.3628020  0  5G01G07G11G18G30                                 
  20749489.248 6    -81209.871 6      1060.019 6        40.687                  
  21059513.239 6    119139.648 6     -1523.796 6        41.521                  
  20796434.099 6     32588.439 6      -384.574 6        41.780                  
  21476954.528 7     51873.345 7      -650.421 7        42.637                  
  20333325.457 7    -18105.862 7       255.924 7        44.946                  
 18  6  1 18 14 49.4628020  0  5G01G07G11G18G30                                 
  20749504.786 6    -81315.934 6      1061.090 6        41.353                  
  21059574.837 6    119291.993 6     -1522.690 6        41.889                  
  20796472.741 6     32626.854 6      -383.316 6        41.297                  
  21476998.515 6     51938.342 6      -649.222 6        41.746                  
  20333352.952 7    -18131.493 7       257.142 7        46.684                  
 18  6  1 18 14 49.5628020  0  5G01G07G11G18G30                                 
  20749499.743 7    -81422.119 7      1061.982 7        42.931                  
  21059620.897 6    119444.210 6     -1522.251 6        41.965                  
  20796499.046 7     32665.132 7      -382.483 7        42.696                  
  21477026.908 7     52003.212 7      -648.328 7        42.524                  
  20333366.657 7    -18157.259 7       258.022 7        44.445                  
 18  6  1 18 14 49.6628020  0  5G01G07G11G18G30                                 
  20749470.334 6    -81528.356 6      1063.170 6        40.910                  
  21059642.817 7    119596.367 7     -1520.786 7        43.334                  
  20796498.946 6     32703.349 6      -381.852 6        41.447                  
  21477035.809 7     52068.011 7      -647.580 7        44.879                  
  20333358.164 7    -18183.084 7       258.809 7        42.427                  
 18  6  1 18 14 49.7628020  0  5G01G07G11G18G30                                 
  20749473.197 6    -81634.713 6      1064.489 6        40.659                  
  21059691.728 6    119748.421 6     -1519.970 6        41.530                  
  20796524.209 7     32741.453 7      -380.262 7        42.706                  
  21477069.969 6     52132.715 6      -646.583 6        41.815                  
  20333372.720 7    -18209.016 7       259.919 7        44.484                  
 18  6  1 18 14 49.8628020  0  5G01G07G11G18G30                                 
  20749459.156 6    -81741.206 6      1065.225 6        39.522                  
  21059730.805 6    119900.314 6     -1518.458 6        41.727                  
  20796540.035 6     32779.425 6      -379.325 6        41.514                  
  21477090.408 6     52197.268 6      -644.858 6        41.851                  
  20333374.078 7    -18235.074 7       261.045 7        44.143                  
 18  6  1 18 14 49.9628020  0  5G01G07G11G18G30                                 
  20749465.300 6    -81847.782 6      1066.276 6        40.463                  
  21059787.764 7    120052.133 7     -1517.564 7        43.149                  
  20796577.716 6     32817.306 6      -378.353 6        41.177                  
  21477127.731 7     52261.739 7      -643.930 7        45.573                  
  20333396.194 7    -18261.245 7       262.160 7        43.354                  
 18  6  1 18 14 50.0628020  0  5G01G07G11G18G30                                 
  20749481.515 6    -81954.482 6      1067.506 6        39.463                  
  21059851.929 7    120203.827 7     -1516.626 7        42.202                  
  20796621.848 7     32855.059 7      -377.002 7        42.983                  
  21477172.465 7     52326.088 7      -643.150 7        43.176                  
  20333431.074 7    -18287.522 7       263.372 7        43.568                  
 18  6  1 18 14 50.1628020  0  5G01G07G11G18G30                                 
  20749475.750 6    -82061.301 6      1068.575 6        40.168                  
  21059890.501 6    120355.398 6     -1514.833 6        39.792                  
  20796639.856 7     32892.712 7      -375.480 7        42.619                  
  21477201.318 6     52390.319 6      -641.755 6        40.807                  
  20333437.311 7    -18313.919 7       264.770 7        43.254                  
 18  6  1 18 14 50.2628020  0  5G01G07G11G18G30                                 
  20749459.224 6    -82168.235 6      1070.307 6        39.718                  
  21059931.909 6    120506.857 6     -1513.770 6        41.873                  
  20796655.896 7     32930.223 7      -374.532 7        42.391                  
  21477218.658 7     52454.436 7      -640.570 7        43.668                  
  20333436.020 7    -18340.428 7       265.617 7        42.405                  
 18  6  1 18 14 50.3628020  0  5G01G07G11G18G30                                 
  20749485.488 6    -82275.260 6      1070.367 6        41.336                  
  21059998.273 7    120658.217 7     -1513.233 7        42.238                  
  20796701.289 6     32967.650 6      -374.148 6        41.807                  
  21477272.212 7     52518.462 7      -639.768 7        42.940                  
  20333472.750 7    -18367.044 7       266.203 7        42.933                  
 18  6  1 18 14 50.4628020  0  5G01G07G11G18G30                                 
  20749473.151 7    -82382.353 7      1071.488 7        42.281                  
  21060034.483 7    120809.505 7     -1512.777 7        44.804                  
  20796717.085 7     33005.006 7      -373.254 7        42.264                  
  21477295.301 7     52582.406 7      -638.978 7        42.456                  
  20333476.931 7    -18393.733 7       267.677 7        43.852                  
 18  6  1 18 14 50.5628020  0  5G01G07G11G18G30                                 
  20749454.152 7    -82489.621 7      1073.988 7        42.022                  
  21060068.484 7    120960.615 7     -1509.935 7        42.769                  
  20796732.939 6     33042.202 6      -370.516 6        40.659                  
  21477313.011 7     52646.188 7      -637.134 7        42.699                  
  20333481.963 7    -18420.569 7       269.265 7        43.604                  
 18  6  1 18 14 50.6628020  0  5G01G07G11G18G30                                 
  20749434.569 6    -82597.064 6      1074.844 6        41.850                  
  21060096.743 6    121111.552 6     -1508.448 6        41.927                  
  20796734.522 7     33079.199 7      -368.953 7        43.753                  
  21477328.919 7     52709.793 7      -634.874 7        42.303                  
  20333473.968 6    -18447.600 6       271.178 6        39.529                  
 18  6  1 18 14 50.7628020  0  5G01G07G11G18G30                                 
  20749417.074 7    -82704.675 7      1076.823 7        43.728                  
  21060132.684 6    121262.330 6     -1507.312 6        41.315                  
  20796751.785 6     33116.031 6      -368.294 6        40.843                  
  21477347.721 7     52773.225 7      -633.723 7        42.652                  
  20333478.503 7    -18474.797 7       272.689 7        46.349                  
 18  6  1 18 14 50.8628020  0  5G01G07G11G18G30                                 
  20749431.681 6    -82812.356 6      1076.950 6        38.016                  
  21060200.379 7    121413.012 7     -1506.429 7        45.681                  
  20796796.014 6     33152.804 6      -367.339 6        41.337                  
  21477390.222 7     52836.579 7      -633.473 7        42.046                  
  20333503.915 7    -18502.071 7       272.883 7        43.046                  
 18  6  1 18 14 50.9628020  0  5G01G07G11G18G30                                 
  20749464.669 6    -82920.091 6      1077.741 6        41.412                  
  21060275.857 7    121563.654 7     -1506.080 7        43.560                  
  20796857.530 6     33189.505 6      -366.842 6        40.247                  
  21477451.464 6     52899.890 6      -632.719 6        40.756                  
  20333543.419 7    -18529.394 7       273.385 7        44.368                  
 18  6  1 18 14 51.0628020  0  5G01G07G11G18G30                                 
  20749445.974 6    -83027.907 6      1078.623 6        41.616                  
  21060305.439 7    121714.205 7     -1505.456 7        42.562                  
  20796861.774 6     33226.134 6      -365.633 6        40.895                  
  21477467.887 6     52963.113 6      -631.726 6        40.898                  
  20333542.780 7    -18556.800 7       274.500 7        44.278                  
 18  6  1 18 14 51.1628020  0  5G01G07G11G18G30                                 
  20749421.770 6    -83135.796 6      1079.187 6        41.368                  
  21060332.992 7    121864.708 7     -1504.541 7        42.492                  
  20796865.261 6     33262.704 6      -365.630 6        40.864                  
  21477479.809 7     53026.277 7      -631.296 7        42.268                  
  20333541.288 7    -18584.256 7       274.790 7        45.245                  
 18  6  1 18 14 51.2628020  0  5G01G07G11G18G30                                 
  20749419.270 6    -83243.697 6      1079.079 6        41.684                  
  21060382.133 7    122015.169 7     -1504.323 7        42.053                  
  20796887.998 6     33299.238 6      -364.664 6        41.835                  
  21477508.063 7     53089.418 7      -631.344 7        42.955                  
  20333553.882 6    -18611.757 6       275.395 6        41.573                  
 18  6  1 18 14 51.3628020  0  5G01G07G11G18G30                                 
  20749418.157 7    -83351.690 7      1080.260 7        42.089                  
  21060430.732 6    122165.534 6     -1503.113 6        41.227                  
  20796916.162 7     33335.682 7      -364.349 7        43.374                  
  21477539.898 7     53152.465 7      -630.034 7        44.062                  
  20333565.326 7    -18639.346 7       276.502 7        43.775                  
 18  6  1 18 14 51.4628020  0  5G01G07G11G18G30                                 
  20749436.826 6    -83459.776 6      1081.668 6        40.605                  
  21060493.524 6    122315.815 6     -1502.403 6        39.701                  
  20796957.071 7     33372.029 7      -362.900 7        42.003                  
  21477586.819 7     53215.420 7      -628.952 7        43.232                  
  20333596.126 7    -18667.024 7       277.010 7        42.773                  
 18  6  1 18 14 51.5628020  0  5G01G07G11G18G30                                 
  20749452.908 6    -83567.963 6      1081.920 6        41.690                  
  21060556.430 7    122465.978 7     -1500.952 7        42.947                  
  20796993.957 7     33408.275 7      -362.039 7        42.395                  
  21477629.995 7     53278.257 7      -628.193 7        42.064                  
  20333624.915 6    -18694.798 6       278.444 6        39.942                  
 18  6  1 18 14 51.6628020  0  5G01G07G11G18G30                                 
  20749446.564 6    -83676.248 6      1083.885 6        40.531                  
  21060602.061 6    122616.060 6     -1500.201 6        40.626                  
  20797016.585 6     33444.434 6      -360.952 6        41.302                  
  21477656.464 6     53341.014 6      -626.556 6        40.591                  
  20333634.074 7    -18722.677 7       279.384 7        43.893                  
 18  6  1 18 14 51.7628020  0  5G01G07G11G18G30                                 
  20749429.497 6    -83784.650 6      1084.552 6        39.045                  
  21060632.976 7    122766.012 7     -1499.191 7        43.355                  
  20797029.768 6     33480.463 6      -359.559 6        40.403                  
  21477676.579 7     53403.655 7      -626.190 7        43.333                  
  20333637.875 7    -18750.668 7       280.063 7        42.789                  
 18  6  1 18 14 51.8628020  0  5G01G07G11G18G30                                 
  20749455.965 7    -83893.159 7      1085.178 7        42.720                  
  21060705.771 7    122915.861 7     -1498.172 7        42.997                  
  20797089.753 7     33516.387 7      -359.145 7        42.718                  
  21477732.339 7     53466.175 7      -624.638 7        42.436                  
  20333676.977 7    -18778.772 7       281.668 7        43.287                  
 18  6  1 18 14 51.9628020  0  5G01G07G11G18G30                                 
  20749454.654 6    -84001.728 6      1086.164 6        39.017                  
  21060753.731 7    123065.649 7     -1497.393 7        43.142                  
  20797114.789 6     33552.250 6      -358.227 6        39.026                  
  21477763.280 7     53528.652 7      -624.453 7        44.055                  
  20333687.248 6    -18806.927 6       281.930 6        40.842                  
 18  6  1 18 14 52.0628020  0  5G01G07G11G18G30                                 
  20749429.382 6    -84110.331 6      1086.197 6        41.706                  
  21060781.907 7    123215.392 7     -1496.675 7        42.060                  
  20797117.827 6     33588.070 6      -357.777 6        41.468                  
  21477774.421 7     53591.085 7      -623.994 7        42.026                  
  20333678.382 7    -18835.141 7       282.426 7        43.518                  
 18  6  1 18 14 52.1628020  0  5G01G07G11G18G30                                 
  20749380.727 6    -84219.058 6      1088.152 6        40.913                  
  21060789.883 6    123365.019 6     -1496.083 6        41.372                  
  20797100.553 7     33623.769 7      -356.568 7        42.713                  
  21477767.179 6     53653.385 6      -622.264 6        41.514                  
  20333649.436 7    -18863.457 7       284.079 7        44.930                  
 18  6  1 18 14 52.2628020  0  5G01G07G11G18G30                                 
  20749406.534 6    -84327.929 6      1089.432 6        41.710                  
  21060862.591 6    123514.499 6     -1494.121 6        41.805                  
  20797149.700 7     33659.326 7      -354.766 7        43.736                  
  21477818.634 7     53715.553 7      -620.806 7        42.161                  
  20333687.421 7    -18891.929 7       285.269 7        43.180                  
 18  6  1 18 14 52.3628020  0  5G01G07G11G18G30                                 
  20749413.130 7    -84436.950 7      1091.105 7        43.206                  
  21060917.798 7    123663.828 7     -1492.606 7        42.621                  
  20797182.749 6     33694.732 6      -352.940 6        41.530                  
  21477855.329 7     53777.561 7      -619.424 7        43.361                  
  20333711.940 7    -18920.553 7       286.650 7        45.312                  
 18  6  1 18 14 52.4628020  0  5G01G07G11G18G30                                 
  20749422.723 6    -84546.113 6      1092.174 6        39.828                  
  21060974.336 7    123813.012 7     -1490.899 7        42.730                  
  20797222.014 6     33729.986 6      -352.037 6        41.455                  
  21477896.878 6     53839.426 6      -617.887 6        41.425                  
  20333731.808 7    -18949.318 7       288.662 7        42.803                  
 18  6  1 18 14 52.5628020  0  5G01G07G11G18G30                                 
  20749414.884 6    -84655.440 6      1094.210 6        39.436                  
  21061012.827 7    123962.034 7     -1489.213 7        42.779                  
  20797237.454 7     33765.086 7      -350.050 7        43.218                  
  21477922.342 7     53901.129 7      -616.285 7        43.194                  
  20333744.165 6    -18978.239 6       290.103 6        41.731                  
 18  6  1 18 14 52.6628020  0  5G01G07G11G18G30                                 
  20749389.678 6    -84764.922 6      1095.493 6        41.208                  
  21061040.915 7    124110.891 7     -1487.947 7        43.959                  
  20797239.713 7     33800.025 7      -348.955 7        44.777                  
  21477933.110 7     53962.686 7      -614.836 7        43.061                  
  20333737.536 7    -19007.326 7       291.645 7        42.679                  
 18  6  1 18 14 52.7628020  0  5G01G07G11G18G30                                 
  20749415.388 6    -84874.548 6      1096.860 6        41.712                  
  21061112.317 6    124259.623 6     -1486.913 6        41.714                  
  20797291.079 7     33834.845 7      -347.393 7        42.132                  
  21477986.214 7     54024.106 7      -613.798 7        42.816                  
  20333771.474 7    -19036.535 7       292.595 7        42.675                  
 18  6  1 18 14 52.8628020  0  5G01G07G11G18G30                                 
  20749404.987 6    -84984.245 6      1096.887 6        39.593                  
  21061154.401 7    124408.243 7     -1485.757 7        42.683                  
  20797314.512 7     33869.550 7      -346.717 7        42.529                  
  21478010.796 7     54085.427 7      -612.699 7        44.070                  
  20333779.807 6    -19065.839 6       293.258 6        41.863                  
 18  6  1 18 14 52.9628020  0  5G01G07G11G18G30                                 
  20749401.508 6    -85094.015 6      1098.377 6        39.778                  
  21061201.006 7    124556.805 7     -1485.280 7        43.113                  
  20797342.521 7     33904.194 7      -346.350 7        42.530                  
  21478041.080 7     54146.679 7      -612.219 7        42.960                  
  20333792.937 7    -19095.214 7       293.914 7        43.598                  
 18  6  1 18 14 53.0628020  0  5G01G07G11G18G30                                 
  20749414.566 6    -85203.840 6      1098.231 6        40.644                  
  21061258.687 7    124705.319 7     -1484.983 7        43.410                  
  20797379.581 6     33938.790 6      -345.789 6        41.879                  
  21478084.130 6     54207.892 6      -612.042 6        40.422                  
  20333818.262 7    -19124.637 7       294.506 7        42.417                  
 18  6  1 18 14 53.1628020  0  5G01G07G11G18G30                                 
  20749434.793 6    -85313.641 6      1097.933 6        40.003                  
  21061327.158 7    124853.828 7     -1485.637 7        42.707                  
  20797429.177 7     33973.399 7      -346.291 7        42.741                  
  21478132.635 7     54269.106 7      -612.475 7        42.725                  
  20333853.232 7    -19154.048 7       294.033 7        42.487                  
 18  6  1 18 14 53.2628020  0  5G01G07G11G18G30                                 
  20749399.321 6    -85423.393 6      1096.834 6        40.007                  
  21061345.183 6    125002.414 6     -1486.267 6        41.210                  
  20797418.568 6     34008.057 6      -346.952 6        41.533                  
  21478134.539 6     54330.387 6      -613.498 6        41.983                  
  20333837.207 7    -19183.406 7       292.814 7        42.344                  
 18  6  1 18 14 53.3628020  0  5G01G07G11G18G30                                 
  20749389.926 6    -85533.019 6      1096.165 6        39.600                  
  21061386.640 7    125151.101 7     -1487.163 7        43.162                  
  20797434.367 6     34042.835 6      -348.283 6        39.819                  
  21478158.396 6     54391.771 6      -614.172 6        41.998                  
  20333837.615 7    -19212.652 7       291.856 7        44.984                  
 18  6  1 18 14 53.4628020  0  5G01G07G11G18G30                                 
  20749396.481 6    -85642.618 6      1096.068 6        40.574                  
  21061441.707 7    125299.828 7     -1486.710 7        43.679                  
  20797471.054 7     34077.647 7      -347.966 7        43.763                  
  21478196.292 6     54453.187 6      -613.655 6        41.603                  
  20333863.256 6    -19241.858 6       292.833 6        41.612                  
 18  6  1 18 14 53.5628020  0  5G01G07G11G18G30                                 
  20749380.847 4    -85751.132 4      1064.592 4        28.491                  
  21061474.705 4    125449.719 4     -1523.127 4        29.619                  
  20797479.131 4     34113.488 4      -379.709 4        28.742                  
  21478215.739 4     54515.985 4      -660.410 4        26.938                  
  20333859.274 4    -19269.312 4       236.809 4        29.738                  
 18  6  1 18 14 53.6628020  0  5G01G07G11G18G30                                 
  20749364.876 6    -85852.816 6       971.728 6        40.686                  
  21061508.085 6    125607.189 6     -1617.742 6        40.991                  
  20797492.688 7     34156.270 7      -472.565 7        42.586                  
  21478236.081 7     54587.520 7      -749.947 7        43.175                  
  20333861.228 7    -19287.884 7       156.430 7        42.271                  
 18  6  1 18 14 53.7628020  0  5G01G07G11G18G30                                 
  20749371.805 6    -85949.171 6       963.670 6        41.150                  
  21061560.496 7    125769.249 7     -1619.188 7        43.552                  
  20797522.846 6     34204.356 6      -480.004 6        40.556                  
  21478273.465 7     54662.283 7      -746.586 7        43.668                  
  20333884.389 7    -19303.755 7       159.795 7        44.645                  
 18  6  1 18 14 53.8628020  0  5G01G07G11G18G30                                 
  20749366.545 6    -86045.599 6       965.016 6        41.239                  
  21061607.354 7    125931.138 7     -1618.499 7        43.793                  
  20797554.460 7     34252.334 7      -479.743 7        42.779                  
  21478303.222 6     54736.888 6      -745.188 6        41.937                  
  20333897.381 7    -19319.801 7       160.872 7        43.040                  
 18  6  1 18 14 53.9628020  0  5G01G07G11G18G30                                 
  20749387.325 6    -86142.109 6       965.212 6        41.376                  
  21061676.331 7    126092.932 7     -1617.302 7        43.404                  
  20797598.194 6     34300.219 6      -477.915 6        40.710                  
  21478350.010 6     54811.391 6      -744.508 6        41.255                  
  20333931.815 7    -19335.925 7       162.053 7        43.293                  
 18  6  1 18 14 54.0628020  0  5G01G07G11G18G30                                 
  20749407.544 6    -86238.715 6       966.277 6        40.089                  
  21061743.145 7    126254.632 7     -1617.090 7        42.887                  
  20797646.101 7     34348.019 7      -478.290 7        43.496                  
  21478398.854 7     54885.811 7      -744.262 7        43.649                  
  20333964.681 7    -19352.141 7       162.469 7        43.998                  
 18  6  1 18 14 48.7628020  0  5G01G07G11G18G30                                 
  20737947.648 6    -86961.473 6       974.304 6        40.420                  
  21050631.981 7    127467.855 7     -1624.730 7        42.497                  
  20786381.990 6     34707.541 6      -466.034 6        41.553                  
  21467174.033 6     55444.888 6      -760.435 6        41.496                  
  20322614.082 7    -19472.388 7       169.789 7        43.702                  
 18  6  1 18 14 48.8628020  0  5G01G07G11G18G30                                 
  20737950.165 6    -87010.127 6       963.710 6        41.832                  
  21050680.255 7    127549.631 7     -1619.238 7        43.612                  
  20786415.027 7     34731.775 7      -479.993 7        42.116                  
  21467210.731 7     55482.552 7      -746.005 7        43.612                  
  20322631.407 7    -19480.463 7       159.979 7        44.508                  
 18  6  1 18 14 48.9628020  0  5G01G07G11G18G30                                 
  20737940.370 6    -87106.527 6       963.864 6        40.980                  
  21050721.986 6    127711.517 6     -1618.598 6        41.785                  
  20786437.747 6     34779.764 6      -479.974 6        41.385                  
  21467235.098 7     55557.171 7      -746.037 7        42.122                  
  20322648.086 7    -19496.477 7       160.016 7        43.023                  
 18  6  1 18 14 49.0628020  0  5G01G07G11G18G30                                 
  20737965.431 6    -87202.955 6       964.743 6        39.827                  
  21050796.027 7    127873.376 7     -1617.965 7        42.772                  
  20786481.372 7     34827.707 7      -478.484 7        44.010                  
  21467283.901 6     55631.748 6      -745.340 6        41.772                  
  20322679.909 7    -19512.533 7       161.407 7        42.868                  
 18  6  1 18 14 49.1628020  0  5G01G07G11G18G30                                 
  20737977.343 7    -87299.543 7       967.142 7        43.681                  
  21050851.594 6    128035.073 6     -1615.854 6        41.911                  
  20786516.505 6     34875.517 6      -476.913 6        41.060                  
  21467326.428 7     55706.177 7      -742.831 7        42.540                  
  20322702.676 7    -19528.742 7       163.111 7        44.079                  
 18  6  1 18 14 49.2628020  0  5G01G07G11G18G30                                 
  20737971.034 6    -87396.362 6       969.214 6        41.011                  
  21050896.633 7    128196.539 7     -1613.768 7        42.254                  
  20786534.597 6     34923.082 6      -474.648 6        40.663                  
  21467352.004 6     55780.368 6      -741.307 6        40.736                  
  20322708.002 7    -19545.167 7       164.973 7        42.900                  
 18  6  1 18 14 49.3628020  0  5G01G07G11G18G30                                 
  20737947.753 7    -87493.370 7       971.063 7        43.560                  
  21050922.556 6    128357.816 6     -1611.525 6        41.112                  
  20786542.284 7     34970.455 7      -473.255 7        42.388                  
  21467367.228 6     55854.386 6      -739.107 6        41.356                  
  20322704.950 7    -19561.796 7       167.712 7        44.282                  
 18  6  1 18 14 49.4628020  0  5G01G07G11G18G30                                 
  20737959.619 7    -87590.546 7       972.402 7        42.159                  
  21050976.305 6    128518.920 6     -1610.637 6        40.902                  
  20786577.138 6     35017.657 6      -470.972 6        39.874                  
  21467410.531 6     55928.219 6      -737.680 6        41.503                  
  20322726.709 7    -19578.604 7       168.645 7        42.461                  
 18  6  1 18 14 49.5628020  0  5G01G07G11G18G30                                 
  20737954.863 6    -87687.848 6       973.776 6        41.162                  
  21051019.147 7    128679.893 7     -1609.094 7        44.929                  
  20786595.442 7     35064.727 7      -469.737 7        45.111                  
  21467438.168 7     56001.931 7      -736.269 7        44.331                  
  20322737.399 7    -19595.519 7       169.604 7        42.215                  
 18  6  1 18 14 49.6628020  0  5G01G07G11G18G30                                 
  20737952.113 6    -87785.257 6       974.350 6        40.692                  
  21051071.591 7    128840.761 7     -1608.248 7        43.051                  
  20786634.492 6     35111.702 6      -469.677 6        41.932                  
  21467469.864 7     56075.530 7      -736.269 7        44.064                  
  20322756.875 7    -19612.560 7       170.872 7        45.937                  
 18  6  1 18 14 49.7628020  0  5G01G07G11G18G30                                 
  20737959.945 6    -87882.750 6       975.255 6        40.588                  
  21051128.476 7    129001.554 7     -1607.380 7        43.717                  
  20786666.304 6     35158.595 6      -468.695 6        40.115                  
  21467506.564 6     56149.061 6      -734.620 6        41.707                  
  20322781.671 7    -19629.672 7       171.609 7        42.500                  
 18  6  1 18 14 49.8628020  0  5G01G07G11G18G30                                 
  20737973.770 6    -87980.297 6       976.089 6        41.060                  
  21051191.872 6    129162.268 6     -1607.047 6        41.939                  
  20786713.118 7     35205.420 7      -467.751 7        42.883                  
  21467551.363 7     56222.514 7      -734.011 7        43.771                  
  20322805.630 7    -19646.852 7       172.166 7        42.997                  
 18  6  1 18 14 49.9628020  0  5G01G07G11G18G30                                 
  20737953.302 6    -88077.942 6       976.581 6        38.878                  
  21051225.337 6    129322.890 6     -1605.614 6        40.800                  
  20786721.061 7     35252.148 7      -466.846 7        42.484                  
  21467566.481 7     56295.868 7      -733.182 7        42.822                  
  20322796.475 6    -19664.128 6       173.009 6        41.705                  
 18  6  1 18 14 50.0628020  0  5G01G07G11G18G30                                 
  20737933.016 6    -88175.704 6       978.217 6        40.905                  
  21051252.925 7    129483.398 7     -1604.524 7        43.159                  
  20786721.806 7     35298.762 7      -465.637 7        42.569                  
  21467581.273 7     56369.120 7      -732.100 7        42.125                  
  20322794.276 7    -19681.514 7       174.479 7        44.582                  
 18  6  1 18 14 50.1628020  0  5G01G07G11G18G30                                 
  20737910.014 6    -88273.566 6       979.343 6        39.856                  
  21051284.724 6    129643.808 6     -1603.515 6        41.604                  
  20786732.017 6     35345.279 6      -464.504 6        41.160                  
  21467594.503 7     56442.255 7      -730.765 7        42.357                  
  20322796.553 7    -19698.993 7       175.359 7        43.285                  
 18  6  1 18 14 50.2628020  0  5G01G07G11G18G30                                 
  20737941.866 6    -88371.522 6       979.951 6        39.718                  
  21051361.198 7    129804.117 7     -1602.777 7        44.615                  
  20786783.984 7     35391.694 7      -463.972 7        43.215                  
  21467650.465 7     56515.311 7      -730.132 7        42.673                  
  20322840.811 7    -19716.578 7       176.136 7        42.889                  
 18  6  1 18 14 50.3628020  0  5G01G07G11G18G30                                 
  20737942.566 6    -88469.531 6       979.462 6        41.438                  
  21051409.316 6    129964.376 6     -1602.791 6        41.860                  
  20786811.965 7     35438.059 7      -464.139 7        42.446                  
  21467684.139 6     56588.318 6      -729.990 6        40.632                  
  20322853.272 7    -19734.212 7       176.398 7        42.016                  
 18  6  1 18 14 50.4628020  0  5G01G07G11G18G30                                 
  20737938.788 6    -88567.429 6       978.110 6        40.780                  
  21051454.490 7    130124.733 7     -1604.420 7        42.207                  
  20786832.333 7     35484.522 7      -465.052 7        42.265                  
  21467712.759 7     56661.419 7      -731.823 7        43.811                  
  20322859.750 7    -19751.741 7       174.201 7        44.887                  
 18  6  1 18 14 50.5628020  0  5G01G07G11G18G30                                 
  20737928.076 6    -88665.199 6       977.795 6        40.100                  
  21051494.706 7    130285.208 7     -1604.947 7        42.286                  
  20786855.602 7     35531.104 7      -466.370 7        42.274                  
  21467737.606 7     56734.630 7      -732.588 7        44.219                  
  20322871.234 7    -19769.156 7       174.361 7        42.582                  
 18  6  1 18 14 50.6628020  0  5G01G07G11G18G30                                 
  20737954.239 6    -88762.938 6       977.126 6        41.883                  
  21051566.134 6    130445.725 6     -1605.537 6        41.689                  
  20786908.690 6     35577.740 6      -466.350 6        41.698                  
  21467791.681 6     56807.902 6      -732.863 6        40.925                  
  20322906.294 7    -19786.523 7       173.174 7        44.156                  
 18  6  1 18 14 50.7628020  0  5G01G07G11G18G30                                 
  20737885.731 6    -88860.636 6       977.305 6        39.516                  
  21051557.874 7    130606.287 7     -1605.451 7        44.619                  
  20786874.574 6     35624.409 6      -466.679 6        41.175                  
  21467768.078 6     56881.215 6      -732.997 6        41.434                  
  20322866.405 6    -19803.846 6       172.973 6        41.393                  
 18  6  1 18 14 50.8628020  0  5G01G07G11G18G30                                 
  20737882.166 6    -88958.358 6       977.356 6        41.338                  
  21051599.759 7    130766.830 7     -1605.055 7        42.523                  
  20786889.373 6     35671.066 6      -466.338 6        41.152                  
  21467796.423 7     56954.492 7      -732.503 7        42.211                  
  20322873.004 6    -19821.199 6       173.713 6        41.706                  
 18  6  1 18 14 50.9628020  0  5G01G07G11G18G30                                 
  20737869.182 6    -89056.185 6       979.005 6        41.066                  
  21051637.670 7    130927.245 7     -1603.467 7        43.963                  
  20786905.405 6     35717.595 6      -464.330 6        41.569                  
  21467818.074 7     57027.675 7      -731.166 7        43.336                  
  20322879.398 7    -19838.648 7       175.483 7        45.027                  
 18  6  1 18 14 51.0628020  0  5G01G07G11G18G30                                 
  20737893.541 6    -89154.150 6       980.434 6        39.915                  
  21051703.301 7    131087.514 7     -1602.196 7        43.855                  
  20786956.292 6     35763.987 6      -463.286 6        41.993                  
  21467872.369 7     57100.699 7      -729.335 7        43.356                  
  20322913.608 7    -19856.248 7       176.945 7        43.652                  
 18  6  1 18 14 51.1628020  0  5G01G07G11G18G30                                 
  20737865.963 7    -89252.310 7       982.411 7        42.266                  
  21051733.893 7    131247.611 7     -1599.692 7        42.647                  
  20786967.242 7     35810.182 7      -460.570 7        42.663                  
  21467882.679 6     57173.526 6      -726.989 6        41.090                  
  20322909.051 7    -19874.062 7       178.945 7        43.911                  
 18  6  1 18 14 51.2628020  0  5G01G07G11G18G30                                 
  20737914.762 7    -89350.648 7       984.253 7        42.060                  
  21051824.834 7    131407.502 7     -1598.097 7        42.500                  
  20787034.442 6     35856.189 6      -459.468 6        39.106                  
  21467952.297 6     57246.180 6      -726.349 6        41.316                  
  20322966.989 7    -19892.028 7       180.379 7        42.913                  
 18  6  1 18 14 51.3628020  0  5G01G07G11G18G30                                 
  20737921.542 6    -89449.087 6       984.373 6        41.978                  
  21051876.310 6    131567.324 6     -1598.003 6        40.582                  
  20787063.060 7     35902.122 7      -459.192 7        42.541                  
  21467989.664 7     57318.752 7      -725.274 7        42.784                  
  20322988.118 6    -19910.089 6       180.816 6        40.782                  
 18  6  1 18 14 51.4628020  0  5G01G07G11G18G30                                 
  20737942.985 6    -89547.587 6       985.614 6        41.103                  
  21051943.685 7    131727.052 7     -1596.830 7        42.346                  
  20787112.469 6     35947.971 6      -458.462 6        41.735                  
  21468040.455 7     57391.249 7      -724.475 7        42.201                  
  20323015.958 7    -19928.238 7       182.366 7        43.652                  
 18  6  1 18 14 51.5628020  0  5G01G07G11G18G30                                 
  20737921.224 6    -89646.172 6       986.037 6        39.341                  
  21051975.562 7    131886.698 7     -1596.098 7        42.553                  
  20787118.200 6     35993.736 6      -456.740 6        40.414                  
  21468053.579 7     57463.653 7      -723.420 7        42.924                  
  20323014.655 7    -19946.468 7       182.485 7        44.454                  
 18  6  1 18 14 51.6628020  0  5G01G07G11G18G30                                 
  20737906.295 6    -89744.878 6       988.109 6        40.684                  
  21052013.774 7    132046.236 7     -1594.482 7        43.727                  
  20787140.293 6     36039.379 6      -455.648 6        41.407                  
  21468075.279 7     57535.939 7      -722.235 7        42.542                  
  20323022.103 7    -19964.809 7       184.219 7        44.122                  
 18  6  1 18 14 51.7628020  0  5G01G07G11G18G30                                 
  20737895.393 6    -89843.734 6       989.488 6        41.277                  
  21052048.896 7    132205.603 7     -1592.980 7        43.227                  
  20787152.076 6     36084.872 6      -454.845 6        39.769                  
  21468098.842 6     57608.075 6      -721.034 6        41.910                  
  20323026.731 7    -19983.313 7       185.459 7        44.089                  
 18  6  1 18 14 51.8628020  0  5G01G07G11G18G30                                 
  20737911.489 6    -89942.689 6       989.411 6        38.816                  
  21052112.483 7    132364.879 7     -1592.545 7        43.542                  
  20787198.676 6     36130.264 6      -453.402 6        40.568                  
  21468145.056 6     57680.121 6      -720.273 6        41.566                  
  20323057.045 7    -20001.901 7       186.512 7        42.300                  
 18  6  1 18 14 51.9628020  0  5G01G07G11G18G30                                 
  20737876.920 6    -90041.675 6       990.013 6        41.653                  
  21052132.632 7    132524.130 7     -1592.264 7        42.143                  
  20787197.478 7     36175.631 7      -453.496 7        43.687                  
  21468150.068 7     57752.133 7      -719.782 7        44.707                  
  20323042.800 7    -20020.522 7       185.906 7        44.401                  
 18  6  1 18 14 52.0628020  0  5G01G07G11G18G30                                 
  20737883.732 6    -90140.656 6       989.889 6        39.122                  
  21052190.327 6    132683.378 6     -1592.722 6        40.142                  
  20787235.769 6     36221.001 6      -453.767 6        40.552                  
  21468188.211 7     57824.140 7      -720.319 7        42.298                  
  20323062.108 7    -20039.149 7       186.226 7        45.927                  
 18  6  1 18 14 52.1628020  0  5G01G07G11G18G30                                 
  20737914.438 7    -90239.614 7       989.012 7        42.590                  
  21052263.483 7    132842.650 7     -1592.514 7        43.991                  
  20787285.034 7     36266.392 7      -454.290 7        42.949                  
  21468243.972 7     57896.166 7      -720.573 7        44.386                  
  20323102.710 7    -20057.739 7       186.081 7        44.918                  
 18  6  1 18 14 52.2628020  0  5G01G07G11G18G30                                 
  20737905.866 6    -90338.546 6       989.662 6        40.806                  
  21052310.707 6    133001.920 6     -1593.239 6        41.878                  
  20787303.306 6     36311.794 6      -453.873 6        41.726                  
  21468266.361 7     57968.214 7      -720.062 7        43.096                  
  20323109.301 7    -20076.345 7       185.700 7        42.127                  
 18  6  1 18 14 52.3628020  0  5G01G07G11G18G30                                 
  20737900.862 6    -90437.521 6       990.045 6        39.249                  
  21052348.943 6    133161.171 6     -1592.096 6        41.079                  
  20787319.792 7     36357.159 7      -453.081 7        44.140                  
  21468295.714 7     58040.231 7      -720.392 7        44.284                  
  20323114.571 7    -20094.952 7       186.429 7        42.464                  
 18  6  1 18 14 52.4628020  0  5G01G07G11G18G30                                 
  20737900.996 6    -90536.532 6       989.730 6        41.551                  
  21052398.572 7    133320.386 7     -1592.119 7        43.220                  
  20787342.876 6     36402.497 6      -453.773 6        41.084                  
  21468326.287 7     58112.224 7      -719.521 7        44.122                  
  20323128.789 7    -20113.600 7       186.529 7        42.740                  
 18  6  1 18 14 52.5628020  0  5G01G07G11G18G30                                 
  20737919.919 6    -90635.513 6       989.949 6        40.106                  
  21052464.229 7    133479.614 7     -1592.278 7        44.142                  
  20787391.921 6     36447.856 6      -453.460 6        40.787                  
  21468374.894 6     58184.218 6      -719.863 6        40.756                  
  20323161.445 7    -20132.236 7       185.986 7        43.189                  
 18  6  1 18 14 52.6628020  0  5G01G07G11G18G30                                 
  20737909.077 6    -90734.512 6       990.264 6        40.367                  
  21052500.506 7    133638.830 7     -1591.826 7        43.280                  
  20787410.854 7     36493.195 7      -453.044 7        42.757                  
  21468400.089 7     58256.210 7      -719.883 7        42.151                  
  20323170.645 7    -20150.876 7       187.283 7        43.315                  
 18  6  1 18 14 52.7628020  0  5G01G07G11G18G30                                 
  20737911.833 6    -90833.586 6       991.456 6        41.789                  
  21052554.177 6    133797.956 6     -1590.442 6        41.175                  
  20787445.091 6     36538.456 6      -451.698 6        40.965                  
  21468434.953 6     58328.121 6      -718.223 6        39.515                  
  20323187.980 7    -20169.597 7       187.451 7        42.402                  
 18  6  1 18 14 52.8628020  0  5G01G07G11G18G30                                 
  20737883.115 6    -90932.777 6       992.464 6        39.753                  
  21052575.949 6    133956.982 6     -1590.219 6        41.503                  
  20787441.200 7     36583.597 7      -451.090 7        42.004                  
  21468443.245 7     58399.927 7      -718.152 7        42.045                  
  20323180.392 6    -20188.434 6       188.989 6        41.796                  
 18  6  1 18 14 52.9628020  0  5G01G07G11G18G30                                 
  20737880.459 6    -91032.107 6       994.349 6        40.279                  
  21052625.193 6    134115.876 6     -1587.855 6        41.614                  
  20787470.634 6     36628.616 6      -449.975 6        41.517                  
  21468474.127 7     58471.585 7      -715.536 7        42.457                  
  20323188.486 7    -20207.407 7       190.322 7        42.905                  
 18  6  1 18 14 53.0628020  0  5G01G07G11G18G30                                 
  20737905.422 6    -91131.539 6       994.784 6        40.637                  
  21052694.138 6    134274.637 6     -1586.862 6        41.889                  
  20787521.814 7     36673.502 7      -447.801 7        44.582                  
  21468526.994 7     58543.137 7      -714.779 7        42.815                  
  20323229.284 7    -20226.487 7       191.297 7        44.067                  
 18  6  1 18 14 53.1628020  0  5G01G07G11G18G30                                 
  20737888.255 6    -91231.112 6       995.801 6        40.045                  
  21052730.802 6    134433.263 6     -1585.552 6        41.265                  
  20787533.477 7     36718.254 7      -446.905 7        43.670                  
  21468544.764 7     58614.546 7      -713.556 7        44.010                  
  20323223.990 7    -20245.715 7       193.218 7        42.227                  
 18  6  1 18 14 53.2628020  0  5G01G07G11G18G30                                 
  20737915.218 6    -91330.826 6       997.895 6        41.615                  
  21052801.807 6    134591.752 6     -1584.579 6        41.270                  
  20787584.703 7     36762.873 7      -445.444 7        44.114                  
  21468598.634 7     58685.826 7      -712.371 7        43.087                  
  20323264.565 7    -20265.079 7       193.982 7        42.409                  
 18  6  1 18 14 53.3628020  0  5G01G07G11G18G30                                 
  20737868.607 6    -91430.632 6       998.995 6        41.471                  
  21052810.087 6    134750.141 6     -1583.292 6        40.005                  
  20787565.184 7     36807.397 7      -444.569 7        42.838                  
  21468592.083 6     58757.011 6      -711.109 6        41.697                  
  20323240.099 7    -20284.537 7       195.118 7        43.731                  
 18  6  1 18 14 53.4628020  0  5G01G07G11G18G30                                 
  20737876.212 7    -91530.565 7       998.926 7        42.224                  
  21052864.449 6    134908.416 6     -1582.302 6        41.629                  
  20787594.744 6     36851.792 6      -443.939 6        40.949                  
  21468629.142 6     58828.071 6      -710.190 6        39.329                  
  20323262.536 7    -20304.114 7       196.615 7        44.426                  
 18  6  1 18 14 53.5628020  0  5G01G07G11G18G30                                 
  20737867.474 6    -91630.516 6       999.807 6        39.712                  
  21052902.384 7    135066.662 7     -1582.279 7        42.354                  
  20787612.037 7     36896.168 7      -443.404 7        42.999                  
  21468655.376 6     58899.089 6      -710.280 6        41.604                  
  20323267.710 6    -20323.728 6       196.065 6        41.684                  
 18  6  1 18 14 53.6628020  0  5G01G07G11G18G30                                 
  20737862.642 6    -91730.515 6      1000.813 6        41.754                  
  21052945.589 6    135224.854 6     -1581.720 6        40.677                  
  20787632.063 6     36940.498 6      -442.971 6        41.351                  
  21468683.670 7     58970.071 7      -709.225 7        43.981                  
  20323275.339 7    -20343.380 7       196.826 7        44.835                  
 18  6  1 18 14 53.7628020  0  5G01G07G11G18G30                                 
  20737879.586 6    -91830.591 6      1000.714 6        39.788                  
  21053013.198 7    135382.966 7     -1580.603 7        44.254                  
  20787679.140 7     36984.741 7      -442.408 7        42.579                  
  21468728.337 6     59040.979 6      -708.908 6        41.599                  
  20323313.279 7    -20363.111 7       197.559 7        44.020                  
 18  6  1 18 14 53.8628020  0  5G01G07G11G18G30                                 
  20737871.974 7    -91930.763 7      1002.144 7        42.068                  
  21053059.127 6    135540.990 6     -1579.931 6        41.909                  
  20787704.426 7     37028.898 7      -440.968 7        44.267                  
  21468754.712 6     59111.796 6      -707.021 6        41.145                  
  20323319.634 7    -20382.933 7       199.148 7        44.277                  
 18  6  1 18 14 53.9628020  0  5G01G07G11G18G30                                 
  20737859.226 6    -92031.055 6      1004.156 6        41.990                  
  21053096.811 7    135698.873 7     -1578.106 7        42.613                  
  20787724.089 7     37072.917 7      -439.067 7        42.907                  
  21468777.995 7     59182.470 7      -706.592 7        42.207                  
  20323325.739 7    -20402.885 7       199.934 7        43.703                  
 18  6  1 18 14 54.0628020  0  5G01G07G11G18G30                                 
  20737855.396 6    -92131.476 6      1004.844 6        39.158                  
  21053140.980 6    135856.631 6     -1576.626 6        40.702                  
  20787747.027 6     37116.805 6      -438.769 6        41.891                  
  21468807.839 7     59253.035 7      -705.121 7        43.018                  
  20323333.232 7    -20422.958 7       201.303 7        42.026                  
 18  6  1 18 15  0.1628020  0  5G01G07G11G18G30                                 
  20749263.386 6    -92232.110 6      1006.098 6        40.141                  
  21064594.414 7    136014.404 7     -1575.768 7        42.334                  
  20799177.193 7     37160.617 7      -436.907 7        43.513                  
  21480246.024 7     59323.531 7      -703.188 7        42.980                  
  20334752.416 7    -20443.188 7       202.694 7        42.505                  
 18  6  1 18 15  0.2628020  0  5G01G07G11G18G30                                 
  20749264.567 6    -92332.722 6      1007.419 6        40.931                  
  21064641.806 7    136171.755 7     -1574.225 7        42.460                  
  20799209.282 7     37204.213 7      -435.666 7        43.368                  
  21480281.165 6     59393.745 6      -702.393 6        40.842                  
  20334772.625 6    -20463.513 6       204.093 6        40.868                  
 18  6  1 18 15  0.3628020  0  5G01G07G11G18G30                                 
  20749287.065 6    -92433.510 6      1008.410 6        41.067                  
  21064713.126 7    136329.153 7     -1573.636 7        43.098                  
  20799254.983 6     37247.740 6      -434.956 6        41.798                  
  21480329.341 6     59463.947 6      -701.610 6        41.074                  
  20334805.709 6    -20483.954 6       204.942 6        41.797                  
 18  6  1 18 15  0.4628020  0  5G01G07G11G18G30                                 
  20749255.201 6    -92534.403 6      1009.024 6        40.749                  
  21064734.112 7    136486.434 7     -1572.464 7        42.401                  
  20799252.848 6     37291.155 6      -433.302 6        41.203                  
  21480335.718 6     59534.027 6      -700.236 6        40.985                  
  20334796.441 7    -20504.508 7       205.941 7        42.730                  
 18  6  1 18 15  0.5628020  0  5G01G07G11G18G30                                 
  20749211.017 6    -92635.346 6      1009.818 6        41.256                  
  21064745.601 7    136643.667 7     -1572.206 7        43.305                  
  20799238.876 6     37334.523 6      -433.989 6        41.069                  
  21480332.177 7     59604.057 7      -700.510 7        42.791                  
  20334769.172 7    -20525.125 7       206.375 7        45.792                  
 18  6  1 18 15  0.6628020  0  5G01G07G11G18G30                                 
  20749253.601 6    -92736.281 6      1009.319 6        41.287                  
  21064830.689 6    136800.891 6     -1572.352 6        41.796                  
  20799301.403 7     37377.897 7      -433.621 7        42.487                  
  21480397.438 6     59674.087 6      -699.975 6        41.578                  
  20334820.653 7    -20545.730 7       205.861 7        43.530                  
 18  6  1 18 15  0.7628020  0  5G01G07G11G18G30                                 
  20749289.829 6    -92837.232 6      1009.341 6        40.990                  
  21064908.944 6    136958.127 6     -1572.292 6        41.717                  
  20799362.627 7     37421.259 7      -433.513 7        42.504                  
  21480460.186 6     59744.115 6      -700.631 6        41.295                  
  20334862.269 7    -20566.336 7       206.108 7        43.642                  
 18  6  1 18 15  0.8628020  0  5G01G07G11G18G30                                 
  20749279.648 7    -92938.161 7      1009.311 7        42.918                  
  21064947.351 6    137115.365 6     -1572.491 6        40.292                  
  20799382.985 7     37464.633 7      -434.016 7        44.335                  
  21480485.407 6     59814.155 6      -700.598 6        40.739                  
  20334872.345 7    -20586.929 7       205.796 7        43.329                  
 18  6  1 18 15  0.9628020  0  5G01G07G11G18G30                                 
  20749287.317 6    -93039.029 6      1007.978 6        41.400                  
  21065006.592 7    137272.648 7     -1573.441 7        42.443                  
  20799420.932 6     37508.068 6      -434.830 6        41.177                  
  21480523.285 7     59884.251 7      -701.568 7        42.225                  
  20334893.829 7    -20607.481 7       204.800 7        43.869                  
 18  6  1 18 15  1.0628020  0  5G01G07G11G18G30                                 
  20749264.948 6    -93139.804 6      1007.913 6        39.794                  
  21065039.858 6    137430.032 6     -1574.321 6        40.373                  
  20799428.972 7     37551.593 7      -435.495 7        42.974                  
  21480535.957 6     59954.457 6      -702.050 6        41.792                  
  20334892.644 7    -20627.906 7       203.932 7        42.991                  
 18  6  1 18 15  1.1628020  0  5G01G07G11G18G30                                 
  20749227.302 6    -93240.553 6      1007.108 6        39.288                  
  21065054.470 6    137587.457 6     -1574.131 6        41.181                  
  20799417.761 6     37595.153 6      -435.806 6        41.188                  
  21480537.368 7     60024.693 7      -702.775 7        42.850                  
  20334874.423 6    -20648.316 6       204.100 6        41.603                  
 18  6  1 18 15  1.2628020  0  5G01G07G11G18G30                                 
  20749280.581 6    -93341.213 6      1005.387 6        40.951                  
  21065149.750 7    137744.958 7     -1576.011 7        42.816                  
  20799496.974 7     37638.786 7      -437.085 7        42.197                  
  21480612.649 6     60095.008 6      -703.511 6        41.815                  
  20334940.899 7    -20668.641 7       202.560 7        43.413                  
 18  6  1 18 15  1.3628020  0  5G01G07G11G18G30                                 
  20749252.629 6    -93441.751 6      1005.497 6        39.498                  
  21065174.288 6    137902.576 6     -1575.796 6        41.144                  
  20799495.621 7     37682.550 7      -437.854 7        43.747                  
  21480621.773 7     60165.432 7      -704.858 7        42.576                  
  20334927.770 6    -20688.851 6       201.723 6        41.954                  
 18  6  1 18 15  1.4628020  0  5G01G07G11G18G30                                 
  20749253.358 6    -93542.271 6      1004.821 6        40.769                  
  21065226.115 6    138060.217 6     -1576.705 6        41.011                  
  20799529.945 6     37726.336 6      -437.998 6        41.598                  
  21480655.707 6     60235.890 6      -704.432 6        40.832                  
  20334942.990 7    -20709.028 7       201.836 7        42.978                  
 18  6  1 18 15  1.5628020  0  5G01G07G11G18G30                                 
  20749232.472 6    -93642.733 6      1004.257 6        40.872                  
  21065260.374 6    138217.904 6     -1577.482 6        40.686                  
  20799536.066 7     37770.174 7      -438.836 7        45.108                  
  21480669.017 7     60306.400 7      -705.267 7        44.319                  
  20334938.052 7    -20729.155 7       200.906 7        43.978                  
 18  6  1 18 15  1.6628020  0  5G01G07G11G18G30                                 
  20749197.789 6    -93743.150 6      1004.664 6        39.506                  
  21065276.679 7    138375.635 7     -1577.090 7        43.155                  
  20799527.143 7     37814.049 7      -438.707 7        43.044                  
  21480673.148 6     60376.945 6      -705.389 6        41.378                  
  20334921.310 7    -20749.249 7       200.951 7        43.293                  
 18  6  1 18 15  1.7628020  0  5G01G07G11G18G30                                 
  20749247.826 7    -93843.594 7      1004.432 7        42.521                  
  21065360.255 7    138533.349 7     -1576.941 7        43.654                  
  20799599.158 7     37857.909 7      -438.239 7        44.308                  
  21480748.688 7     60447.467 7      -705.236 7        44.830                  
  20334981.678 7    -20769.352 7       201.472 7        42.135                  
 18  6  1 18 15  1.8628020  0  5G01G07G11G18G30                                 
  20749253.337 6    -93944.132 6      1006.212 6        41.338                  
  21065417.533 7    138690.957 7     -1575.470 7        42.167                  
  20799629.873 7     37901.662 7      -436.732 7        42.839                  
  21480783.148 7     60517.901 7      -703.504 7        43.327                  
  20335000.210 7    -20789.560 7       202.698 7        44.642                  
 18  6  1 18 15  1.9628020  0  5G01G07G11G18G30                                 
  20749241.301 7    -94044.808 7      1007.256 7        42.462                  
  21065452.691 7    138848.417 7     -1573.826 7        42.388                  
  20799648.999 6     37945.269 6      -435.679 6        41.479                  
  21480808.222 7     60588.184 7      -702.401 7        43.713                  
  20335003.958 7    -20809.913 7       204.342 7        43.863                  
 18  6  1 18 15  2.0628020  0  5G01G07G11G18G30                                 
  20749220.223 6    -94145.555 6      1007.107 6        40.002                  
  21065482.475 6    139005.815 6     -1574.405 6        41.016                  
  20799657.732 6     37988.832 6      -435.953 6        40.702                  
  21480823.921 6     60658.411 6      -702.380 6        41.453                  
  20335003.026 7    -20830.329 7       203.508 7        43.865                  
 18  6  1 18 15  2.1628020  0  5G01G07G11G18G30                                 
  20749226.145 7    -94246.198 7      1006.244 7        42.727                  
  21065540.318 6    139163.311 6     -1575.091 6        41.955                  
  20799691.242 7     38032.477 7      -436.635 7        42.133                  
  21480859.075 7     60728.737 7      -703.802 7        42.981                  
  20335026.124 7    -20850.645 7       202.650 7        43.133                  
 18  6  1 18 15  2.2628020  0  5G01G07G11G18G30                                 
  20749239.693 6    -94346.744 6      1005.265 6        40.422                  
  21065599.724 7    139320.904 7     -1576.588 7        42.509                  
  20799724.843 7     38076.215 7      -437.828 7        42.331                  
  21480900.804 7     60799.153 7      -704.399 7        43.147                  
  20335049.347 6    -20870.864 6       202.279 6        41.471                  
 18  6  1 18 15  2.3628020  0  5G01G07G11G18G30                                 
  20749215.447 6    -94447.234 6      1004.484 6        40.473                  
  21065632.153 6    139478.552 6     -1576.412 6        41.206                  
  20799732.820 6     38120.009 6      -438.106 6        40.868                  
  21480912.268 7     60869.624 7      -704.853 7        43.216                  
  20335045.750 7    -20891.032 7       201.040 7        43.734                  
 18  6  1 18 15  2.4628020  0  5G01G07G11G18G30                                 
  20749205.654 6    -94547.687 6      1003.861 6        41.903                  
  21065674.007 7    139636.227 7     -1577.012 7        42.948                  
  20799756.688 6     38163.828 6      -438.460 6        39.635                  
  21480937.885 6     60940.115 6      -705.152 6        41.484                  
  20335051.849 7    -20911.166 7       201.046 7        43.076                  
 18  6  1 18 15  2.5628020  0  5G01G07G11G18G30                                 
  20749280.405 6    -94648.108 6      1004.623 6        41.762                  
  21065780.369 6    139793.952 6     -1577.340 6        41.380                  
  20799844.234 7     38207.722 7      -438.915 7        42.305                  
  21481030.012 6     61010.686 6      -706.117 6        41.057                  
  20335134.629 7    -20931.245 7       200.829 7        45.190                  
 18  6  1 18 15  2.6628020  0  5G01G07G11G18G30                                 
  20749249.673 6    -94748.524 6      1004.278 6        41.100                  
  21065805.520 7    139951.664 7     -1577.052 7        42.332                  
  20799847.382 6     38251.579 6      -438.320 6        40.770                  
  21481038.234 6     61081.229 6      -705.308 6        40.052                  
  20335116.549 7    -20951.344 7       201.239 7        44.591                  
 18  6  1 18 15  2.7628020  0  5G01G07G11G18G30                                 
  20749215.269 6    -94848.998 6      1005.240 6        40.505                  
  21065830.708 6    140109.315 6     -1576.193 6        41.221                  
  20799852.187 7     38295.380 7      -437.580 7        42.345                  
  21481042.931 7     61151.713 7      -704.103 7        42.484                  
  20335104.902 6    -20971.505 6       202.084 6        41.909                  
 18  6  1 18 15  2.8628020  0  5G01G07G11G18G30                                 
  20749225.375 6    -94949.572 6      1006.421 6        40.033                  
  21065886.113 7    140266.866 7     -1574.450 7        42.113                  
  20799885.958 7     38339.086 7      -436.450 7        42.538                  
  21481083.598 7     61222.109 7      -703.194 7        43.354                  
  20335124.349 7    -20991.764 7       202.942 7        44.185                  
 18  6  1 18 15  2.9628020  0  5G01G07G11G18G30                                 
  20749202.041 6    -95050.317 6      1007.966 6        41.230                  
  21065913.229 7    140424.251 7     -1572.745 7        42.664                  
  20799889.509 7     38382.631 7      -434.537 7        42.728                  
  21481096.500 7     61292.320 7      -701.365 7        43.793                  
  20335123.998 7    -21012.175 7       205.081 7        43.219                  
 18  6  1 18 15  3.0628020  0  5G01G07G11G18G30                                 
  20749188.960 6    -95151.206 6      1009.663 6        41.703                  
  21065948.133 6    140581.485 6     -1572.068 6        40.499                  
  20799898.612 6     38426.009 6      -433.245 6        41.866                  
  21481117.528 7     61362.398 7      -700.240 7        44.412                  
  20335124.196 6    -21032.746 6       206.545 6        41.601                  
 18  6  1 18 15  3.1628020  0  5G01G07G11G18G30                                 
  20749179.310 6    -95252.221 6      1011.066 6        39.699                  
  21065990.819 6    140738.588 6     -1570.282 6        40.728                  
  20799920.791 6     38469.270 6      -431.698 6        41.292                  
  21481142.225 7     61432.341 7      -698.495 7        43.795                  
  20335131.290 6    -21053.449 6       207.816 6        41.306                  
 18  6  1 18 15  3.2628020  0  5G01G07G11G18G30                                 
  20749173.362 6    -95353.422 6      1012.785 6        40.167                  
  21066036.792 7    140895.505 7     -1568.332 7        43.002                  
  20799934.473 6     38512.344 6      -430.124 6        41.530                  
  21481165.634 6     61502.096 6      -696.948 6        41.432                  
  20335142.420 6    -21074.319 6       209.554 6        41.523                  
 18  6  1 18 15  3.3628020  0  5G01G07G11G18G30                                 
  20749194.487 6    -95454.762 6      1013.936 6        37.738                  
  21066103.778 6    141052.278 6     -1567.220 6        39.916                  
  20799980.805 6     38555.281 6      -428.701 6        41.622                  
  21481214.608 7     61571.717 7      -695.785 7        42.383                  
  20335176.352 7    -21095.344 7       210.731 7        42.655                  
 18  6  1 18 15  3.4628020  0  5G01G07G11G18G30                                 
  20749173.664 6    -95556.221 6      1015.403 6        40.444                  
  21066129.740 6    141208.942 6     -1565.978 6        39.700                  
  20799997.710 6     38598.095 6      -426.945 6        40.820                  
  21481235.155 7     61641.221 7      -693.707 7        42.453                  
  20335175.127 7    -21116.488 7       212.131 7        44.694                  
 18  6  1 18 15  3.5628020  0  5G01G07G11G18G30                                 
  20749159.918 6    -95657.874 6      1017.534 6        40.880                  
  21066165.071 7    141365.404 7     -1563.508 7        42.278                  
  20800015.501 6     38640.715 6      -425.453 6        40.424                  
  21481257.450 6     61710.522 6      -692.458 6        40.681                  
  20335185.516 7    -21137.823 7       214.297 7        43.592                  
 18  6  1 18 15  3.6628020  0  5G01G07G11G18G30                                 
  20749147.992 6    -95759.707 6      1018.991 6        38.999                  
  21066207.639 7    141521.686 7     -1561.774 7        43.312                  
  20800030.061 6     38683.164 6      -423.395 6        41.440                  
  21481278.444 7     61779.656 7      -689.992 7        44.479                  
  20335180.973 6    -21159.334 6       216.358 6        41.953                  
 18  6  1 18 15  3.7628020  0  5G01G07G11G18G30                                 
  20749190.926 6    -95861.738 6      1021.469 6        41.010                  
  21066291.987 6    141677.755 6     -1559.998 6        39.485                  
  20800098.305 7     38725.387 7      -421.643 7        42.469                  
  21481345.935 7     61848.573 7      -688.869 7        42.359                  
  20335237.108 7    -21181.053 7       217.641 7        42.956                  
 18  6  1 18 15  3.8628020  0  5G01G07G11G18G30                                 
  20749237.043 7    -95963.881 7      1021.525 7        42.075                  
  21066379.938 7    141833.727 7     -1559.242 7        42.565                  
  20800165.205 7     38767.512 7      -420.988 7        44.348                  
  21481414.822 7     61917.383 7      -687.904 7        43.129                  
  20335288.185 7    -21202.880 7       219.057 7        43.704                  
 18  6  1 18 15  3.9628020  0  5G01G07G11G18G30                                 
  20749216.907 6    -96066.119 6      1023.253 6        41.702                  
  21066410.605 7    141989.592 7     -1558.379 7        43.432                  
  20800173.400 6     38809.548 6      -419.705 6        41.173                  
  21481431.014 7     61986.110 7      -686.332 7        42.672                  
  20335285.298 7    -21224.800 7       219.378 7        42.793                  
 18  6  1 18 15  4.0628020  0  5G01G07G11G18G30                                 
  20749203.143 6    -96168.437 6      1023.197 6        41.323                  
  21066450.046 7    142145.376 7     -1557.203 7        43.141                  
  20800189.212 6     38851.499 6      -419.459 6        41.271                  
  21481451.072 7     62054.737 7      -686.195 7        43.095                  
  20335292.088 6    -21246.799 6       220.325 6        41.579                  
 18  6  1 18 15  4.1628020  0  5G01G07G11G18G30                                 
  20749218.772 6    -96270.843 6      1024.903 6        41.024                  
  21066512.784 7    142301.065 7     -1556.116 7        43.855                  
  20800226.618 6     38893.339 6      -417.507 6        39.145                  
  21481494.334 7     62123.274 7      -684.312 7        42.756                  
  20335318.268 7    -21268.894 7       221.716 7        43.674                  
 18  6  1 18 15  4.2628020  0  5G01G07G11G18G30                                 
  20749169.442 6    -96373.362 6      1025.726 6        40.199                  
  21066518.978 7    142456.640 7     -1555.537 7        44.222                  
  20800208.884 7     38935.090 7      -416.645 7        43.599                  
  21481487.153 7     62191.701 7      -683.856 7        43.011                  
  20335289.255 7    -21291.105 7       222.513 7        43.384                  
 18  6  1 18 15  4.3628020  0  5G01G07G11G18G30                                 
  20749160.825 6    -96475.979 6      1026.238 6        41.187                  
  21066558.901 7    142612.120 7     -1554.190 7        42.102                  
  20800227.881 6     38976.721 6      -416.633 6        40.772                  
  21481512.967 7     62260.038 7      -682.905 7        42.806                  
  20335296.484 7    -21313.418 7       223.704 7        42.466                  
 18  6  1 18 15  4.4628020  0  5G01G07G11G18G30                                 
  20749165.193 6    -96578.659 6      1027.372 6        41.803                  
  21066611.956 7    142767.538 7     -1554.510 7        43.560                  
  20800265.515 6     39018.304 6      -415.460 6        40.369                  
  21481550.333 7     62328.318 7      -683.026 7        43.330                  
  20335318.583 7    -21335.789 7       223.446 7        43.882                  
 18  6  1 18 15  4.5628020  0  5G01G07G11G18G30                                 
  20749181.483 6    -96681.307 6      1025.341 6        41.336                  
  21066675.093 7    142922.984 7     -1554.668 7        43.144                  
  20800306.746 6     39059.918 6      -416.892 6        41.475                  
  21481595.069 7     62396.616 7      -683.144 7        42.705                  
  20335348.103 7    -21358.116 7       222.791 7        42.429                  
 18  6  1 18 15  4.6628020  0  5G01G07G11G18G30                                 
  20749182.665 6    -96783.822 6      1024.402 6        39.168                  
  21066727.097 7    143078.555 7     -1556.703 7        43.491                  
  20800331.511 6     39101.654 6      -417.937 6        41.560                  
  21481626.239 7     62465.051 7      -685.194 7        43.353                  
  20335361.027 7    -21380.336 7       221.450 7        43.323                  
 18  6  1 18 15  4.7628020  0  5G01G07G11G18G30                                 
  20749188.081 6    -96886.180 6      1023.040 6        39.963                  
  21066781.229 7    143234.290 7     -1557.826 7        42.763                  
  20800361.867 7     39143.561 7      -419.501 7        43.087                  
  21481662.116 6     62533.641 6      -686.897 6        41.699                  
  20335377.323 7    -21402.379 7       219.816 7        44.438                  
 18  6  1 18 15  4.8628020  0  5G01G07G11G18G30                                 
  20749180.898 6    -96988.394 6      1021.109 6        41.397                  
  21066823.964 6    143390.158 6     -1559.608 6        41.582                  
  20800390.265 6     39185.581 6      -421.315 6        40.525                  
  21481690.904 7     62602.376 7      -688.066 7        42.087                  
  20335388.790 7    -21424.288 7       218.084 7        44.595                  
 18  6  1 18 15  4.9628020  0  5G01G07G11G18G30                                 
  20749139.934 6    -97090.499 6      1020.842 6        41.600                  
  21066834.499 7    143546.144 7     -1560.107 7        42.002                  
  20800376.174 6     39227.737 6      -421.749 6        40.892                  
  21481690.208 7     62671.211 7      -688.613 7        43.016                  
  20335368.466 7    -21446.087 7       217.830 7        42.451                  
 18  6  1 18 15  5.0628020  0  5G01G07G11G18G30                                 
  20749143.972 6    -97192.550 6      1020.491 6        40.365                  
  21066887.029 7    143702.186 7     -1560.247 7        42.553                  
  20800407.316 6     39269.946 6      -422.082 6        38.466                  
  21481725.689 7     62740.122 7      -688.926 7        42.337                  
  20335385.651 7    -21467.820 7       217.142 7        45.067                  
 18  6  1 18 15  5.1628020  0  5G01G07G11G18G30                                 
  20749156.997 6    -97294.592 6      1020.904 6        41.253                  
  21066948.021 6    143858.218 6     -1560.288 6        41.798                  
  20800446.350 6     39312.156 6      -421.845 6        41.243                  
  21481767.762 7     62809.017 7      -688.938 7        43.408                  
  20335412.544 7    -21489.562 7       218.220 7        42.799                  
 18  6  1 18 15  5.2628020  0  5G01G07G11G18G30                                 
  20749161.993 6    -97396.736 6      1022.013 6        40.832                  
  21067002.798 7    144014.140 7     -1558.687 7        43.404                  
  20800477.174 7     39354.247 7      -420.321 7        42.144                  
  21481803.201 6     62877.810 6      -687.209 6        41.316                  
  20335427.850 7    -21511.415 7       218.634 7        43.791                  
 18  6  1 18 15  5.3628020  0  5G01G07G11G18G30                                 
  20749145.654 6    -97499.001 6      1023.299 6        41.003                  
  21067037.470 7    144169.956 7     -1557.653 7        42.361                  
  20800489.967 7     39396.235 7      -419.336 7        42.044                  
  21481821.836 7     62946.487 7      -686.744 7        42.952                  
  20335435.508 7    -21533.370 7       220.455 7        42.141                  
 18  6  1 18 15  5.4628020  0  5G01G07G11G18G30                                 
  20749141.292 6    -97601.344 6      1023.757 6        41.388                  
  21067083.405 7    144325.683 7     -1556.495 7        42.498                  
  20800510.204 6     39438.123 6      -418.423 6        41.822                  
  21481849.088 7     63015.083 7      -685.210 7        43.533                  
  20335446.340 7    -21555.429 7       221.168 7        42.720                  
 18  6  1 18 15  5.5628020  0  5G01G07G11G18G30                                 
  20749143.939 7    -97703.791 7      1024.845 7        42.298                  
  21067135.275 6    144481.311 6     -1555.923 6        40.716                  
  20800542.185 7     39479.925 7      -417.573 7        42.400                  
  21481883.947 6     63083.589 6      -684.355 6        41.805                  
  20335462.284 7    -21577.555 7       221.382 7        44.833                  
 18  6  1 18 15  5.6628020  0  5G01G07G11G18G30                                 
  20749145.180 7    -97806.319 7      1025.763 7        43.886                  
  21067183.574 7    144636.868 7     -1555.104 7        42.502                  
  20800574.201 6     39521.634 6      -417.018 6        38.728                  
  21481919.090 7     63152.009 7      -684.275 7        43.189                  
  20335478.277 7    -21599.782 7       222.641 7        43.254                  
 18  6  1 18 15  5.7628020  0  5G01G07G11G18G30                                 
  20749170.427 6    -97908.848 6      1025.251 6        41.030                  
  21067253.785 7    144792.389 7     -1555.297 7        42.551                  
  20800623.215 7     39563.341 7      -416.725 7        42.082                  
  21481971.127 6     63220.400 6      -684.175 6        41.858                  
  20335515.891 7    -21622.020 7       222.456 7        42.969                  
 18  6  1 18 15  5.8628020  0  5G01G07G11G18G30                                 
  20749144.332 6    -98011.434 6      1026.297 6        41.385                  
  21067282.838 7    144947.884 7     -1554.619 7        42.187                  
  20800629.372 6     39605.009 6      -415.986 6        41.703                  
  21481982.183 7     63288.776 7      -682.571 7        44.715                  
  20335507.344 7    -21644.302 7       223.203 7        42.050                  
 18  6  1 18 15  5.9628020  0  5G01G07G11G18G30                                 
  20749112.579 6    -98114.170 6      1028.266 6        40.684                  
  21067304.339 7    145103.189 7     -1552.182 7        42.916                  
  20800623.695 6     39646.501 6      -414.346 6        40.149                  
  21481987.958 7     63356.964 7      -681.170 7        43.874                  
  20335490.013 7    -21666.754 7       225.763 7        42.368                  
 18  6  1 18 15  6.0628020  0  5G01G07G11G18G30                                 
  20749085.508 6    -98217.091 6      1029.876 6        39.817                  
  21067327.290 7    145258.345 7     -1550.638 7        43.126                  
  20800619.882 7     39687.824 7      -412.501 7        42.451                  
  21481997.495 7     63424.995 7      -679.309 7        42.122                  
  20335480.265 6    -21689.366 6       226.610 6        39.928                  
 18  6  1 18 15  6.1628020  0  5G01G07G11G18G30                                 
  20749113.012 7    -98320.159 7      1031.425 7        43.035                  
  21067399.538 6    145413.353 6     -1549.250 6        41.942                  
  20800672.520 7     39728.999 7      -411.146 7        42.923                  
  21482051.699 6     63492.871 6      -678.192 6        41.289                  
  20335521.406 6    -21712.129 6       228.082 6        41.522                  
 18  6  1 18 15  6.2628020  0  5G01G07G11G18G30                                 
  20749110.369 6    -98423.320 6      1032.135 6        41.387                  
  21067448.057 6    145568.231 6     -1548.054 6        41.377                  
  20800699.398 7     39770.047 7      -409.976 7        43.227                  
  21482081.494 7     63560.628 7      -677.084 7        43.499                  
  20335534.778 7    -21735.006 7       229.744 7        43.792                  
 18  6  1 18 15  6.3628020  0  5G01G07G11G18G30                                 
  20749126.889 6    -98526.632 6      1033.792 6        40.985                  
  21067510.757 7    145722.979 7     -1547.175 7        42.172                  
  20800744.411 6     39810.978 6      -408.281 6        40.987                  
  21482127.340 6     63628.266 6      -675.616 6        40.486                  
  20335571.094 6    -21758.017 6       230.654 6        41.850                  
 18  6  1 18 15  6.4628020  0  5G01G07G11G18G30                                 
  20749147.647 6    -98630.082 6      1035.463 6        41.037                  
  21067576.517 7    145877.574 7     -1545.203 7        43.920                  
  20800791.715 7     39851.757 7      -407.398 7        42.405                  
  21482177.109 7     63695.744 7      -674.269 7        43.547                  
  20335602.246 6    -21781.177 6       232.260 6        41.201                  
 18  6  1 18 15  6.5628020  0  5G01G07G11G18G30                                 
  20749153.362 6    -98733.608 6      1035.414 6        41.044                  
  21067631.303 6    146032.109 6     -1545.351 6        41.642                  
  20800826.244 6     39892.473 6      -406.657 6        41.921                  
  21482214.016 7     63763.167 7      -674.145 7        42.558                  
  20335623.021 7    -21804.407 7       232.045 7        44.083                  
 18  6  1 18 15  6.6628020  0  5G01G07G11G18G30                                 
  20749152.789 6    -98837.103 6      1034.636 6        40.551                  
  21067677.734 6    146186.655 6     -1545.577 6        40.907                  
  20800850.014 6     39933.195 6      -407.961 6        40.216                  
  21482245.708 7     63830.603 7      -674.825 7        43.767                  
  20335635.776 7    -21827.610 7       231.880 7        43.550                  
 18  6  1 18 15  6.7628020  0  5G01G07G11G18G30                                 
  20749125.045 5    -98940.436 5      1029.082 5        31.066                  
  21067701.703 4    146341.188 4     -1550.893 4        27.845                  
  20800853.728 4     39974.647 4      -430.607 4        29.580                  
  21482256.874 5     63898.310 5      -683.722 5        30.269                  
  20335624.748 4    -21850.082 4       208.030 4        27.524                  
 18  6  1 18 15  6.8628020  0  5G01G07G11G18G30                                 
  20749133.814 4    -99041.085 4       974.077 4        27.391                  
  21067759.050 4    146498.530 4     -1605.309 4        28.944                  
  20800887.930 4     40019.869 4      -472.105 4        27.866                  
  21482295.383 4     63968.818 4      -733.601 4        27.494                  
  20335645.933 4    -21867.039 4       118.814 4        26.668                  
 18  6  1 18 15  6.9628020  0  5G01G07G11G18G30                                 
  20749132.006 6    -99133.809 6       878.199 6        37.844                  
  21067807.020 7    146665.070 7     -1718.893 7        43.740                  
  20800910.196 6     40071.905 6      -572.393 6        40.184                  
  21482324.661 6     64047.823 6      -844.741 6        41.140                  
  20335658.907 6    -21874.082 6        46.706 6        41.011                  
 18  6  1 18 15  7.0628020  0  5G01G07G11G18G30                                 
  20749125.834 7    -99219.410 7       850.088 7        43.056                  
  21067851.134 7    146838.035 7     -1730.001 7        43.683                  
  20800933.550 7     40130.801 7      -592.198 7        42.531                  
  21482352.109 7     64133.614 7      -858.904 7        42.799                  
  20335669.593 6    -21878.826 6        47.685 6        41.957                  
 18  6  1 18 15  7.1628020  0  5G01G07G11G18G30                                 
  20749137.619 7    -99304.473 7       850.970 7        42.342                  
  21067913.485 6    147011.013 6     -1729.527 6        41.008                  
  20800976.708 7     40189.973 7      -591.363 7        43.330                  
  21482393.680 6     64219.494 6      -858.919 6        39.828                  
  20335697.943 7    -21883.589 7        47.742 7        42.036                  
 18  6  1 18 15  7.2628020  0  5G01G07G11G18G30                                 
  20749126.477 6    -99389.564 6       850.471 6        41.642                  
  21067952.656 7    147183.961 7     -1729.553 7        42.273                  
  20800996.895 7     40249.117 7      -591.703 7        42.291                  
  21482417.710 7     64305.355 7      -858.662 7        42.194                  
  20335706.614 7    -21888.378 7        47.642 7        44.009                  
 18  6  1 18 15  7.9628020  0  5G01G07G11G18G30                                 
  20749115.422 6   -100027.289 6       829.013 6        40.226                  
  21068282.698 7    148480.113 7     -1728.954 7        42.397                  
  20801171.415 6     40692.245 6      -581.669 6        40.848                  
  21482633.409 7     64948.738 7      -864.840 7        42.620                  
  20335795.795 7    -21924.400 7        38.160 7        43.211                  
 18  6  1 18 15  8.0628020  0  5G01G07G11G18G30                                 
  20749114.596 6   -100070.285 6       851.237 6        40.384                  
  21068332.037 7    148567.438 7     -1728.524 7        44.465                  
  20801200.124 6     40722.081 6      -590.400 6        39.630                  
  21482664.813 6     64992.061 6      -857.959 6        40.876                  
  20335813.405 7    -21926.835 7        48.705 7        43.936                  
 18  6  1 18 15  8.1628020  0  5G01G07G11G18G30                                 
  20749104.233 6   -100155.414 6       851.354 6        41.268                  
  21068370.333 7    148740.344 7     -1729.571 7        42.730                  
  20801214.719 7     40781.173 7      -591.406 7        42.504                  
  21482688.200 6     65077.866 6      -858.281 6        40.917                  
  20335820.408 6    -21931.682 6        47.861 6        41.034                  
 18  6  1 18 15  8.2628020  0  5G01G07G11G18G30                                 
  20749088.971 7   -100240.477 7       849.825 7        42.064                  
  21068402.787 7    148913.296 7     -1730.034 7        42.615                  
  20801227.904 6     40840.305 6      -591.939 6        41.000                  
  21482709.554 7     65163.732 7      -858.880 7        42.827                  
  20335822.095 7    -21936.462 7        47.279 7        43.062                  
 18  6  1 18 15  8.3628020  0  5G01G07G11G18G30                                 
  20749069.384 7   -100325.482 7       850.256 7        42.876                  
  21068435.382 7    149086.303 7     -1729.804 7        43.518                  
  20801240.845 7     40899.514 7      -591.555 7        42.870                  
  21482727.483 7     65249.645 7      -858.871 7        43.235                  
  20335814.492 7    -21941.185 7        47.395 7        43.424                  
 18  6  1 18 15  8.4628020  0  5G01G07G11G18G30                                 
  20749108.868 6   -100410.535 6       850.692 6        39.426                  
  21068521.688 7    149259.270 7     -1729.770 7        44.981                  
  20801306.771 7     40958.671 7      -591.626 7        43.400                  
  21482790.786 6     65335.523 6      -858.757 6        41.529                  
  20335861.830 6    -21945.952 6        47.899 6        41.704                  
 18  6  1 18 15  8.5628020  0  5G01G07G11G18G30                                 
  20749146.306 6   -100495.592 6       850.735 6        40.401                  
  21068601.542 7    149432.221 7     -1729.659 7        43.551                  
  20801365.508 6     41017.803 6      -591.308 6        41.800                  
  21482852.655 7     65421.392 7      -858.922 7        42.798                  
  20335908.209 6    -21950.731 6        47.672 6        41.508                  
 18  6  1 18 15  8.6628020  0  5G01G07G11G18G30                                 
  20749156.349 7   -100580.609 7       849.874 7        42.208                  
  21068660.993 7    149605.208 7     -1729.652 7        44.372                  
  20801408.366 7     41076.997 7      -592.194 7        43.838                  
  21482893.837 6     65507.300 6      -859.246 6        41.455                  
  20335935.828 7    -21955.471 7        47.132 7        42.862                  
 18  6  1 18 15  8.7628020  0  5G01G07G11G18G30                                 
  20749138.374 7   -100665.558 7       849.041 7        42.816                  
  21068692.116 7    149778.281 7     -1731.478 7        42.245                  
  20801417.612 6     41136.250 6      -593.052 6        41.949                  
  21482911.730 7     65593.283 7      -860.054 7        43.637                  
  20335938.731 7    -21960.136 7        46.003 7        44.209                  
 18  6  1 18 15  8.8628020  0  5G01G07G11G18G30                                 
  20749115.319 6   -100750.410 6       848.154 6        39.538                  
  21068720.225 7    149951.429 7     -1731.703 7        44.304                  
  20801420.551 6     41195.591 6      -593.905 6        41.157                  
  21482924.550 7     65679.353 7      -861.281 7        43.075                  
  20335935.167 7    -21964.714 7        45.530 7        42.306                  
 18  6  1 18 15  8.9628020  0  5G01G07G11G18G30                                 
  20749095.910 7   -100835.211 7       847.617 7        42.253                  
  21068750.798 7    150124.623 7     -1732.154 7        43.894                  
  20801425.281 7     41254.980 7      -593.548 7        44.782                  
  21482940.335 6     65765.463 6      -860.974 6        41.709                  
  20335931.798 7    -21969.253 7        45.465 7        44.208                  
 18  6  1 18 15  9.0628020  0  5G01G07G11G18G30                                 
  20749050.895 6   -100920.039 6       848.840 6        39.084                  
  21068759.519 7    150297.796 7     -1731.272 7        42.378                  
  20801410.460 6     41314.344 6      -593.737 6        41.008                  
  21482936.990 6     65851.554 6      -860.834 6        41.948                  
  20335904.609 6    -21973.809 6        45.770 6        41.955                  
 18  6  1 18 15  9.1628020  0  5G01G07G11G18G30                                 
  20749063.171 6   -101004.928 6       849.017 6        41.629                  
  21068819.868 7    150470.910 7     -1730.943 7        43.114                  
  20801447.233 7     41373.657 7      -593.105 7        42.762                  
  21482977.819 6     65937.591 6      -860.181 6        41.092                  
  20335931.925 7    -21978.417 7        46.731 7        42.504                  
 18  6  1 18 15  9.2628020  0  5G01G07G11G18G30                                 
  20749060.327 7   -101089.853 7       849.609 7        42.749                  
  21068869.627 7    150643.977 7     -1730.590 7        42.638                  
  20801476.502 7     41432.923 7      -592.107 7        42.284                  
  21483007.670 6     66023.584 6      -859.907 6        40.822                  
  20335945.506 7    -21983.069 7        46.247 7        43.121                  
 18  6  1 18 15  9.3628020  0  5G01G07G11G18G30                                 
  20749064.447 6   -101174.799 6       849.424 6        41.535                  
  21068920.843 7    150817.034 7     -1730.238 7        43.658                  
  20801505.940 6     41492.167 6      -592.318 6        40.717                  
  21483043.389 6     66109.550 6      -859.309 6        41.218                  
  20335961.048 6    -21987.742 6        47.145 6        40.839                  
 18  6  1 18 15  9.4628020  0  5G01G07G11G18G30                                 
  20749063.329 6   -101259.775 6       850.132 6        40.765                  
  21068972.464 7    150990.038 7     -1729.831 7        43.868                  
  20801537.282 6     41551.383 6      -592.206 6        39.861                  
  21483074.755 7     66195.486 7      -859.284 7        44.475                  
  20335974.700 7    -21992.452 7        47.018 7        43.356                  
 18  6  1 18 15  9.5628020  0  5G01G07G11G18G30                                 
  20749068.696 7   -101344.766 7       849.723 7        42.092                  
  21069022.740 7    151163.030 7     -1729.856 7        42.553                  
  20801564.170 7     41610.565 7      -592.178 7        42.664                  
  21483110.841 7     66281.418 7      -859.486 7        43.227                  
  20335994.235 7    -21997.164 7        47.404 7        43.868                  
 18  6  1 18 15  9.6628020  0  5G01G07G11G18G30                                 
  20749046.065 6   -101429.765 6       850.106 6        40.192                  
  21069054.820 7    151336.032 7     -1730.309 7        42.744                  
  20801575.451 6     41669.760 6      -591.602 6        41.093                  
  21483124.926 7     66367.340 7      -859.006 7        43.278                  
  20335993.186 7    -22001.893 7        46.721 7        44.905                  
 18  6  1 18 15  9.7628020  0  5G01G07G11G18G30                                 
  20749053.335 6   -101514.715 6       848.636 6        38.806                  
  21069113.249 7    151509.055 7     -1730.757 7        43.651                  
  20801610.182 6     41728.991 6      -592.292 6        40.731                  
  21483161.360 7     66453.292 7      -859.956 7        43.182                  
  20336018.084 7    -22006.589 7        46.652 7        42.147                  
 18  6  1 18 15  9.8628020  0  5G01G07G11G18G30                                 
  20749038.413 6   -101599.597 6       848.993 6        41.988                  
  21069146.442 6    151682.155 6     -1731.432 6        41.848                  
  20801624.365 6     41788.296 6      -593.690 6        41.722                  
  21483182.883 7     66539.332 7      -860.666 7        42.924                  
  20336021.631 7    -22011.197 7        45.738 7        43.160                  
 18  6  1 18 15  9.9628020  0  5G01G07G11G18G30                                 
  20749091.058 6   -101684.439 6       847.949 6        40.334                  
  21069241.962 7    151855.303 7     -1730.923 7        43.640                  
  20801701.107 6     41847.639 6      -593.697 6        41.616                  
  21483257.231 7     66625.403 7      -860.781 7        42.342                  
  20336080.805 7    -22015.766 7        45.844 7        43.463                  
 18  6  1 18 15 10.0628020  0  5G01G07G11G18G30                                 
  20749063.263 6   -101769.243 6       848.017 6        40.954                  
  21069262.176 6    152028.468 6     -1732.031 6        40.800                  
  20801701.484 6     41907.014 6      -593.256 6        41.317                  
  21483268.542 7     66711.512 7      -860.895 7        42.831                  
  20336073.685 7    -22020.305 7        45.510 7        42.845                  
 18  6  1 18 15 10.1628020  0  5G01G07G11G18G30                                 
  20749065.890 6   -101854.048 6       848.228 6        41.130                  
  21069310.317 6    152201.635 6     -1731.701 6        41.447                  
  20801726.629 7     41966.376 7      -594.084 7        42.889                  
  21483303.114 6     66797.607 6      -861.116 6        40.015                  
  20336085.174 7    -22024.857 7        45.459 7        43.601                  
 18  6  1 18 15 10.2628020  0  5G01G07G11G18G30                                 
  20749048.156 7   -101938.872 7       848.478 7        43.035                  
  21069343.637 7    152374.788 7     -1731.537 7        42.728                  
  20801742.003 7     42025.747 7      -593.555 7        45.294                  
  21483322.912 6     66883.684 6      -861.020 6        40.898                  
  20336082.108 7    -22029.405 7        45.358 7        45.353                  
 18  6  1 18 15 10.3628020  0  5G01G07G11G18G30                                 
  20749060.072 6   -102023.663 6       846.928 6        41.535                  
  21069404.668 7    152547.960 7     -1731.976 7        42.844                  
  20801775.429 7     42085.122 7      -594.155 7        42.069                  
  21483361.891 7     66969.805 7      -861.586 7        42.281                  
  20336109.872 7    -22033.941 7        45.201 7        43.238                  
 18  6  1 18 15 10.4628020  0  5G01G07G11G18G30                                 
  20749077.041 6   -102108.386 6       847.382 6        39.858                  
  21069470.298 7    152721.210 7     -1732.627 7        43.400                  
  20801818.362 7     42144.567 7      -594.588 7        42.887                  
  21483407.234 7     67055.985 7      -861.717 7        43.010                  
  20336133.975 7    -22038.400 7        44.275 7        43.566                  
 18  6  1 18 15 10.5628020  0  5G01G07G11G18G30                                 
  20749042.802 6   -102193.111 6       847.812 6        41.407                  
  21069491.153 6    152894.455 6     -1732.167 6        40.543                  
  20801811.532 6     42204.020 6      -594.288 6        40.497                  
  21483410.007 7     67142.170 7      -861.701 7        43.243                  
  20336122.580 7    -22042.862 7        44.947 7        43.062                  
 18  6  1 18 15 10.6628020  0  5G01G07G11G18G30                                 
  20749070.149 6   -102277.889 6       847.285 6        39.929                  
  21069560.065 7    153067.641 7     -1731.942 7        43.182                  
  20801866.945 6     42263.429 6      -593.981 6        40.711                  
  21483466.799 7     67228.306 7      -861.374 7        42.638                  
  20336160.706 7    -22047.375 7        44.901 7        42.212                  
 18  6  1 18 15 10.7628020  0  5G01G07G11G18G30                                 
  20749053.075 7   -102362.682 7       847.557 7        42.953                  
  21069596.496 7    153240.803 7     -1731.358 7        42.173                  
  20801883.494 6     42322.807 6      -594.137 6        40.501                  
  21483485.510 7     67314.413 7      -861.016 7        42.829                  
  20336165.453 7    -22051.906 7        45.365 7        43.035                  
 18  6  1 18 15 10.8628020  0  5G01G07G11G18G30                                 
  20749040.315 7   -102447.445 7       847.789 7        42.009                  
  21069633.493 7    153414.000 7     -1731.944 7        45.072                  
  20801898.700 6     42382.208 6      -593.620 6        39.444                  
  21483507.646 7     67400.561 7      -861.914 7        43.149                  
  20336169.914 7    -22056.412 7        45.067 7        42.036                  
 18  6  1 18 15 10.9628020  0  5G01G07G11G18G30                                 
  20749023.582 6   -102532.168 6       847.504 6        41.902                  
  21069667.222 7    153587.242 7     -1732.817 7        42.668                  
  20801910.292 7     42441.659 7      -594.887 7        42.036                  
  21483526.573 6     67486.747 6      -861.707 6        41.609                  
  20336170.520 7    -22060.867 7        44.287 7        43.633                  
 18  6  1 18 15 11.0628020  0  5G01G07G11G18G30                                 
  20749039.709 6   -102616.843 6       846.456 6        40.952                  
  21069733.300 6    153760.521 6     -1733.325 6        41.645                  
  20801945.288 6     42501.138 6      -595.195 6        41.845                  
  21483568.324 6     67572.969 6      -862.632 6        40.824                  
  20336192.917 7    -22065.299 7        43.643 7        42.539                  
 18  6  1 18 15 11.1628020  0  5G01G07G11G18G30                                 
  20749052.314 6   -102701.431 6       845.354 6        40.780                  
  21069794.581 7    153933.900 7     -1734.134 7        43.718                  
  20801991.565 7     42560.725 7      -595.939 7        42.426                  
  21483612.334 6     67659.294 6      -863.721 6        40.603                  
  20336220.159 7    -22069.610 7        43.310 7        43.166                  
 18  6  1 18 15 11.2628020  0  5G01G07G11G18G30                                 
  20749090.111 6   -102785.953 6       844.863 6        41.825                  
  21069874.898 6    154107.311 6     -1734.219 6        41.647                  
  20802051.313 7     42620.366 7      -597.076 7        42.406                  
  21483674.618 7     67745.663 7      -863.700 7        42.189                  
  20336267.257 7    -22073.883 7        42.431 7        43.168                  
 18  6  1 18 15 11.3628020  0  5G01G07G11G18G30                                 
  20749047.276 6   -102870.497 6       845.843 6        41.917                  
  21069891.881 7    154280.712 7     -1733.746 7        43.818                  
  20802043.985 7     42679.978 7      -595.284 7        45.137                  
  21483671.114 7     67832.015 7      -863.067 7        42.860                  
  20336252.044 7    -22078.185 7        43.346 7        42.860                  
 18  6  1 18 15 11.4628020  0  5G01G07G11G18G30                                 
  20749049.043 6   -102955.122 6       846.378 6        41.520                  
  21069937.929 6    154454.061 6     -1733.266 6        41.833                  
  20802063.083 7     42739.526 7      -595.483 7        42.971                  
  21483703.598 7     67918.301 7      -862.578 7        42.681                  
  20336264.962 7    -22082.538 7        43.819 7        44.706                  
 18  6  1 18 15 11.5628020  0  5G01G07G11G18G30                                 
  20749041.666 6   -103039.793 6       847.150 6        41.313                  
  21069978.909 6    154627.343 6     -1732.370 6        41.973                  
  20802080.399 7     42799.012 7      -594.731 7        44.359                  
  21483730.025 6     68004.533 6      -862.319 6        39.654                  
  20336267.007 7    -22086.947 7        44.298 7        42.448                  
 18  6  1 18 15 11.6628020  0  5G01G07G11G18G30                                 
  20749062.024 7   -103124.479 7       846.796 7        42.557                  
  21070044.630 6    154800.592 6     -1732.484 6        41.098                  
  20802127.498 6     42858.494 6      -594.593 6        41.370                  
  21483779.145 7     68090.757 7      -861.732 7        43.578                  
  20336300.441 6    -22091.392 6        44.145 6        41.107                  
 18  6  1 18 15 11.7628020  0  5G01G07G11G18G30                                 
  20749066.451 6   -103209.167 6       847.163 6        41.798                  
  21070097.369 6    154973.845 6     -1732.200 6        40.921                  
  20802164.871 7     42917.956 7      -594.593 7        43.329                  
  21483816.285 7     68176.957 7      -862.349 7        42.091                  
  20336326.054 7    -22095.825 7        44.934 7        42.899                  
 18  6  1 18 15 11.8628020  0  5G01G07G11G18G30                                 
  20749055.530 6   -103293.853 6       846.263 6        41.581                  
  21070135.364 6    155147.106 6     -1733.261 6        41.775                  
  20802183.105 7     42977.428 7      -594.771 7        42.658                  
  21483840.516 6     68263.169 6      -862.591 6        40.912                  
  20336333.298 7    -22100.265 7        43.836 7        42.412                  
 18  6  1 18 15 11.9628020  0  5G01G07G11G18G30                                 
  20749034.237 6   -103378.493 6       846.407 6        41.182                  
  21070168.013 6    155320.403 6     -1732.862 6        40.753                  
  20802194.829 7     43036.940 7      -595.360 7        43.973                  
  21483855.682 6     68349.425 6      -862.738 6        41.760                  
  20336333.264 7    -22104.641 7        43.613 7        42.231                  
 18  6  1 18 15 12.0628020  0  5G01G07G11G18G30                                 
  20749022.109 6   -103463.143 6       846.607 6        41.703                  
  21070202.606 7    155493.686 7     -1732.742 7        42.206                  
  20802209.116 7     43096.435 7      -594.546 7        43.470                  
  21483879.821 7     68435.657 7      -861.596 7        42.444                  
  20336330.903 7    -22109.045 7        44.502 7        43.888                  
 18  6  1 18 15 18.1628020  0  7G01G07G11G17G18G28G30                           
  20459752.253 7   -108643.496 7       839.140 7        42.327                  
  20783926.550 6    166043.804 6     -1739.184 6        41.713                  
  20514607.809 7     46707.014 7      -601.926 7        42.445                  
  22090274.626 6   -296157.250 6      2608.202 6        41.977                  
  21196591.894 6     73679.072 6      -869.941 6        41.370                  
  21038337.779 7   -210951.757 7      1925.617 7        43.130                  
  20047993.087 7    -22395.384 7        37.335 7        42.915                  
 18  6  1 18 15 18.2628020  0  7G01G07G11G17G18G28G30                           
  20748914.138 6   -108727.377 6       840.437 6        41.360                  
  21073137.882 7    166217.480 7     -1737.589 7        43.559                  
  20803794.640 7     46767.066 7      -599.938 7        43.998                  
  22379406.488 7   -296416.274 7      2609.692 7        43.855                  
  21485791.300 6     73765.887 6      -867.936 6        41.456                  
  21327481.179 6   -211142.599 6      1927.052 6        41.258                  
  20337175.369 7    -22399.131 7        38.219 7        43.505                  
 18  6  1 18 15 18.3628020  0  7G01G07G11G17G18G28G30                           
  20748911.562 6   -108811.488 6       841.811 6        40.804                  
  21073185.389 7    166391.169 7     -1736.184 7        43.999                  
  20803820.526 7     46827.014 7      -599.165 7        42.798                  
  22379368.085 7   -296677.305 7      2611.027 7        43.608                  
  21485820.308 7     73852.617 7      -866.606 7        44.418                  
  21327462.258 7   -211335.410 7      1929.016 7        42.659                  
  20337185.368 6    -22403.056 6        39.995 6        41.762                  
 18  6  1 18 15 18.4628020  0  7G01G07G11G17G18G28G30                           
  20748902.667 7   -108895.671 7       841.630 7        42.478                  
  21073228.331 7    166564.799 7     -1736.448 7        42.456                  
  20803842.554 6     46886.901 6      -598.778 6        41.242                  
  22379326.073 6   -296938.395 6      2610.655 6        40.595                  
  21485843.577 7     73939.294 7      -866.866 7        44.590                  
  21327429.460 6   -211528.256 6      1928.076 6        39.690                  
  20337188.109 6    -22407.027 6        39.697 6        41.083                  
 18  6  1 18 15 18.5628020  0  7G01G07G11G17G18G28G30                           
  20748906.975 7   -108979.827 7       840.984 7        43.528                  
  21073285.390 6    166738.443 6     -1736.811 6        41.911                  
  20803875.515 6     46946.805 6      -599.662 6        41.455                  
  22379295.904 7   -297199.461 7      2610.334 7        43.544                  
  21485878.263 7     74025.994 7      -867.379 7        42.209                  
  21327410.376 6   -211721.094 6      1928.592 6        37.244                  
  20337209.827 7    -22410.984 7        39.394 7        42.324                  
 18  6  1 18 15 18.6628020  0  7G01G07G11G17G18G28G30                           
  20748917.391 6   -109063.908 6       840.756 6        40.736                  
  21073334.326 7    166912.152 7     -1737.376 7        43.761                  
  20803908.970 6     47006.779 6      -599.886 6        41.842                  
  22379264.968 7   -297460.473 7      2609.927 7        43.104                  
  21485917.872 7     74112.758 7      -868.096 7        43.033                  
  21327388.307 6   -211913.863 6      1927.118 6        41.284                  
  20337230.488 6    -22414.866 6        38.003 6        41.556                  
 18  6  1 18 15 18.7628020  0  7G01G07G11G17G18G28G30                           
  20748910.189 7   -109147.881 7       839.246 7        42.066                  
  21073372.975 7    167085.967 7     -1738.661 7        44.373                  
  20803921.555 7     47066.857 7      -601.371 7        42.271                  
  22379219.890 7   -297721.373 7      2608.485 7        42.496                  
  21485940.353 6     74199.625 6      -868.811 6        41.660                  
  21327361.305 6   -212106.535 6      1926.261 6        39.177                  
  20337231.188 6    -22418.654 6        36.817 6        41.474                  
 18  6  1 18 15 18.8628020  0  7G01G07G11G17G18G28G30                           
  20748921.760 7   -109231.759 7       838.342 7        43.121                  
  21073438.186 7    167259.879 7     -1739.413 7        43.032                  
  20803967.105 7     47127.047 7      -601.977 7        42.648                  
  22379198.724 7   -297982.175 7      2607.485 7        43.126                  
  21485982.571 6     74286.600 6      -870.543 6        40.012                  
  21327362.820 6   -212299.121 6      1925.407 6        41.377                  
  20337264.315 6    -22422.328 6        37.041 6        41.882                  
 18  6  1 18 15 18.9628020  0  7G01G07G11G17G18G28G30                           
  20748922.597 6   -109315.585 6       838.011 6        41.688                  
  21073484.835 6    167433.860 6     -1739.822 6        41.497                  
  20803993.840 6     47187.287 6      -603.004 6        41.685                  
  22379167.459 7   -298242.927 7      2607.649 7        43.010                  
  21486016.985 6     74373.638 6      -870.727 6        41.020                  
  21327342.348 6   -212491.636 6      1924.792 6        41.125                  
  20337282.849 6    -22425.945 6        35.682 6        41.859                  
 18  6  1 18 15 19.0628020  0  7G01G07G11G17G18G28G30                           
  20748909.097 7   -109399.351 7       837.860 7        42.354                  
  21073523.588 7    167607.871 7     -1740.711 7        42.845                  
  20804007.419 7     47247.572 7      -602.635 7        43.153                  
  22379121.465 7   -298503.637 7      2606.869 7        42.355                  
  21486036.087 6     74460.724 6      -870.410 6        41.821                  
  21327308.000 6   -212684.120 6      1925.095 6        41.745                  
  20337280.685 6    -22429.516 6        35.852 6        41.886                  
 18  6  1 18 15 19.1628020  0  7G01G07G11G17G18G28G30                           
  20748910.366 7   -109483.182 7       838.631 7        43.319                  
  21073569.087 7    167781.824 7     -1738.260 7        42.993                  
  20804032.239 6     47307.793 6      -601.601 6        40.965                  
  22379084.716 7   -298764.409 7      2608.394 7        43.183                  
  21486069.578 6     74547.728 6      -869.169 6        40.557                  
  21327283.290 6   -212876.671 6      1926.474 6        38.886                  
  20337294.475 6    -22433.153 6        37.038 6        41.487                  
 18  6  1 18 15 19.2628020  0  7G01G07G11G17G18G28G30                           
  20748917.739 6   -109567.185 6       841.212 6        40.223                  
  21073625.961 7    167955.602 7     -1736.958 7        44.599                  
  20804070.100 7     47367.847 7      -599.581 7        42.077                  
  22379057.119 7   -299025.352 7      2610.370 7        43.351                  
  21486107.545 7     74634.569 7      -867.702 7        43.132                  
  21327268.436 6   -213069.407 6      1928.172 6        39.276                  
  20337318.739 7    -22436.957 7        39.215 7        42.129                  
 18  6  1 18 15 19.3628020  0  7G01G07G11G17G18G28G30                           
  20748911.179 6   -109651.398 6       843.370 6        40.524                  
  21073670.429 7    168129.173 7     -1734.480 7        42.927                  
  20804091.848 7     47427.684 7      -597.496 7        42.549                  
  22379019.318 6   -299286.508 6      2612.710 6        41.942                  
  21486131.506 6     74721.218 6      -865.322 6        40.765                  
  21327244.531 6   -213262.346 6      1930.618 6        40.150                  
  20337325.599 7    -22440.975 7        41.056 7        42.441                  
 18  6  1 18 15 19.4628020  0  7G01G07G11G17G18G28G30                           
  20748899.355 6   -109735.812 6       845.040 6        40.242                  
  21073713.953 6    168302.553 6     -1733.007 6        41.306                  
  20804110.809 6     47487.329 6      -595.083 6        41.844                  
  22378977.733 7   -299547.869 7      2614.484 7        43.331                  
  21486155.885 7     74807.656 7      -864.115 7        43.314                  
  21327213.381 6   -213455.486 6      1931.865 6        40.589                  
  20337331.108 6    -22445.180 6        42.807 6        41.586                  
 18  6  1 18 15 19.5628020  0  7G01G07G11G17G18G28G30                           
  20748896.299 6   -109820.389 6       846.290 6        41.579                  
  21073760.786 7    168475.751 7     -1731.277 7        42.869                  
  20804137.347 7     47546.804 7      -594.079 7        43.289                  
  22378947.926 7   -299809.396 7      2615.810 7        42.111                  
  21486190.565 6     74893.934 6      -861.479 6        40.911                  
  21327191.205 6   -213648.809 6      1934.102 6        38.992                  
  20337351.552 7    -22449.562 7        44.815 7        43.243                  
 18  6  1 18 15 19.6628020  0  7G01G07G11G17G18G28G30                           
  20748894.353 7   -109905.121 7       848.492 7        43.134                  
  21073805.799 6    168648.800 6     -1729.454 6        41.133                  
  20804154.094 6     47606.111 6      -592.109 6        41.982                  
  22378907.968 6   -300071.088 6      2618.084 6        41.951                  
  21486218.334 7     74980.051 7      -860.416 7        42.077                  
  21327165.251 6   -213842.290 6      1935.578 6        41.188                  
  20337361.081 6    -22454.095 6        46.273 6        40.497                  
 18  6  1 18 15 19.7628020  0  7G01G07G11G17G18G28G30                           
  20748892.435 6   -109990.081 6       850.796 6        41.906                  
  21073853.049 7    168821.610 7     -1727.024 7        42.069                  
  20804182.547 7     47665.207 7      -589.985 7        42.450                  
  22378870.428 7   -300333.009 7      2620.520 7        43.861                  
  21486250.545 6     75065.936 6      -857.541 6        41.720                  
  21327142.300 7   -214036.010 7      1938.894 7        42.571                  
  20337373.292 7    -22458.856 7        48.497 7        44.428                  
 18  6  1 18 15 19.8628020  0  7G01G07G11G17G18G28G30                           
  20748897.060 6   -110075.272 6       852.486 6        40.464                  
  21073908.056 7    168994.201 7     -1724.825 7        42.939                  
  20804219.964 6     47724.066 6      -587.505 6        41.548                  
  22378843.313 6   -300595.172 6      2622.569 6        41.925                  
  21486286.493 7     75151.588 7      -855.556 7        42.238                  
  21327128.742 6   -214229.968 6      1940.391 6        38.932                  
  20337395.964 7    -22463.860 7        51.192 7        42.180                  
 18  6  1 18 15 19.9628020  0  7G01G07G11G17G18G28G30                           
  20748896.210 7   -110160.646 7       854.619 7        42.398                  
  21073957.990 7    169166.603 7     -1723.418 7        44.405                  
  20804242.874 7     47782.732 7      -585.758 7        42.678                  
  22378806.199 7   -300857.508 7      2624.376 7        43.073                  
  21486316.267 6     75237.070 6      -854.129 6        41.367                  
  21327106.771 6   -214424.106 6      1942.000 6        38.630                  
  20337409.287 7    -22469.044 7        52.955 7        42.470                  
 18  6  1 18 15 20.0628020  0  7G01G07G11G17G18G28G30                           
  20748884.048 6   -110246.152 6       855.839 6        41.959                  
  21073991.636 6    169338.856 6     -1722.122 6        41.703                  
  20804259.170 6     47841.264 6      -585.172 6        41.630                  
  22378761.655 7   -301119.997 7      2625.510 7        42.890                  
  21486341.827 6     75322.402 6      -852.780 6        41.514                  
  21327078.323 6   -214618.394 6      1943.854 6        39.661                  
  20337410.137 6    -22474.355 6        53.650 6        41.178                  
 18  6  1 18 15 20.1628020  0  7G01G07G11G17G18G28G30                           
  20748892.661 7   -110331.772 7       856.612 7        42.366                  
  21074051.831 7    169511.011 7     -1720.947 7        42.499                  
  20804297.689 6     47899.692 6      -583.648 6        41.775                  
  22378735.845 6   -301382.581 6      2626.115 6        41.967                  
  21486383.724 7     75407.629 7      -851.684 7        42.350                  
  21327066.464 7   -214812.791 7      1944.363 7        42.232                  
  20337439.951 7    -22479.795 7        54.665 7        42.672                  
 18  6  1 18 15 20.2628020  0  7G01G07G11G17G18G28G30                           
  20748887.269 7   -110417.387 7       855.238 7        43.616                  
  21074093.724 7    169683.158 7     -1722.178 7        45.658                  
  20804317.059 6     47958.111 6      -584.556 6        41.350                  
  22378699.573 6   -301645.187 6      2625.386 6        41.630                  
  21486406.632 6     75492.859 6      -852.958 6        40.092                  
  21327034.339 6   -215007.185 6      1943.512 6        37.997                  
  20337446.566 6    -22485.210 6        53.375 6        41.078                  
 18  6  1 18 15 20.3628020  0  7G01G07G11G17G18G28G30                           
  20748883.609 7   -110502.826 7       853.113 7        42.037                  
  21074140.851 7    169855.500 7     -1724.397 7        43.824                  
  20804340.317 7     48016.719 7      -587.167 7        43.139                  
  22378661.197 7   -301907.610 7      2622.795 7        42.734                  
  21486435.567 6     75578.267 6      -855.351 6        40.386                  
  21327007.855 6   -215201.405 6      1941.127 6        41.411                  
  20337457.310 7    -22490.451 7        51.152 7        42.330                  
 18  6  1 18 15 20.4628020  0  7G01G07G11G17G18G28G30                           
  20748885.278 7   -110588.034 7       851.212 7        43.234                  
  21074192.393 7    170028.051 7     -1726.872 7        44.019                  
  20804366.484 7     48075.547 7      -589.557 7        42.867                  
  22378628.704 6   -302169.807 6      2621.714 6        41.944                  
  21486465.279 6     75663.899 6      -857.261 6        40.736                  
  21326988.929 6   -215395.401 6      1938.397 6        38.677                  
  20337473.368 7    -22495.476 7        49.415 7        42.254                  
 18  6  1 18 15 20.5628020  0  7G01G07G11G17G18G28G30                           
  20748884.944 7   -110673.002 7       848.325 7        43.513                  
  21074230.812 7    170200.843 7     -1729.227 7        42.506                  
  20804392.149 7     48134.616 7      -592.400 7        42.517                  
  22378593.440 6   -302431.786 6      2617.871 6        41.223                  
  21486499.175 7     75749.763 7      -860.385 7        43.750                  
  21326967.776 7   -215589.165 7      1936.161 7        43.275                  
  20337485.435 7    -22500.270 7        46.398 7        44.662                  
 18  6  1 18 15 20.6628020  0  7G01G07G11G17G18G28G30                           
  20748883.297 7   -110757.679 7       845.274 7        44.764                  
  21074284.044 7    170373.927 7     -1732.076 7        44.616                  
  20804421.079 6     48193.983 6      -594.423 6        41.722                  
  22378557.262 7   -302693.454 7      2615.320 7        44.213                  
  21486532.163 7     75835.933 7      -862.857 7        43.436                  
  21326945.466 7   -215782.647 7      1933.578 7        42.428                  
  20337501.690 7    -22504.750 7        43.629 7        43.484                  
 18  6  1 18 15 20.7628020  0  7G01G07G11G17G18G28G30                           
  20748881.969 7   -110842.160 7       844.463 7        44.258                  
  21074328.319 7    170547.211 7     -1733.474 7        43.361                  
  20804444.441 6     48253.532 6      -596.188 6        40.683                  
  22378519.576 7   -302954.933 7      2614.387 7        42.906                  
  21486560.770 7     75922.297 7      -863.933 7        42.308                  
  21326924.793 6   -215975.940 6      1932.707 6        40.889                  
  20337511.117 7    -22509.040 7        42.491 7        42.914                  
 18  6  1 18 15 20.8628020  0  7G01G07G11G17G18G28G30                           
  20748875.042 7   -110926.549 7       843.514 7        42.653                  
  21074367.808 7    170720.569 7     -1733.946 7        43.522                  
  20804465.295 6     48313.172 6      -596.914 6        41.169                  
  22378474.739 7   -303216.339 7      2613.989 7        43.349                  
  21486587.926 7     76008.734 7      -864.906 7        43.743                  
  21326888.547 6   -216169.151 6      1931.832 6        40.137                  
  20337513.503 7    -22513.254 7        41.649 7        44.467                  
 18  6  1 18 15 20.9628020  0  7G01G07G11G17G18G28G30                           
  20748883.621 6   -111010.846 6       841.623 6        40.750                  
  21074428.332 7    170894.022 7     -1734.998 7        42.221                  
  20804506.967 7     48372.918 7      -598.604 7        42.029                  
  22378456.974 6   -303477.643 6      2611.733 6        40.759                  
  21486631.754 6     76095.289 6      -866.541 6        41.211                  
  21326880.327 7   -216362.259 7      1929.769 7        42.277                  
  20337549.966 7    -22517.366 7        39.928 7        42.473                  
 18  6  1 18 15 21.0628020  0  7G01G07G11G17G18G28G30                           
  20748876.406 7   -111094.957 7       841.447 7        42.392                  
  21074471.774 7    171067.662 7     -1737.276 7        43.360                  
  20804524.982 7     48432.831 7      -599.148 7        42.302                  
  22378417.241 7   -303738.776 7      2611.345 7        43.800                  
  21486656.272 6     76182.008 6      -867.772 6        40.142                  
  21326857.724 7   -216555.207 7      1929.535 7        43.932                  
  20337556.636 6    -22521.293 6        39.294 6        41.383                  
 18  6  1 18 15 21.1628020  0  7G01G07G11G17G18G28G30                           
  20748882.025 7   -111179.049 7       840.775 7        42.457                  
  21074525.786 7    171241.311 7     -1736.334 7        43.078                  
  20804559.311 6     48492.761 6      -599.232 6        41.553                  
  22378387.177 7   -303999.900 7      2610.978 7        43.060                  
  21486690.572 6     76268.753 6      -867.045 6        41.597                  
  21326844.913 6   -216748.142 6      1929.359 6        41.240                  
  20337576.212 7    -22525.209 7        39.118 7        45.124                  
 18  6  1 18 15 21.2628020  0  7G01G07G11G17G18G28G30                           
  20748880.564 7   -111263.170 7       840.825 7        44.091                  
  21074578.490 6    171414.943 6     -1736.087 6        40.543                  
  20804586.016 6     48552.677 6      -599.218 6        40.365                  
  22378353.549 6   -304261.034 6      2611.369 6        41.655                  
  21486721.028 6     76355.477 6      -867.341 6        40.998                  
  21326825.845 6   -216941.102 6      1929.609 6        39.639                  
  20337592.758 6    -22529.136 6        39.013 6        41.138                  
 18  6  1 18 15 21.3628020  0  7G01G07G11G17G18G28G30                           
  20748865.458 6   -111347.166 6       838.999 6        40.992                  
  21074613.099 6    171588.675 6     -1738.726 6        41.905                  
  20804593.736 7     48612.700 7      -601.509 7        42.265                  
  22378306.898 6   -304522.063 6      2609.193 6        40.210                  
  21486737.882 7     76442.314 7      -869.575 7        43.000                  
  21326785.756 6   -217133.952 6      1927.561 6        39.406                  
  20337588.522 6    -22532.966 6        37.163 6        40.487                  
 18  6  1 18 15 21.4628020  0  7G01G07G11G17G18G28G30                           
  20748864.628 6   -111430.968 6       837.470 6        39.854                  
  21074658.529 7    171762.621 7     -1739.954 7        44.140                  
  20804620.540 7     48672.914 7      -603.014 7        43.536                  
  22378272.293 6   -304782.902 6      2607.578 6        41.627                  
  21486769.848 6     76529.344 6      -870.870 6        40.444                  
  21326764.347 7   -217326.620 7      1925.490 7        42.190                  
  20337602.283 7    -22536.580 7        35.300 7        44.531                  
 18  6  1 18 15 21.5628020  0  7G01G07G11G17G18G28G30                           
  20748873.968 7   -111514.654 7       836.670 7        42.206                  
  21074716.882 7    171936.674 7     -1740.682 7        42.551                  
  20804662.412 6     48733.262 6      -603.299 6        41.995                  
  22378252.582 7   -305043.629 7      2607.312 7        42.595                  
  21486813.497 6     76616.499 6      -871.378 6        41.403                  
  21326752.591 6   -217519.161 6      1925.549 6        41.312                  
  20337636.065 7    -22540.093 7        35.400 7        43.090                  
 18  6  1 18 15 21.6628020  0  7G01G07G11G17G18G28G30                           
  20748874.174 6   -111598.370 6       837.710 6        41.510                  
  21074768.867 7    172110.696 7     -1739.906 7        44.907                  
  20804690.715 6     48793.557 6      -602.581 6        40.962                  
  22378212.643 7   -305304.381 7      2607.969 7        42.830                  
  21486849.741 6     76703.618 6      -870.736 6        41.710                  
  21326730.771 6   -217711.738 6      1926.335 6        41.926                  
  20337651.578 7    -22543.627 7        35.916 7        42.052                  
 18  6  1 18 15 21.7628020  0  7G01G07G11G17G18G28G30                           
  20748868.274 6   -111682.133 6       837.567 6        41.529                  
  21074806.070 7    172284.659 7     -1739.305 7        43.191                  
  20804709.780 6     48853.820 6      -602.884 6        41.790                  
  22378170.450 6   -305565.183 6      2608.252 6        41.628                  
  21486876.423 7     76790.689 7      -871.119 7        43.100                  
  21326705.723 6   -217904.393 6      1926.413 6        41.743                  
  20337654.963 6    -22547.221 6        35.688 6        41.054                  
 18  6  1 18 15 21.8628020  0  7G01G07G11G17G18G28G30                           
  20748871.269 7   -111765.895 7       837.381 7        43.840                  
  21074856.325 7    172458.622 7     -1739.890 7        42.301                  
  20804738.177 7     48914.078 7      -602.301 7        42.680                  
  22378143.773 6   -305826.010 6      2608.427 6        40.330                  
  21486908.129 6     76877.756 6      -870.359 6        40.025                  
  21326688.713 7   -218097.038 7      1926.844 7        42.045                  
  20337675.487 7    -22550.803 7        35.851 7        43.719                  
 18  6  1 18 15 21.9628020  0  7G01G07G11G17G18G28G30                           
  20748862.294 7   -111849.659 7       837.329 7        43.442                  
  21074900.284 6    172632.618 6     -1740.058 6        41.740                  
  20804756.305 6     48974.342 6      -603.055 6        41.140                  
  22378101.273 6   -306086.814 6      2607.361 6        40.672                  
  21486934.531 7     76964.832 7      -871.634 7        42.533                  
  21326656.174 6   -218289.674 6      1926.041 6        39.202                  
  20337682.036 7    -22554.380 7        35.441 7        42.278                  
 18  6  1 18 15 22.0628020  0  7G01G07G11G17G18G28G30                           
  20748856.329 6   -111933.338 6       836.791 6        40.637                  
  21074946.331 6    172806.645 6     -1740.355 6        40.650                  
  20804779.776 6     49034.664 6      -603.244 6        41.317                  
  22378060.636 7   -306347.555 7      2607.408 7        42.393                  
  21486964.312 7     77051.972 7      -871.381 7        42.530                  
  21326630.247 6   -218482.259 6      1925.705 6        40.578                  
  20337691.543 7    -22557.899 7        35.163 7        43.190                  
 18  6  1 18 15 22.1628020  0  7G01G07G11G17G18G28G30                           
  20748850.670 6   -112016.961 6       835.325 6        41.661                  
  21074988.643 7    172980.752 7     -1741.850 7        42.896                  
  20804806.118 7     49095.060 7      -604.681 7        42.431                  
  22378024.665 7   -306608.237 7      2605.799 7        43.880                  
  21486989.354 7     77139.182 7      -872.917 7        42.565                  
  21326607.530 6   -218674.777 6      1924.064 6        41.887                  
  20337698.141 7    -22561.330 7        33.558 7        42.431                  
 18  6  1 18 15 22.2628020  0  7G01G07G11G17G18G28G30                           
  20748858.027 7   -112100.403 7       833.750 7        43.443                  
  21075044.707 6    173155.036 6     -1743.701 6        41.415                  
  20804837.034 6     49155.637 6      -606.791 6        41.346                  
  22377994.218 7   -306868.746 7      2604.320 7        42.039                  
  21487028.808 7     77226.575 7      -874.632 7        42.931                  
  21326591.855 6   -218867.117 6      1922.850 6        39.769                  
  20337723.293 7    -22564.607 7        31.633 7        43.046                  
 18  6  1 18 15 22.3628020  0  7G01G07G11G17G18G28G30                           
  20748859.832 6   -112183.634 6       830.882 6        41.019                  
  21075091.678 6    173329.519 6     -1746.309 6        41.776                  
  20804862.334 7     49216.419 7      -609.278 7        42.268                  
  22377962.079 7   -307129.052 7      2601.942 7        43.221                  
  21487057.656 7     77314.161 7      -877.019 7        42.191                  
  21326570.049 6   -219059.264 6      1920.005 6        40.694                  
  20337737.179 7    -22567.667 7        28.898 7        43.383                  
 18  6  1 18 15 22.4628020  0  7G01G07G11G17G18G28G30                           
  20748860.751 6   -112266.563 6       827.262 6        41.678                  
  21075140.005 7    173504.330 7     -1750.105 7        42.642                  
  20804893.172 7     49277.510 7      -613.051 7        42.600                  
  22377926.462 6   -307389.046 6      2597.882 6        41.350                  
  21487092.262 7     77402.067 7      -881.158 7        42.400                  
  21326545.128 7   -219251.097 7      1916.735 7        43.143                  
  20337752.098 7    -22570.409 7        26.102 7        42.435                  
 18  6  1 18 15 22.5628020  0  7G01G07G11G17G18G28G30                           
  20748867.032 4   -112349.148 4       825.830 4        26.747                  
  21075200.549 5    173679.415 5     -1748.256 5        31.038                  
  20804931.909 5     49338.874 5      -610.347 5        31.925                  
  22377899.837 5   -307648.744 5      2599.090 5        32.800                  
  21487133.009 4     77490.309 4      -882.803 4        28.725                  
  21326535.263 5   -219442.642 5      1917.596 5        31.778                  
  20337780.769 7    -22572.862 7        25.807 7        43.506                  
 18  6  1 18 15 22.6628020  0  7G01G07G11G17G18G28G30                           
  20748880.362 4   -112434.011 4       882.864 4        27.977                  
  21075254.857 4    173853.307 4     -1726.118 4        29.022                  
  20804968.067 4     49398.235 4      -568.770 4        25.613                  
  22377872.120 4   -307910.208 4      2635.928 4        26.800                  
  21487173.441 4     77576.785 4      -834.879 4        27.592                  
  21326523.174 4   -219635.361 4      1944.010 4        29.821                  
  20337805.579 4    -22577.178 4        64.841 4        29.392                  
 18  6  1 18 15 22.7628020  0  7G01G07G11G17G18G28G30                           
  20748863.707 6   -112527.730 6       989.764 6        41.696                  
  21075290.682 4    174022.910 4     -1655.194 4        29.988                  
  20804977.898 5     49450.865 5      -477.549 5        33.266                  
  22377828.023 5   -308178.468 5      2739.910 5        31.468                  
  21487195.116 5     77656.294 5      -748.543 5        32.069                  
  21326489.785 4   -219832.793 4      2016.896 4        28.643                  
  20337807.154 5    -22587.560 5       156.104 5        33.260                  
 18  6  1 18 15 22.8628020  0  7G01G07G11G17G18G28G30                           
  20748860.870 6   -112627.906 6      1001.478 6        41.206                  
  21075334.477 6    174183.366 6     -1573.887 6        41.927                  
  20804995.267 7     49495.662 7      -437.594 7        42.377                  
  22377785.236 6   -308455.124 6      2772.533 6        41.186                  
  21487224.024 7     77727.950 7      -706.040 7        44.019                  
  21326468.790 7   -220039.504 7      2092.113 7        42.520                  
  20337814.893 7    -22606.494 7       200.495 7        43.048                  
 18  6  1 18 15 23.5628020  0  7G01G07G11G17G18G28G30                           
  20748823.058 6   -113376.739 6      1004.710 6        41.434                  
  21075651.639 7    175365.923 7     -1597.945 7        44.134                  
  20805162.399 7     49826.079 7      -450.254 7        42.706                  
  22377528.215 7   -310531.380 7      2768.556 7        42.555                  
  21487421.578 7     78259.399 7      -706.899 7        44.586                  
  21326292.469 6   -221605.068 6      2076.330 6        39.682                  
  20337889.300 7    -22754.498 7       191.970 7        43.758                  
 18  6  1 18 15 23.6628020  0  7G01G07G11G17G18G28G30                           
  20748824.066 6   -113426.943 6       993.775 6        41.848                  
  21075699.782 7    175445.894 7     -1583.336 7        42.549                  
  20805191.551 7     49848.610 7      -445.947 7        42.902                  
  22377496.434 6   -310671.034 6      2764.827 6        41.990                  
  21487458.985 6     78295.462 6      -714.070 6        41.540                  
  21326273.415 6   -221710.325 6      2083.601 6        41.408                  
  20337909.720 7    -22764.211 7       192.232 7        42.672                  
 18  6  1 18 15 23.7628020  0  7G01G07G11G17G18G28G30                           
  20748823.912 7   -113526.287 7       993.350 7        42.421                  
  21075745.496 7    175604.233 7     -1583.635 7        44.217                  
  20805215.532 6     49893.257 6      -446.888 6        41.402                  
  22377458.533 7   -310947.509 7      2764.811 7        42.854                  
  21487485.294 7     78366.939 7      -714.936 7        42.129                  
  21326247.323 6   -221918.661 6      2083.375 6        40.788                  
  20337917.429 7    -22783.400 7       191.720 7        42.314                  
 18  6  1 18 15 23.8628020  0  7G01G07G11G17G18G28G30                           
  20748835.618 6   -113625.637 6       993.336 6        39.858                  
  21075796.361 7    175762.585 7     -1583.337 7        45.514                  
  20805243.690 7     49937.897 7      -446.453 7        42.953                  
  22377429.955 6   -311223.995 6      2764.782 6        41.804                  
  21487521.373 7     78438.407 7      -714.860 7        43.214                  
  21326233.704 6   -222127.024 6      2083.668 6        41.778                  
  20337939.292 7    -22802.586 7       192.249 7        43.209                  
 18  6  1 18 15 23.9628020  0  7G01G07G11G17G18G28G30                           
  20748835.955 7   -113724.986 7       993.312 7        42.224                  
  21075851.274 6    175920.924 6     -1583.385 6        40.765                  
  20805274.772 6     49982.529 6      -446.430 6        39.847                  
  22377396.267 6   -311500.472 6      2764.621 6        41.624                  
  21487552.650 7     78509.874 7      -714.696 7        43.408                  
  21326213.957 6   -222335.386 6      2083.371 6        39.731                  
  20337955.836 7    -22821.788 7       191.477 7        42.499                  
 18  6  1 18 15 24.0628020  0  7G01G07G11G17G18G28G30                           
  20748841.826 7   -113824.293 7       993.290 7        42.488                  
  21075909.905 7    176079.303 7     -1584.045 7        44.150                  
  20805316.067 7     50027.226 7      -447.140 7        42.150                  
  22377369.325 7   -311776.922 7      2764.450 7        42.524                  
  21487593.696 6     78581.393 6      -715.378 6        40.874                  
  21326203.162 6   -222543.700 6      2083.067 6        39.963                  
  20337982.939 7    -22840.928 7       191.574 7        42.592                  
 18  6  1 18 15 18.1628020  0  7G01G07G11G17G18G28G30                           
  20749086.886 6   -113923.456 6       992.090 6        41.725                  
  21076206.733 7    176237.553 7     -1584.645 7        43.205                  
  20805591.492 7     50071.905 7      -447.966 7        43.890                  
  22377580.652 6   -312052.837 6      2763.839 6        41.129                  
  21487873.149 7     78652.860 7      -716.189 7        42.054                  
  21326434.283 6   -222751.801 6      2082.561 6        41.906                  
  20338245.497 7    -22860.008 7       190.393 7        42.299                  
 18  6  1 18 15 18.2628020  0  7G01G07G11G17G18G28G30                           
  20749087.573 6   -114022.760 6       992.179 6        40.965                  
  21076253.695 7    176396.199 7     -1584.632 7        42.623                  
  20805614.917 7     50116.726 7      -447.154 7        42.150                  
  22377545.931 7   -312329.686 7      2763.735 7        43.293                  
  21487905.254 7     78724.565 7      -715.878 7        42.122                  
  21326412.753 6   -222960.218 6      2082.590 6        41.504                  
  20338261.021 6    -22879.074 6       190.530 6        40.901                  
 18  6  1 18 15 18.3628020  0  7G01G07G11G17G18G28G30                           
  20749080.902 7   -114121.961 7       991.794 7        42.755                  
  21076290.266 7    176554.665 7     -1584.798 7        44.058                  
  20805632.639 6     50161.505 6      -447.975 6        40.204                  
  22377504.807 6   -312606.044 6      2763.037 6        41.443                  
  21487929.909 7     78796.169 7      -716.582 7        42.678                  
  21326379.658 7   -223168.467 7      2081.985 7        42.060                  
  20338264.026 7    -22898.129 7       190.318 7        42.002                  
 18  6  1 18 15 18.4628020  0  7G01G07G11G17G18G28G30                           
  20749062.789 6   -114221.092 6       990.563 6        39.833                  
  21076325.578 7    176713.223 7     -1586.023 7        44.834                  
  20805645.986 7     50206.364 7      -449.283 7        43.527                  
  22377462.923 6   -312882.317 6      2762.208 6        40.218                  
  21487951.915 6     78867.868 6      -717.331 6        41.025                  
  21326345.892 6   -223376.620 6      2081.166 6        40.206                  
  20338266.581 7    -22917.093 7       188.783 7        43.227                  
 18  6  1 18 15 18.5628020  0  7G01G07G11G17G18G28G30                           
  20749061.848 6   -114320.136 6       990.595 6        41.498                  
  21076373.768 7    176871.852 7     -1586.424 7        42.899                  
  20805666.484 7     50251.304 7      -449.264 7        43.821                  
  22377425.103 7   -313158.522 7      2762.214 7        42.437                  
  21487975.802 7     78939.633 7      -717.429 7        44.552                  
  21326322.980 7   -223584.714 7      2081.058 7        42.389                  
  20338274.876 7    -22935.975 7       189.180 7        42.962                  
 18  6  1 18 15 18.6628020  0  7G01G07G11G17G18G28G30                           
  20749065.515 6   -114419.208 6       991.132 6        41.965                  
  21076431.316 6    177030.462 6     -1585.843 6        41.932                  
  20805699.854 7     50296.216 7      -449.271 7        42.447                  
  22377397.975 6   -313434.760 6      2762.060 6        41.912                  
  21488013.048 6     79011.377 6      -717.234 6        41.502                  
  21326305.712 7   -223792.830 7      2080.950 7        43.360                  
  20338301.263 7    -22954.893 7       189.009 7        42.096                  
 18  6  1 18 15 18.7628020  0  7G01G07G11G17G18G28G30                           
  20749062.074 6   -114518.257 6       989.890 6        41.745                  
  21076468.597 7    177189.091 7     -1586.582 7        44.244                  
  20805718.024 6     50341.156 6      -449.098 6        41.793                  
  22377354.075 6   -313710.964 6      2762.346 6        40.969                  
  21488037.669 6     79083.140 6      -717.973 6        41.650                  
  21326276.060 6   -224000.931 6      2081.408 6        41.804                  
  20338301.957 7    -22973.780 7       188.836 7        43.628                  
 18  6  1 18 15 18.8628020  0  7G01G07G11G17G18G28G30                           
  20749072.672 7   -114617.307 7       990.974 7        42.021                  
  21076521.524 7    177347.695 7     -1585.704 7        42.590                  
  20805759.643 7     50386.064 7      -449.191 7        42.545                  
  22377324.555 7   -313987.207 7      2762.594 7        44.827                  
  21488080.997 6     79154.895 6      -717.209 6        41.329                  
  21326262.605 7   -224209.064 7      2081.507 7        42.439                  
  20338326.027 7    -22992.689 7       189.416 7        42.664                  
 18  6  1 18 15 18.9628020  0  7G01G07G11G17G18G28G30                           
  20749058.383 7   -114716.377 7       990.257 7        42.425                  
  21076563.366 7    177506.298 7     -1586.199 7        43.405                  
  20805773.878 7     50430.963 7      -449.092 7        43.870                  
  22377278.938 7   -314263.451 7      2762.550 7        42.060                  
  21488107.185 6     79226.632 6      -717.458 6        41.622                  
  21326233.140 6   -224417.228 6      2081.351 6        40.093                  
  20338331.260 6    -23011.617 6       188.992 6        39.783                  
 18  6  1 18 15 19.0628020  0  7G01G07G11G17G18G28G30                           
  20749059.749 7   -114815.457 7       991.084 7        42.531                  
  21076614.121 6    177664.882 6     -1586.133 6        41.224                  
  20805805.318 7     50475.869 7      -449.084 7        42.276                  
  22377248.513 6   -314539.704 6      2761.814 6        40.749                  
  21488138.627 7     79298.372 7      -717.362 7        42.184                  
  21326212.869 6   -224625.371 6      2081.557 6        38.857                  
  20338348.501 7    -23030.528 7       189.132 7        43.486                  
 18  6  1 18 15 19.1628020  0  7G01G07G11G17G18G28G30                           
  20749068.912 7   -114914.478 7       989.241 7        42.404                  
  21076671.645 6    177823.528 6     -1586.809 6        41.842                  
  20805838.255 6     50520.821 6      -450.095 6        41.829                  
  22377223.512 6   -314815.912 6      2762.609 6        39.024                  
  21488180.084 6     79370.160 6      -718.613 6        40.940                  
  21326199.696 6   -224833.482 6      2080.641 6        40.616                  
  20338379.266 7    -23049.411 7       188.139 7        42.862                  
 18  6  1 18 15 19.2628020  0  7G01G07G11G17G18G28G30                           
  20749063.100 7   -115013.368 7       988.269 7        42.683                  
  21076717.640 6    177982.291 6     -1588.134 6        41.808                  
  20805860.617 6     50565.897 6      -451.469 6        40.815                  
  22377185.494 6   -315092.004 6      2759.559 6        39.348                  
  21488206.703 6     79442.078 6      -720.032 6        40.060                  
  21326173.375 6   -225041.456 6      2078.953 6        41.406                  
  20338388.682 6    -23068.141 6       186.570 6        39.750                  
 18  6  1 18 15 19.3628020  0  7G01G07G11G17G18G28G30                           
  20749060.340 6   -115112.091 6       986.512 6        41.982                  
  21076764.509 7    178141.215 7     -1590.259 7        42.675                  
  20805879.285 7     50611.141 7      -452.996 7        43.047                  
  22377142.013 7   -315367.925 7      2758.409 7        43.141                  
  21488235.675 6     79514.150 6      -720.802 6        41.530                  
  21326150.694 6   -225249.277 6      2077.735 6        41.106                  
  20338397.093 6    -23086.726 6       185.152 6        40.750                  
 18  6  1 18 15 19.4628020  0  7G01G07G11G17G18G28G30                           
  20749068.193 7   -115210.776 7       987.421 7        42.801                  
  21076820.196 7    178300.193 7     -1589.471 7        44.026                  
  20805915.223 6     50656.427 6      -452.716 6        41.684                  
  22377113.505 6   -315643.795 6      2759.520 6        40.977                  
  21488270.343 6     79586.274 6      -721.434 6        41.681                  
  21326132.524 6   -225457.068 6      2078.064 6        41.808                  
  20338418.271 7    -23105.255 7       185.578 7        42.380                  
 18  6  1 18 15 19.5628020  0  7G01G07G11G17G18G28G30                           
  20749058.975 7   -115309.537 7       987.242 7        42.296                  
  21076859.182 6    178459.091 6     -1588.663 6        39.991                  
  20805933.872 7     50701.632 7      -451.724 7        43.217                  
  22377069.223 6   -315919.758 6      2759.619 6        41.079                  
  21488294.375 7     79658.316 7      -720.513 7        42.446                  
  21326106.249 6   -225664.940 6      2078.795 6        41.827                  
  20338419.524 7    -23123.869 7       186.400 7        42.251                  
 18  6  1 18 15 19.6628020  0  7G01G07G11G17G18G28G30                           
  20749038.396 7   -115408.266 7       987.019 7        42.753                  
  21076896.739 7    178618.014 7     -1589.716 7        43.635                  
  20805952.516 7     50746.870 7      -452.961 7        43.416                  
  22377025.300 6   -316195.700 6      2758.727 6        41.225                  
  21488314.707 7     79730.390 7      -720.872 7        42.928                  
  21326074.634 6   -225872.783 6      2077.918 6        38.657                  
  20338418.880 6    -23142.444 6       185.458 6        41.429                  
 18  6  1 18 15 19.7628020  0  7G01G07G11G17G18G28G30                           
  20749034.281 6   -115506.915 6       986.777 6        41.092                  
  21076939.560 7    178777.017 7     -1590.156 7        43.212                  
  20805974.350 7     50792.187 7      -453.148 7        42.964                  
  22376993.118 6   -316471.561 6      2758.852 6        39.959                  
  21488341.876 6     79802.541 6      -722.160 6        41.117                  
  21326051.170 6   -226080.550 6      2077.846 6        40.068                  
  20338431.612 7    -23160.957 7       184.909 7        42.685                  
 18  6  1 18 15 19.8628020  0  7G01G07G11G17G18G28G30                           
  20749023.882 6   -115605.532 6       985.592 6        40.716                  
  21076979.453 7    178936.042 7     -1590.347 7        44.710                  
  20805991.818 6     50837.533 6      -453.605 6        40.996                  
  22376954.121 7   -316747.396 7      2757.968 7        42.994                  
  21488367.368 6     79874.737 6      -722.366 6        41.472                  
  21326023.787 6   -226288.298 6      2077.292 6        41.849                  
  20338438.839 7    -23179.418 7       184.121 7        42.112                  
 18  6  1 18 15 19.9628020  0  7G01G07G11G17G18G28G30                           
  20749041.452 7   -115704.108 7       985.622 7        42.406                  
  21077040.527 7    179095.117 7     -1591.203 7        44.250                  
  20806032.346 6     50882.922 6      -454.257 6        41.508                  
  22376930.612 6   -317023.191 6      2757.581 6        41.475                  
  21488410.655 6     79946.962 6      -721.617 6        41.003                  
  21326009.118 6   -226496.004 6      2076.621 6        40.820                  
  20338470.311 7    -23197.849 7       184.224 7        44.683                  
 18  6  1 18 15 20.0628020  0  7G01G07G11G17G18G28G30                           
  20749049.555 6   -115802.544 6       982.727 6        40.275                  
  21077092.498 6    179254.329 6     -1593.551 6        41.971                  
  20806066.108 6     50928.448 6      -457.287 6        41.643                  
  22376897.592 6   -317298.839 6      2754.896 6        39.165                  
  21488450.927 6     80019.328 6      -725.617 6        40.286                  
  21325998.635 6   -226703.561 6      2074.235 6        38.931                  
  20338491.676 6    -23216.137 6       181.073 6        41.409                  
 18  6  1 18 15 20.1628020  0  7G01G07G11G17G18G28G30                           
  20749042.147 7   -115900.590 7       977.956 7        42.832                  
  21077129.865 7    179413.913 7     -1598.530 7        42.847                  
  20806081.565 7     50974.362 7      -460.833 7        42.180                  
  22376853.901 6   -317574.122 6      2750.808 6        38.279                  
  21488475.909 7     80092.085 7      -729.782 7        43.537                  
  21325964.385 7   -226910.758 7      2069.678 7        42.217                  
  20338494.182 6    -23234.042 6       176.922 6        40.109                  
 18  6  1 18 15 20.2628020  0  7G01G07G11G17G18G28G30                           
  20749042.474 6   -115998.210 6       974.244 6        41.534                  
  21077183.627 7    179573.942 7     -1601.928 7        42.941                  
  20806111.241 6     51020.719 6      -465.588 6        41.043                  
  22376823.141 6   -317848.956 6      2746.397 6        41.652                  
  21488506.208 6     80165.280 6      -733.867 6        41.717                  
  21325947.546 6   -227117.513 6      2065.850 6        40.057                  
  20338512.240 7    -23251.506 7       172.750 7        43.229                  
 18  6  1 18 15 20.3628020  0  7G01G07G11G17G18G28G30                           
  20749037.467 7   -116095.460 7       971.557 7        42.233                  
  21077229.547 6    179734.326 6     -1604.910 6        41.930                  
  20806139.259 6     51067.408 6      -468.106 6        41.135                  
  22376785.631 6   -318123.448 6      2743.833 6        41.747                  
  21488535.275 7     80238.824 7      -737.028 7        46.138                  
  21325918.041 6   -227323.924 6      2062.585 6        39.984                  
  20338522.108 7    -23268.626 7       169.820 7        43.372                  
 18  6  1 18 15 20.4628020  0  7G01G07G11G17G18G28G30                           
  20749023.435 7   -116192.537 7       970.154 7        42.437                  
  21077267.788 7    179894.894 7     -1606.244 7        43.006                  
  20806153.415 6     51114.295 6      -469.876 6        39.980                  
  22376744.908 7   -318397.758 7      2742.205 7        42.747                  
  21488556.036 7     80312.557 7      -737.607 7        42.799                  
  21325887.948 6   -227530.156 6      2061.684 6        41.208                  
  20338525.033 7    -23285.558 7       168.678 7        42.836                  
 18  6  1 18 15 20.5628020  0  7G01G07G11G17G18G28G30                           
  20749028.715 6   -116289.469 6       968.577 6        41.522                  
  21077320.775 7    180055.595 7     -1607.458 7        42.884                  
  20806179.102 6     51161.314 6      -470.298 6        40.087                  
  22376710.953 7   -318671.934 7      2741.452 7        42.052                  
  21488589.181 7     80386.415 7      -739.160 7        43.494                  
  21325868.821 6   -227736.254 6      2060.454 6        39.879                  
  20338543.293 6    -23302.353 6       167.638 6        41.603                  
 18  6  1 18 15 20.6628020  0  7G01G07G11G17G18G28G30                           
  20749027.438 7   -116386.263 7       966.674 7        44.261                  
  21077371.803 7    180216.429 7     -1609.839 7        43.141                  
  20806205.601 6     51208.466 6      -472.933 6        40.926                  
  22376676.152 7   -318945.983 7      2739.237 7        43.290                  
  21488622.325 7     80460.438 7      -741.129 7        43.634                  
  21325853.222 6   -227942.227 6      2058.479 6        40.351                  
  20338560.647 7    -23319.013 7       165.531 7        42.371                  
 18  6  1 18 15 20.7628020  0  7G01G07G11G17G18G28G30                           
  20749032.551 6   -116482.789 6       963.783 6        40.618                  
  21077421.321 7    180377.548 7     -1612.428 7        43.589                  
  20806239.498 7     51255.903 7      -475.814 7        43.073                  
  22376652.208 6   -319219.753 6      2736.283 6        40.819                  
  21488662.630 7     80534.717 7      -744.555 7        42.521                  
  21325834.912 6   -228147.920 6      2055.473 6        41.211                  
  20338587.996 7    -23335.387 7       162.318 7        42.969                  
 18  6  1 18 15 20.8628020  0  7G01G07G11G17G18G28G30                           
  20749038.124 6   -116579.019 6       961.600 6        40.038                  
  21077472.322 7    180538.929 7     -1614.895 7        43.571                  
  20806271.491 6     51303.614 6      -478.062 6        41.041                  
  22376620.118 6   -319493.251 6      2733.822 6        39.164                  
  21488695.883 7     80609.268 7      -746.224 7        42.128                  
  21325813.855 6   -228353.342 6      2053.045 6        40.438                  
  20338604.865 6    -23351.494 6       160.096 6        40.800                  
 18  6  1 18 15 20.9628020  0  7G01G07G11G17G18G28G30                           
  20749027.760 6   -116675.121 6       960.370 6        40.777                  
  21077511.275 7    180700.456 7     -1615.770 7        43.930                  
  20806286.400 6     51351.465 6      -478.844 6        40.997                  
  22376573.662 6   -319766.612 6      2733.310 6        40.562                  
  21488718.633 7     80683.956 7      -747.745 7        42.899                  
  21325780.470 7   -228558.638 7      2052.851 7        42.278                  
  20338604.772 7    -23367.451 7       159.022 7        42.377                  
 18  6  1 18 15 21.0628020  0  7G01G07G11G17G18G28G30                           
  20749024.838 7   -116771.125 7       959.990 7        43.443                  
  21077554.866 7    180862.071 7     -1616.206 7        44.103                  
  20806309.275 7     51399.406 7      -480.021 7        42.389                  
  22376534.196 6   -320039.885 6      2732.409 6        40.141                  
  21488748.815 7     80758.747 7      -748.152 7        42.705                  
  21325755.508 6   -228763.850 6      2052.025 6        40.606                  
  20338614.405 6    -23383.326 6       158.462 6        40.741                  
 18  6  1 18 15 21.1628020  0  7G01G07G11G17G18G28G30                           
  20749006.063 6   -116867.119 6       960.311 6        40.724                  
  21077594.129 7    181023.705 7     -1616.554 7        43.418                  
  20806323.276 6     51447.371 6      -479.271 6        40.937                  
  22376492.207 6   -320313.139 6      2732.682 6        40.343                  
  21488772.059 7     80833.559 7      -747.736 7        43.414                  
  21325728.430 6   -228969.047 6      2052.085 6        40.331                  
  20338619.475 7    -23399.172 7       158.531 7        45.222                  
 18  6  1 18 15 21.2628020  0  7G01G07G11G17G18G28G30                           
  20749008.091 6   -116963.096 6       959.127 6        40.521                  
  21077646.754 7    181185.346 7     -1616.420 7        44.145                  
  20806351.546 7     51495.325 7      -479.790 7        42.158                  
  22376456.597 7   -320586.390 7      2732.417 7        42.724                  
  21488800.423 6     80908.375 6      -748.323 6        41.213                  
  21325703.133 6   -229174.233 6      2051.151 6        41.216                  
  20338632.135 7    -23415.021 7       158.333 7        45.256                  
 18  6  1 18 15 21.3628020  0  7G01G07G11G17G18G28G30                           
  20749006.718 6   -117059.041 6       959.272 6        40.793                  
  21077690.564 7    181346.998 7     -1616.644 7        44.785                  
  20806376.722 7     51543.320 7      -480.145 7        43.855                  
  22376421.748 7   -320859.624 7      2732.545 7        42.863                  
  21488830.554 7     80983.213 7      -748.454 7        43.475                  
  21325678.571 6   -229379.405 6      2052.116 6        41.529                  
  20338644.321 7    -23430.842 7       158.069 7        42.512                  
 18  6  1 18 15 21.4628020  0  7G01G07G11G17G18G28G30                           
  20749008.531 6   -117154.976 6       959.190 6        39.818                  
  21077738.331 7    181508.690 7     -1617.084 7        43.752                  
  20806404.091 7     51591.332 7      -480.390 7        42.524                  
  22376387.947 6   -321132.823 6      2731.366 6        40.886                  
  21488862.190 7     81058.073 7      -749.416 7        43.587                  
  21325663.840 6   -229584.568 6      2051.354 6        39.862                  
  20338659.127 6    -23446.635 6       157.774 6        40.481                  
 18  6  1 18 15 21.5628020  0  7G01G07G11G17G18G28G30                           
  20749021.052 7   -117250.804 7       957.560 7        42.877                  
  21077797.626 7    181670.474 7     -1618.720 7        42.415                  
  20806440.315 6     51639.451 6      -481.527 6        40.093                  
  22376362.610 6   -321405.938 6      2730.670 6        41.461                  
  21488902.863 6     81133.040 6      -750.091 6        41.127                  
  21325653.514 6   -229789.621 6      2049.935 6        41.991                  
  20338688.345 6    -23462.339 6       156.352 6        40.925                  
 18  6  1 18 15 21.6628020  0  7G01G07G11G17G18G28G30                           
  20749010.775 6   -117346.525 6       956.982 6        41.214                  
  21077841.540 7    181832.352 7     -1618.927 7        43.663                  
  20806461.488 6     51687.662 6      -482.495 6        41.193                  
  22376323.315 6   -321678.970 6      2730.198 6        40.699                  
  21488931.963 7     81208.104 7      -750.656 7        43.007                  
  21325629.307 6   -229994.588 6      2049.488 6        39.440                  
  20338698.829 6    -23477.935 6       155.603 6        40.275                  
 18  6  1 18 15 21.7628020  0  7G01G07G11G17G18G28G30                           
  20748989.214 7   -117442.197 7       956.549 7        42.189                  
  21077874.419 7    181994.297 7     -1619.732 7        42.205                  
  20806470.154 6     51735.926 6      -483.018 6        41.699                  
  22376271.647 6   -321951.924 6      2728.792 6        41.501                  
  21488947.931 7     81283.232 7      -751.902 7        42.351                  
  21325584.718 6   -230199.492 6      2048.661 6        39.442                  
  20338690.157 6    -23493.466 6       154.969 6        39.184                  
 18  6  1 18 15 21.8628020  0  7G01G07G11G17G18G28G30                           
  20749005.415 6   -117537.789 6       955.160 6        41.650                  
  21077934.831 7    182156.330 7     -1620.765 7        42.804                  
  20806516.470 7     51784.280 7      -484.254 7        42.391                  
  22376250.567 6   -322224.811 6      2728.393 6        40.950                  
  21488992.766 6     81358.446 6      -752.777 6        41.252                  
  21325580.360 6   -230404.323 6      2047.335 6        40.703                  
  20338722.747 7    -23508.927 7       154.029 7        43.030                  
 18  6  1 18 15 21.9628020  0  7G01G07G11G17G18G28G30                           
  20749019.290 6   -117633.252 6       954.289 6        41.854                  
  21077993.407 6    182318.452 6     -1621.840 6        41.879                  
  20806553.822 7     51832.736 7      -484.881 7        42.039                  
  22376223.038 7   -322497.578 7      2727.330 7        42.443                  
  21489034.180 6     81433.763 6      -753.708 6        40.945                  
  21325569.800 6   -230609.056 6      2047.275 6        39.613                  
  20338750.110 7    -23524.264 7       153.069 7        42.618                  
 18  6  1 18 15 22.0628020  0  7G01G07G11G17G18G28G30                           
  20749010.084 7   -117728.661 7       954.091 7        42.998                  
  21078035.009 6    182480.665 6     -1621.987 6        41.378                  
  20806568.135 7     51881.278 7      -485.209 7        42.816                  
  22376179.394 6   -322770.283 6      2726.820 6        40.758                  
  21489061.321 7     81509.154 7      -753.682 7        42.639                  
  21325544.917 6   -230813.716 6      2046.586 6        41.912                  
  20338756.800 7    -23539.527 7       152.453 7        43.309                  
 18  6  1 18 15 22.1628020  0  7G01G07G11G17G18G28G30                           
  20749006.157 7   -117824.076 7       954.270 7        42.974                  
  21078083.615 7    182642.837 7     -1621.636 7        45.406                  
  20806595.917 7     51929.789 7      -485.558 7        42.002                  
  22376146.561 6   -323042.999 6      2727.546 6        41.368                  
  21489094.796 6     81584.507 6      -753.158 6        40.282                  
  21325522.322 6   -231018.410 6      2047.742 6        41.748                  
  20338774.754 7    -23554.810 7       152.852 7        42.077                  
 18  6  1 18 15 22.2628020  0  7G01G07G11G17G18G28G30                           
  20749006.075 6   -117919.575 6       955.322 6        40.376                  
  21078124.631 6    182804.948 6     -1620.568 6        41.807                  
  20806619.392 6     51978.231 6      -483.347 6        41.791                  
  22376108.677 6   -323315.812 6      2728.752 6        40.315                  
  21489119.886 7     81659.800 7      -752.794 7        43.697                  
  21325495.521 6   -231223.188 6      2047.591 6        39.228                  
  20338779.806 7    -23570.182 7       154.398 7        42.684                  
 18  6  1 18 15 22.3628020  0  7G01G07G11G17G18G28G30                           
  20749001.647 6   -118015.110 6       955.475 6        41.763                  
  21078173.870 7    182967.000 7     -1620.474 7        42.708                  
  20806648.540 7     52026.609 7      -484.218 7        42.263                  
  22376071.772 7   -323588.672 7      2728.567 7        42.749                  
  21489147.683 6     81735.042 6      -752.127 6        41.560                  
  21325476.483 6   -231428.010 6      2048.645 6        40.645                  
  20338790.124 6    -23585.595 6       154.259 6        40.309                  
 18  6  1 18 15 22.4628020  0  7G01G07G11G17G18G28G30                           
  20748989.216 6   -118110.652 6       955.015 6        41.570                  
  21078214.275 6    183129.047 6     -1620.573 6        41.989                  
  20806664.028 7     52075.006 7      -483.716 7        42.714                  
  22376035.876 7   -323861.529 7      2728.842 7        42.199                  
  21489172.923 6     81810.289 6      -752.828 6        41.247                  
  21325444.481 6   -231632.835 6      2047.743 6        39.580                  
  20338800.523 6    -23601.011 6       154.104 6        41.124                  
 18  6  1 18 15 22.5628020  0  7G01G07G11G17G18G28G30                           
  20748997.534 7   -118206.189 7       956.227 7        42.654                  
  21078270.361 7    183291.094 7     -1620.321 7        42.604                  
  20806700.746 7     52123.381 7      -483.778 7        42.130                  
  22376012.198 6   -324134.405 6      2728.720 6        41.814                  
  21489210.273 6     81885.548 6      -751.956 6        41.795                  
  21325428.735 6   -231837.670 6      2049.113 6        38.089                  
  20338827.279 7    -23616.434 7       154.571 7        43.062                  
 18  6  1 18 15 22.6628020  0  7G01G07G11G17G18G28G30                           
  20748995.818 7   -118301.802 7       955.981 7        42.684                  
  21078314.859 7    183453.081 7     -1619.612 7        45.329                  
  20806722.281 7     52171.693 7      -482.776 7        42.446                  
  22375971.679 6   -324407.353 6      2730.034 6        40.222                  
  21489236.980 6     81960.705 6      -751.262 6        41.942                  
  21325398.218 6   -232042.589 6      2049.748 6        40.095                  
  20338834.007 7    -23631.923 7       155.283 7        42.961                  
 18  6  1 18 15 22.7628020  0  7G01G07G11G17G18G28G30                           
  20748993.411 7   -118397.484 7       957.463 7        42.612                  
  21078362.287 7    183614.992 7     -1618.546 7        42.860                  
  20806747.088 6     52219.941 6      -481.902 6        41.466                  
  22375934.557 6   -324680.368 6      2730.715 6        38.569                  
  21489266.210 6     82035.811 6      -750.815 6        41.910                  
  21325376.421 6   -232247.571 6      2049.984 6        40.190                  
  20338845.612 6    -23647.464 6       155.528 6        41.474                  
 18  6  1 18 15 22.8628020  0  7G01G07G11G17G18G28G30                           
  20748976.729 6   -118493.239 6       957.756 6        41.251                  
  21078396.926 7    183776.817 7     -1618.058 7        43.345                  
  20806756.650 7     52268.105 7      -481.371 7        42.107                  
  22375884.934 7   -324953.452 7      2730.646 7        42.930                  
  21489287.244 6     82110.849 6      -750.005 6        41.170                  
  21325336.383 6   -232452.644 6      2050.832 6        39.528                  
  20338842.381 7    -23663.097 7       156.568 7        43.330                  
 18  6  1 18 15 22.9628020  0  7G01G07G11G17G18G28G30                           
  20748977.742 6   -118588.989 6       956.995 6        40.084                  
  21078449.262 7    183938.669 7     -1619.080 7        44.664                  
  20806787.540 6     52316.282 6      -481.945 6        41.330                  
  22375853.356 6   -325226.535 6      2730.515 6        37.452                  
  21489322.043 7     82185.892 7      -750.990 7        42.293                  
  21325325.072 6   -232657.701 6      2049.897 6        38.840                  
  20338862.361 6    -23678.725 6       155.655 6        41.277                  
 18  6  1 18 15 23.0628020  0  7G01G07G11G17G18G28G30                           
  20748964.348 7   -118684.642 7       956.454 7        43.175                  
  21078485.387 7    184100.581 7     -1619.256 7        43.859                  
  20806807.530 7     52364.527 7      -482.912 7        42.501                  
  22375809.610 6   -325499.552 6      2730.007 6        39.287                  
  21489348.580 6     82261.017 6      -751.597 6        40.607                  
  21325290.781 6   -232862.681 6      2050.312 6        40.819                  
  20338864.877 7    -23694.259 7       155.529 7        42.237                  
 18  6  1 18 15 23.1628020  0  7G01G07G11G17G18G28G30                           
  20748963.333 6   -118780.316 6       957.165 6        41.154                  
  21078533.862 7    184262.491 7     -1618.566 7        45.535                  
  20806832.273 7     52412.780 7      -482.029 7        42.187                  
  22375775.422 6   -325772.563 6      2730.343 6        41.147                  
  21489379.009 7     82336.125 7      -750.779 7        43.887                  
  21325270.233 6   -233067.696 6      2050.078 6        40.010                  
  20338879.906 6    -23709.816 6       155.514 6        41.539                  
 18  6  1 18 15 23.2628020  0  7G01G07G11G17G18G28G30                           
  20748956.759 6   -118876.076 6       957.996 6        41.586                  
  21078579.308 7    184424.308 7     -1617.321 7        43.028                  
  20806856.435 6     52460.944 6      -481.271 6        40.206                  
  22375741.994 6   -326045.672 6      2731.791 6        41.039                  
  21489405.281 6     82411.153 6      -749.512 6        40.620                  
  21325248.341 6   -233272.785 6      2051.672 6        40.568                  
  20338891.726 6    -23725.442 6       156.585 6        41.344                  
 18  6  1 18 15 23.3628020  0  7G01G07G11G17G18G28G30                           
  20748974.875 7   -118971.918 7       958.496 7        42.783                  
  21078646.551 7    184586.044 7     -1617.316 7        42.936                  
  20806901.811 7     52509.021 7      -480.386 7        42.207                  
  22375722.285 6   -326318.871 6      2732.500 6        41.706                  
  21489447.875 7     82486.098 7      -749.555 7        42.495                  
  21325243.074 6   -233477.976 6      2052.310 6        41.972                  
  20338926.555 7    -23741.163 7       157.813 7        42.377                  
 18  6  1 18 15 23.4628020  0  7G01G07G11G17G18G28G30                           
  20748976.336 7   -119067.810 7       959.657 7        42.640                  
  21078692.605 7    184747.728 7     -1616.476 7        44.325                  
  20806924.521 7     52557.046 7      -479.985 7        42.268                  
  22375687.730 6   -326592.120 6      2732.887 6        41.437                  
  21489481.182 7     82560.993 7      -748.090 7        42.305                  
  21325219.661 6   -233683.209 6      2052.546 6        39.884                  
  20338942.878 6    -23756.935 6       158.473 6        39.310                  
 18  6  1 18 15 23.5628020  0  7G01G07G11G17G18G28G30                           
  20748963.974 7   -119163.785 7       959.833 7        42.948                  
  21078729.295 7    184909.322 7     -1616.014 7        42.348                  
  20806941.181 6     52604.985 6      -479.038 6        41.142                  
  22375642.274 6   -326865.473 6      2733.751 6        41.105                  
  21489503.563 7     82635.791 7      -747.641 7        43.893                  
  21325179.888 6   -233888.550 6      2053.655 6        41.627                  
  20338941.949 7    -23772.800 7       158.718 7        43.593                  
 18  6  1 18 15 23.6628020  0  7G01G07G11G17G18G28G30                           
  20748975.304 7   -119259.751 7       959.503 7        44.178                  
  21078785.096 7    185070.912 7     -1616.010 7        42.182                  
  20806975.363 7     52652.914 7      -479.434 7        42.420                  
  22375610.915 6   -327138.805 6      2733.212 6        41.348                  
  21489542.350 7     82710.598 7      -748.437 7        43.299                  
  21325173.218 6   -234093.877 6      2052.937 6        40.993                  
  20338964.471 7    -23788.653 7       158.053 7        42.488                  
 18  6  1 18 15 23.7628020  0  7G01G07G11G17G18G28G30                           
  20748978.994 6   -119355.671 6       958.709 6        39.862                  
  21078839.943 7    185232.559 7     -1617.087 7        43.401                  
  20807004.348 7     52700.904 7      -480.678 7        42.725                  
  22375574.635 6   -327412.105 6      2732.052 6        41.400                  
  21489581.570 7     82785.459 7      -749.356 7        42.977                  
  21325160.692 6   -234299.170 6      2052.557 6        40.679                  
  20338985.876 6    -23804.453 6       157.686 6        41.613                  
 18  6  1 18 15 23.8628020  0  7G01G07G11G17G18G28G30                           
  20748972.428 7   -119451.524 7       958.014 7        42.500                  
  21078880.426 7    185394.278 7     -1617.283 7        44.179                  
  20807026.800 7     52748.972 7      -480.674 7        42.997                  
  22375541.152 6   -327685.331 6      2731.952 6        41.714                  
  21489610.586 7     82860.400 7      -749.459 7        42.077                  
  21325131.547 6   -234504.380 6      2051.928 6        39.533                  
  20338998.215 7    -23820.187 7       156.699 7        42.523                  
 18  6  1 18 15 23.9628020  0  7G01G07G11G17G18G28G30                           
  20748979.973 7   -119547.214 7       955.778 7        42.997                  
  21078939.756 7    185556.155 7     -1620.125 7        45.368                  
  20807068.553 7     52797.181 7      -483.622 7        42.224                  
  22375509.497 6   -327958.417 6      2729.404 6        40.797                  
  21489651.487 6     82935.475 6      -752.115 6        39.606                  
  21325115.109 7   -234709.454 7      2049.306 7        42.138                  
  20339021.892 6    -23835.766 6       154.676 6        41.903                  
 18  6  1 18 15 24.0628020  0  7G01G07G11G17G18G28G30                           
  20748964.279 6   -119642.628 6       952.684 6        40.401                  
  21078975.966 6    185718.301 6     -1622.980 6        41.892                  
  20807077.660 6     52845.687 6      -486.578 6        40.956                  
  22375465.198 6   -328231.213 6      2727.007 6        40.175                  
  21489667.782 6     83010.847 6      -755.255 6        41.609                  
  21325077.592 6   -234914.246 6      2046.425 6        39.652                  
  20339019.489 6    -23851.063 6       151.605 6        41.061                  
 18  6  1 18 15 30.1628020  0  7G01G07G11G17G18G28G30                           
  20748746.556 6   -119737.817 6       949.455 6        41.448                  
  21078806.551 7    185880.950 7     -1625.979 7        44.903                  
  20806888.397 7     52894.547 7      -489.402 7        44.175                  
  22375215.112 6   -328504.206 6      2723.458 6        39.787                  
  21489484.284 7     83086.623 7      -758.461 7        43.326                  
  21324837.545 6   -235118.916 6      2043.032 6        40.994                  
  20338822.102 7    -23866.057 7       148.214 7        42.475                  
 18  6  1 18 15 30.2628020  0  7G01G07G11G17G18G28G30                           
  20748738.078 6   -119832.534 6       946.498 6        41.970                  
  21078846.169 7    186043.518 7     -1629.167 7        43.830                  
  20806904.616 7     52943.592 7      -492.596 7        43.545                  
  22375174.279 7   -328775.902 7      2720.405 7        42.860                  
  21489509.496 6     83162.502 6      -761.390 6        40.243                  
  21324814.857 7   -235322.922 7      2040.570 7        43.367                  
  20338827.552 7    -23880.739 7       145.373 7        43.491                  
 18  6  1 18 15 30.3628020  0  7G01G07G11G17G18G28G30                           
  20748740.900 7   -119927.071 7       944.181 7        42.012                  
  21078891.722 7    186206.537 7     -1631.219 7        42.121                  
  20806936.136 7     52992.950 7      -494.613 7        43.826                  
  22375140.324 7   -329047.848 7      2718.479 7        42.157                  
  21489542.014 7     83238.733 7      -762.911 7        43.648                  
  21324792.252 6   -235526.861 6      2038.838 6        39.545                  
  20338840.335 7    -23895.167 7       143.603 7        42.172                  
 18  6  1 18 15 30.4628020  0  7G01G07G11G17G18G28G30                           
  20748753.529 7   -120021.396 7       942.614 7        42.740                  
  21078948.659 7    186369.770 7     -1633.252 7        43.698                  
  20806973.133 7     53042.535 7      -496.483 7        42.474                  
  22375114.354 6   -329319.585 6      2716.342 6        41.565                  
  21489582.583 7     83315.185 7      -765.552 7        42.054                  
  21324788.970 6   -235730.592 6      2036.211 6        41.426                  
  20338867.493 7    -23909.379 7       140.865 7        42.470                  
 18  6  1 18 15 30.5628020  0  7G01G07G11G17G18G28G30                           
  20748741.709 6   -120115.539 6       940.260 6        41.664                  
  21078988.832 7    186533.165 7     -1634.942 7        43.328                  
  20806983.599 6     53092.282 6      -499.162 6        41.856                  
  22375071.056 7   -329591.131 7      2714.747 7        43.721                  
  21489601.078 7     83391.812 7      -767.514 7        44.219                  
  21324751.520 6   -235934.150 6      2034.756 6        39.942                  
  20338868.199 7    -23923.415 7       139.415 7        42.036                  
 18  6  1 18 15 30.6628020  0  7G01G07G11G17G18G28G30                           
  20748730.991 7   -120209.478 7       938.425 7        42.216                  
  21079023.842 7    186696.775 7     -1636.869 7        43.789                  
  20806996.927 7     53142.243 7      -500.173 7        43.874                  
  22375028.343 6   -329862.490 6      2712.228 6        40.216                  
  21489622.489 7     83468.644 7      -769.367 7        42.224                  
  21324717.259 6   -236137.511 6      2032.779 6        38.785                  
  20338868.375 7    -23937.250 7       137.173 7        43.043                  
 18  6  1 18 15 30.7628020  0  7G01G07G11G17G18G28G30                           
  20748740.581 6   -120303.246 6       937.214 6        41.394                  
  21079088.485 7    186860.561 7     -1638.603 7        42.778                  
  20807038.621 7     53192.367 7      -501.982 7        42.981                  
  22375004.457 6   -330133.674 6      2711.384 6        41.670                  
  21489666.321 7     83545.649 7      -770.511 7        42.046                  
  21324711.293 6   -236340.697 6      2030.890 6        39.269                  
  20338902.008 7    -23950.901 7       135.993 7        42.879                  
 18  6  1 18 15 30.8628020  0  7G01G07G11G17G18G28G30                           
  20748744.024 7   -120396.858 7       934.954 7        42.856                  
  21079139.548 7    187024.491 7     -1639.795 7        42.101                  
  20807079.415 6     53242.648 6      -503.566 6        41.768                  
  22374975.336 6   -330404.701 6      2709.661 6        41.148                  
  21489702.671 6     83622.812 6      -772.599 6        41.828                  
  21324694.120 6   -236543.741 6      2029.955 6        41.522                  
  20338920.890 7    -23964.414 7       134.662 7        45.470                  
 18  6  1 18 15 30.9628020  0  7G01G07G11G17G18G28G30                           
  20748744.221 7   -120490.332 7       934.203 7        44.402                  
  21079187.626 6    187188.558 6     -1641.369 6        41.974                  
  20807106.748 7     53293.077 7      -504.886 7        42.401                  
  22374935.795 7   -330675.602 7      2708.100 7        43.560                  
  21489731.118 7     83700.115 7      -773.602 7        44.302                  
  21324666.174 6   -236746.653 6      2028.181 6        41.321                  
  20338929.042 7    -23977.776 7       132.728 7        43.909                  
 18  6  1 18 15 31.0628020  0  7G01G07G11G17G18G28G30                           
  20748737.563 7   -120583.684 7       933.104 7        42.530                  
  21079232.447 7    187352.746 7     -1642.140 7        42.886                  
  20807124.703 7     53343.606 7      -505.526 7        42.103                  
  22374897.173 6   -330946.377 6      2707.584 6        40.527                  
  21489760.311 7     83777.527 7      -774.442 7        44.056                  
  21324637.196 7   -236949.472 7      2028.028 7        42.871                  
  20338940.826 6    -23991.028 6       132.180 6        41.879                  
 18  6  1 18 15 31.1628020  0  7G01G07G11G17G18G28G30                           
  20748711.665 7   -120677.023 7       933.413 7        42.741                  
  21079257.694 7    187516.950 7     -1642.312 7        42.019                  
  20807117.958 7     53394.160 7      -505.677 7        42.932                  
  22374836.846 7   -331217.153 7      2707.564 7        42.209                  
  21489769.481 7     83854.973 7      -774.237 7        42.319                  
  21324588.935 6   -237152.255 6      2027.871 6        41.054                  
  20338922.108 7    -24004.255 7       132.474 7        44.175                  
 18  6  1 18 15 31.2628020  0  7G01G07G11G17G18G28G30                           
  20748708.517 7   -120770.368 7       933.542 7        43.128                  
  21079308.725 7    187681.136 7     -1641.502 7        42.006                  
  20807151.390 6     53444.701 6      -505.300 6        40.977                  
  22374806.497 6   -331487.917 6      2708.267 6        38.267                  
  21489805.671 7     83932.382 7      -773.568 7        42.274                  
  21324579.411 6   -237355.059 6      2028.586 6        40.570                  
  20338943.075 7    -24017.493 7       132.770 7        42.895                  
 18  6  1 18 15 31.3628020  0  7G01G07G11G17G18G28G30                           
  20748708.408 6   -120863.783 6       934.831 6        41.795                  
  21079360.166 6    187845.243 6     -1640.342 6        41.903                  
  20807182.129 7     53495.176 7      -503.800 7        43.095                  
  22374779.397 7   -331758.774 7      2709.255 7        43.114                  
  21489841.593 7     84009.735 7      -773.225 7        42.024                  
  21324560.502 6   -237557.952 6      2029.187 6        41.448                  
  20338966.838 6    -24030.812 6       133.465 6        41.446                  
 18  6  1 18 15 31.4628020  0  7G01G07G11G17G18G28G30                           
  20748724.120 6   -120957.250 6       934.960 6        40.275                  
  21079414.676 6    188009.303 6     -1640.732 6        41.030                  
  20807221.555 6     53545.585 6      -504.356 6        38.612                  
  22374751.238 6   -332029.705 6      2709.399 6        39.868                  
  21489885.805 7     84087.028 7      -772.888 7        44.113                  
  21324550.304 6   -237760.899 6      2029.327 6        41.929                  
  20338993.086 7    -24044.184 7       133.574 7        42.799                  
 18  6  1 18 15 31.5628020  0  7G01G07G11G17G18G28G30                           
  20748713.414 7   -121050.730 7       934.529 7        42.967                  
  21079456.316 7    188173.348 7     -1640.629 7        42.664                  
  20807239.758 6     53595.990 6      -504.062 6        41.492                  
  22374714.094 7   -332300.634 7      2709.245 7        42.607                  
  21489912.308 7     84164.305 7      -772.951 7        43.605                  
  21324521.405 7   -237963.855 7      2029.783 7        43.076                  
  20339002.847 7    -24057.552 7       133.724 7        43.690                  
 18  6  1 18 15 31.6628020  0  7G01G07G11G17G18G28G30                           
  20748715.888 6   -121144.205 6       934.532 6        41.296                  
  21079505.403 7    188337.400 7     -1640.332 7        42.540                  
  20807274.179 6     53646.396 6      -504.105 6        41.083                  
  22374687.857 6   -332571.559 6      2709.076 6        39.423                  
  21489944.010 6     84241.593 6      -773.036 6        41.078                  
  21324505.671 6   -238166.819 6      2029.722 6        40.759                  
  20339021.350 7    -24070.932 7       133.683 7        42.015                  
 18  6  1 18 15 31.7628020  0  7G01G07G11G17G18G28G30                           
  20748729.535 7   -121237.619 7       933.869 7        43.196                  
  21079569.034 7    188501.509 7     -1641.649 7        42.028                  
  20807312.043 7     53696.871 7      -505.031 7        42.046                  
  22374655.998 7   -332842.435 7      2708.339 7        42.011                  
  21489985.314 7     84318.952 7      -773.658 7        43.611                  
  21324488.985 6   -238369.721 6      2028.265 6        41.621                  
  20339047.308 7    -24084.241 7       132.858 7        42.633                  
 18  6  1 18 15 31.8628020  0  7G01G07G11G17G18G28G30                           
  20748715.137 7   -121330.957 7       933.092 7        43.068                  
  21079609.391 7    188665.679 7     -1642.203 7        44.021                  
  20807326.856 6     53747.402 6      -506.111 6        41.716                  
  22374612.325 7   -333113.239 7      2707.840 7        43.587                  
  21490006.445 7     84396.367 7      -774.763 7        44.079                  
  21324459.048 6   -238572.558 6      2028.370 6        41.085                  
  20339048.921 6    -24097.481 6       131.920 6        41.212                  
 18  6  1 18 15 31.9628020  0  7G01G07G11G17G18G28G30                           
  20748707.603 7   -121424.234 7       932.681 7        42.472                  
  21079652.851 6    188829.934 6     -1642.463 6        41.001                  
  20807343.622 7     53798.010 7      -505.642 7        42.965                  
  22374577.005 6   -333383.979 6      2706.805 6        40.691                  
  21490030.373 7     84473.861 7      -775.212 7        42.160                  
  21324438.140 6   -238775.330 6      2027.534 6        39.954                  
  20339058.794 6    -24110.659 6       131.602 6        41.546                  
 18  6  1 18 15 32.0628020  0  7G01G07G11G17G18G28G30                           
  20748710.176 7   -121517.536 7       933.576 7        42.997                  
  21079705.600 6    188994.151 6     -1641.541 6        41.585                  
  20807377.030 7     53848.583 7      -505.168 7        43.722                  
  22374541.483 6   -333654.744 6      2708.281 6        41.569                  
  21490068.485 6     84551.318 6      -774.042 6        39.364                  
  21324418.568 6   -238978.137 6      2028.723 6        38.640                  
  20339077.521 7    -24123.867 7       132.673 7        42.980                  
 18  6  1 18 15 32.1628020  0  7G01G07G11G17G18G28G30                           
  20748705.470 7   -121610.989 7       935.090 7        43.972                  
  21079745.469 7    189158.226 7     -1640.118 7        42.624                  
  20807394.660 6     53899.006 6      -503.598 6        41.329                  
  22374503.492 6   -333925.672 6      2710.401 6        39.558                  
  21490090.827 7     84628.632 7      -772.215 7        42.150                  
  21324387.291 6   -239181.116 6      2030.665 6        40.314                  
  20339081.940 6    -24137.202 6       134.530 6        41.110                  
 18  6  1 18 15 32.2628020  0  7G01G07G11G17G18G28G30                           
  20748704.951 5   -121704.755 5       949.076 5        34.173                  
  21079791.203 4    189321.969 4     -1625.610 4        28.042                  
  20807421.519 4     53949.223 4      -498.385 4        27.671                  
  22374469.267 4   -334196.836 4      2717.924 4        27.174                  
  21490126.481 5     84705.668 5      -762.706 5        31.683                  
  21324362.981 4   -239384.342 4      2038.315 4        28.503                  
  20339098.989 5    -24150.835 5       144.827 5        30.234                  
 18  6  1 18 15 32.3628020  0  7G01G07G11G17G18G28G30                           
  20748691.355 5   -121803.827 5      1042.845 5        35.697                  
  21079822.960 6    189479.585 6     -1522.970 6        36.292                  
  20807440.586 5     53995.970 5      -417.724 5        32.718                  
  22374427.852 4   -334470.042 4      2748.623 4        29.476                  
  21490149.581 5     84778.121 5      -670.409 5        32.106                  
  21324328.302 5   -239591.601 5      2121.141 5        31.420                  
  20339098.633 6    -24170.127 6       248.891 6        38.996                  
 18  6  1 18 15 32.4628020  0  7G01G07G11G17G18G28G30                           
  20748693.165 7   -121910.811 7      1076.050 7        42.208                  
  21079876.192 7    189629.922 7     -1498.724 7        43.158                  
  20807466.024 7     54033.784 7      -361.738 7        42.349                  
  22374392.137 6   -334749.418 6      2840.069 6        41.279                  
  21490184.473 7     84842.043 7      -631.182 7        42.946                  
  21324307.928 7   -239807.274 7      2172.071 7        43.890                  
  20339117.416 7    -24197.184 7       275.074 7        42.961                  
 18  6  1 18 15 33.7628020  0  7G01G07G11G17G18G28G30                           
  20748686.113 6   -123222.317 6       941.808 6        41.439                  
  21080508.095 6    191791.281 6     -1657.463 6        41.044                  
  20807815.708 7     54662.205 7      -500.466 7        42.948                  
  22373942.097 6   -338461.542 6      2738.019 6        39.166                  
  21490594.323 7     85834.411 7      -795.488 7        42.138                  
  21324032.845 6   -242600.298 6      2026.952 6        41.968                  
  20339308.580 6    -24426.446 6       144.534 6        41.709                  
 18  6  1 18 15 33.8628020  0  7G01G07G11G17G18G28G30                           
  20748697.664 7   -123269.660 7       937.285 7        43.586                  
  21080569.455 7    191873.991 7     -1637.496 7        44.056                  
  20807855.928 6     54687.507 6      -500.658 6        41.562                  
  22373919.241 6   -338598.538 6      2712.602 6        39.829                  
  21490632.271 6     85873.298 6      -770.082 6        41.448                  
  21324029.294 6   -242703.009 6      2033.724 6        40.638                  
  20339337.009 6    -24433.325 6       136.355 6        41.205                  
 18  6  1 18 15 33.9628020  0  7G01G07G11G17G18G28G30                           
  20748693.064 6   -123363.462 6       938.974 6        40.838                  
  21080604.822 7    192037.674 7     -1636.012 7        42.771                  
  20807876.379 6     54737.557 6      -499.968 6        39.286                  
  22373879.639 7   -338869.887 7      2714.207 7        42.935                  
  21490658.712 6     85950.254 6      -768.590 6        40.307                  
  21323999.411 7   -242906.441 7      2035.136 7        42.685                  
  20339340.651 7    -24447.043 7       138.232 7        43.183                  
 18  6  1 18 15 34.0628020  0  7G01G07G11G17G18G28G30                           
  20748699.398 6   -123457.444 6       941.063 6        41.642                  
  21080658.605 7    192201.178 7     -1634.301 7        43.735                  
  20807906.524 6     54787.427 6      -497.798 6        41.039                  
  22373847.126 6   -339141.420 6      2716.225 6        39.562                  
  21490690.880 6     86027.032 6      -766.966 6        40.714                  
  21323979.581 6   -243110.052 6      2036.891 6        39.314                  
  20339357.799 7    -24460.932 7       139.737 7        42.061                  
 18  6  1 18 15 34.1628020  0  7G01G07G11G17G18G28G30                           
  20748696.283 7   -123551.620 7       942.306 7        42.236                  
  21080708.107 6    192364.476 6     -1631.491 6        41.706                  
  20807927.972 6     54837.111 6      -496.008 6        41.057                  
  22373811.636 6   -339413.138 6      2718.202 6        40.588                  
  21490724.275 6     86103.594 6      -764.562 6        41.967                  
  21323956.407 7   -243313.851 7      2039.014 7        42.052                  
  20339375.780 6    -24475.020 6       142.131 6        41.602                  
 18  6  1 18 15 34.2628020  0  7G01G07G11G17G18G28G30                           
  20748685.291 7   -123645.973 7       944.482 7        42.192                  
  21080750.725 6    192527.583 6     -1630.766 6        41.941                  
  20807945.715 6     54886.607 6      -494.243 6        41.360                  
  22373766.314 7   -339685.053 7      2720.280 7        43.275                  
  21490752.420 6     86179.980 6      -762.787 6        40.212                  
  21323927.791 6   -243517.866 6      2040.966 6        40.401                  
  20339381.456 7    -24489.296 7       142.897 7        42.422                  
 18  6  1 18 15 34.3628020  0  7G01G07G11G17G18G28G30                           
  20748685.621 6   -123740.473 6       945.346 6        41.555                  
  21080796.547 7    192690.558 7     -1628.881 7        43.159                  
  20807970.479 7     54935.962 7      -492.828 7        44.972                  
  22373732.645 6   -339957.113 6      2721.081 6        39.107                  
  21490784.653 7     86256.221 7      -762.225 7        43.862                  
  21323898.386 7   -243722.008 7      2041.916 7        42.036                  
  20339396.742 7    -24503.717 7       144.934 7        43.975                  
 18  6  1 18 15 34.4628020  0  7G01G07G11G17G18G28G30                           
  20748678.463 7   -123835.053 7       946.308 7        42.829                  
  21080840.577 7    192853.449 7     -1628.763 7        43.379                  
  20807990.703 6     54985.217 6      -492.029 6        41.479                  
  22373690.333 6   -340229.265 6      2721.678 6        38.930                  
  21490814.397 7     86332.381 7      -761.241 7        42.054                  
  21323873.724 6   -243926.259 6      2043.157 6        41.848                  
  20339405.269 7    -24518.215 7       145.526 7        42.752                  
 18  6  1 18 15 34.5628020  0  7G01G07G11G17G18G28G30                           
  20748676.971 7   -123929.670 7       946.075 7        43.090                  
  21080884.684 7    193016.288 7     -1628.353 7        43.356                  
  20808016.029 6     55034.437 6      -492.572 6        40.458                  
  22373653.446 7   -340501.449 7      2721.857 7        42.186                  
  21490842.812 6     86408.508 6      -760.924 6        39.064                  
  21323850.023 6   -244130.540 6      2042.599 6        40.996                  
  20339414.432 7    -24532.760 7       145.086 7        43.532                  
 18  6  1 18 15 34.6628020  0  7G01G07G11G17G18G28G30                           
  20748668.073 6   -124024.312 6       946.873 6        40.340                  
  21080930.529 7    193179.124 7     -1627.863 7        42.224                  
  20808040.138 6     55083.636 6      -491.717 6        41.515                  
  22373616.366 6   -340773.670 6      2722.615 6        41.298                  
  21490868.662 6     86484.609 6      -760.993 6        40.932                  
  21323824.749 6   -244334.838 6      2043.483 6        39.622                  
  20339423.506 7    -24547.308 7       145.860 7        42.302                  
 18  6  1 18 15 34.7628020  0  7G01G07G11G17G18G28G30                           
  20748675.869 6   -124118.987 6       946.852 6        41.585                  
  21080983.052 7    193341.896 7     -1627.567 7        45.322                  
  20808071.863 7     55132.796 7      -491.254 7        42.253                  
  22373583.163 6   -341045.922 6      2722.496 6        41.234                  
  21490906.648 6     86560.676 6      -760.727 6        41.824                  
  21323808.067 6   -244539.208 6      2043.634 6        38.870                  
  20339443.578 7    -24561.920 7       146.346 7        44.429                  
 18  6  1 18 15 34.8628020  0  7G01G07G11G17G18G28G30                           
  20748673.636 6   -124213.731 6       947.563 6        41.535                  
  21081030.888 7    193504.620 7     -1627.188 7        42.220                  
  20808096.201 7     55181.894 7      -490.655 7        42.742                  
  22373547.026 6   -341318.260 6      2723.773 6        41.145                  
  21490933.059 7     86636.671 7      -759.671 7        42.368                  
  21323787.673 6   -244743.628 6      2044.722 6        41.991                  
  20339453.732 7    -24576.576 7       146.674 7        43.395                  
 18  6  1 18 15 34.9628020  0  7G01G07G11G17G18G28G30                           
  20748663.502 7   -124308.468 7       946.934 7        42.502                  
  21081073.846 6    193667.329 6     -1627.006 6        41.687                  
  20808120.034 6     55230.980 6      -491.320 6        39.774                  
  22373514.531 6   -341590.594 6      2723.324 6        40.261                  
  21490957.813 6     86712.671 6      -759.984 6        41.834                  
  21323765.456 6   -244948.065 6      2043.634 6        38.199                  
  20339464.270 7    -24591.243 7       146.436 7        42.383                  
 18  6  1 18 15 35.0628020  0  7G01G07G11G17G18G28G30                           
  20748648.437 7   -124403.167 7       946.923 7        42.443                  
  21081111.803 6    193830.088 6     -1628.187 6        41.051                  
  20808129.858 7     55280.134 7      -491.345 7        42.295                  
  22373467.240 6   -341862.886 6      2722.411 6        38.394                  
  21490981.536 6     86788.713 6      -760.615 6        37.708                  
  21323729.563 6   -245152.444 6      2043.795 6        40.805                  
  20339465.879 7    -24605.868 7       146.561 7        43.954                  
 18  6  1 18 15 35.1628020  0  7G01G07G11G17G18G28G30                           
  20748652.140 7   -124497.822 7       946.321 7        42.299                  
  21081166.105 6    193992.883 6     -1628.104 6        41.200                  
  20808162.883 6     55329.313 6      -491.941 6        39.984                  
  22373438.173 6   -342135.133 6      2722.470 6        41.614                  
  21491019.637 6     86864.796 6      -760.822 6        40.369                  
  21323712.795 6   -245356.799 6      2044.157 6        39.210                  
  20339490.001 7    -24620.451 7       144.989 7        42.288                  
 18  6  1 18 15 35.2628020  0  7G01G07G11G17G18G28G30                           
  20748652.114 7   -124592.475 7       947.129 7        43.349                  
  21081207.400 7    194155.681 7     -1627.278 7        45.245                  
  20808186.227 7     55378.492 7      -491.540 7        42.304                  
  22373401.901 6   -342407.387 6      2723.300 6        40.413                  
  21491048.671 6     86940.887 6      -760.543 6        41.893                  
  21323685.756 6   -245561.168 6      2043.547 6        38.026                  
  20339499.290 7    -24635.027 7       146.752 7        44.697                  
 18  6  1 18 15 35.3628020  0  7G01G07G11G17G18G28G30                           
  20748641.709 7   -124687.211 7       947.333 7        43.438                  
  21081249.326 6    194318.404 6     -1627.306 6        41.583                  
  20808208.066 6     55427.597 6      -491.131 6        41.706                  
  22373356.090 6   -342679.726 6      2722.786 6        40.952                  
  21491079.992 6     87016.901 6      -760.539 6        40.676                  
  21323659.495 6   -245765.609 6      2044.780 6        40.994                  
  20339505.507 7    -24649.678 7       146.374 7        42.659                  
 18  6  1 18 15 35.4628020  0  7G01G07G11G17G18G28G30                           
  20748642.243 7   -124781.939 7       947.177 7        42.334                  
  21081297.160 7    194481.114 7     -1626.920 7        43.469                  
  20808235.552 6     55476.696 6      -490.747 6        41.317                  
  22373323.619 7   -342952.064 7      2723.826 7        43.906                  
  21491109.989 6     87092.894 6      -759.731 6        41.076                  
  21323637.186 6   -245970.053 6      2044.279 6        39.685                  
  20339519.895 7    -24664.334 7       146.468 7        43.691                  
 18  6  1 18 15 35.5628020  0  7G01G07G11G17G18G28G30                           
  20748649.206 6   -124876.707 6       948.512 6        40.564                  
  21081351.303 7    194643.791 7     -1626.482 7        42.896                  
  20808265.611 7     55525.752 7      -490.723 7        43.701                  
  22373291.066 6   -343224.455 6      2724.472 6        41.511                  
  21491148.708 7     87168.869 7      -759.443 7        42.009                  
  21323624.191 7   -246174.553 7      2045.300 7        43.942                  
  20339542.372 7    -24679.029 7       147.530 7        43.002                  
 18  6  1 18 15 35.6628020  0  7G01G07G11G17G18G28G30                           
  20748647.266 7   -124971.493 7       947.583 7        43.257                  
  21081394.501 7    194806.443 7     -1626.236 7        42.155                  
  20808290.439 6     55574.785 6      -489.678 6        41.191                  
  22373258.442 7   -343496.854 7      2724.149 7        43.328                  
  21491169.938 6     87244.817 6      -758.868 6        41.577                  
  21323597.896 6   -246379.071 6      2045.161 6        40.319                  
  20339548.709 7    -24693.736 7       147.114 7        42.490                  
 18  6  1 18 15 35.7628020  0  7G01G07G11G17G18G28G30                           
  20748643.074 6   -125066.361 6       948.852 6        40.470                  
  21081441.638 6    194969.018 6     -1625.592 6        41.771                  
  20808317.353 6     55623.753 6      -489.425 6        41.720                  
  22373221.387 6   -343769.335 6      2725.155 6        41.242                  
  21491201.391 6     87320.692 6      -758.834 6        40.703                  
  21323573.850 6   -246583.672 6      2046.378 6        40.199                  
  20339561.385 7    -24708.534 7       148.302 7        43.788                  
 18  6  1 18 15 35.8628020  0  7G01G07G11G17G18G28G30                           
  20748645.929 7   -125161.295 7       950.014 7        42.257                  
  21081494.179 6    195131.526 6     -1624.755 6        39.602                  
  20808347.440 6     55672.644 6      -488.577 6        40.399                  
  22373193.983 6   -344041.896 6      2725.970 6        41.300                  
  21491233.428 6     87396.490 6      -757.588 6        41.303                  
  21323558.314 6   -246788.354 6      2047.714 6        40.004                  
  20339582.105 6    -24723.396 6       149.290 6        41.692                  
 18  6  1 18 15 35.9628020  0  7G01G07G11G17G18G28G30                           
  20748656.409 7   -125256.324 7       950.805 7        44.097                  
  21081545.331 6    195293.921 6     -1623.309 6        41.094                  
  20808383.495 6     55721.433 6      -487.159 6        41.887                  
  22373164.823 7   -344314.562 7      2726.746 7        43.419                  
  21491269.795 7     87472.201 7      -756.415 7        42.623                  
  21323542.147 7   -246993.135 7      2048.240 7        42.108                  
  20339601.545 7    -24738.361 7       150.295 7        43.076                  
 18  6  1 18 15 36.0628020  0  7G01G07G11G17G18G28G30                           
  20748649.444 7   -125351.460 7       951.620 7        42.321                  
  21081596.186 6    195456.237 6     -1622.693 6        41.911                  
  20808406.399 7     55770.127 7      -486.440 7        44.759                  
  22373127.643 6   -344587.315 6      2728.205 6        41.877                  
  21491300.450 6     87547.813 6      -755.823 6        40.937                  
  21323514.933 7   -247198.023 7      2049.506 7        42.007                  
  20339616.739 6    -24753.414 6       150.351 6        41.966                  
 18  6  1 18 15 30.1628020  0  7G01G07G11G17G18G28G30                           
  20748844.235 6   -125446.548 6       952.772 6        40.931                  
  21081844.777 6    195618.281 6     -1622.092 6        41.484                  
  20808630.171 7     55818.704 7      -486.012 7        42.213                  
  22373284.353 7   -344859.620 7      2729.004 7        43.064                  
  21491537.230 6     87623.256 6      -754.965 6        40.459                  
  21323689.500 6   -247402.770 6      2049.640 6        40.505                  
  20339831.868 7    -24768.526 7       151.850 7        44.059                  
 18  6  1 18 15 30.2628020  0  7G01G07G11G17G18G28G30                           
  20748854.334 6   -125541.942 6       953.008 6        41.813                  
  21081898.336 7    195780.610 7     -1620.855 7        44.782                  
  20808664.659 6     55867.283 6      -484.839 6        41.431                  
  22373259.736 6   -345133.088 6      2729.958 6        40.788                  
  21491572.642 6     87698.796 6      -754.186 6        40.673                  
  21323675.871 6   -247608.029 6      2051.167 6        41.129                  
  20339855.709 6    -24783.764 6       152.845 6        41.452                  
 18  6  1 18 15 30.3628020  0  7G01G07G11G17G18G28G30                           
  20748838.792 7   -125637.329 7       954.330 7        43.541                  
  21081931.447 7    195942.650 7     -1619.481 7        42.412                  
  20808677.377 7     55915.710 7      -484.122 7        42.238                  
  22373211.759 6   -345406.129 6      2731.017 6        40.073                  
  21491596.563 7     87774.143 7      -753.031 7        42.562                  
  21323644.675 6   -247813.195 6      2052.124 6        41.799                  
  20339854.211 6    -24799.088 6       153.627 6        41.850                  
 18  6  1 18 15 30.4628020  0  7G01G07G11G17G18G28G30                           
  20748852.700 6   -125732.812 6       955.583 6        40.968                  
  21081993.803 7    196104.588 7     -1619.229 7        42.981                  
  20808715.293 6     55964.037 6      -482.696 6        40.106                  
  22373184.471 6   -345679.259 6      2731.801 6        40.308                  
  21491634.748 6     87849.381 6      -751.645 6        41.868                  
  21323635.659 6   -248018.461 6      2053.306 6        39.175                  
  20339880.624 7    -24814.502 7       154.780 7        45.347                  
 18  6  1 18 15 30.5628020  0  7G01G07G11G17G18G28G30                           
  20748848.375 7   -125828.379 7       955.790 7        43.833                  
  21082042.251 7    196266.450 7     -1618.554 7        43.092                  
  20808743.196 7     56012.301 7      -482.123 7        43.958                  
  22373155.044 6   -345952.484 6      2732.210 6        40.446                  
  21491662.872 6     87924.548 6      -751.490 6        41.626                  
  21323612.224 6   -248223.810 6      2053.493 6        41.166                  
  20339896.738 7    -24830.014 7       155.144 7        42.623                  
 18  6  1 18 15 30.6628020  0  7G01G07G11G17G18G28G30                           
  20748844.134 7   -125923.974 7       955.891 7        44.058                  
  21082084.615 7    196428.278 7     -1617.835 7        46.331                  
  20808770.852 7     56060.519 7      -482.030 7        43.550                  
  22373118.530 6   -346225.745 6      2732.405 6        41.592                  
  21491693.383 6     87999.688 6      -751.233 6        41.412                  
  21323579.116 6   -248429.192 6      2054.337 6        41.042                  
  20339906.942 6    -24845.529 6       155.184 6        41.832                  
 18  6  1 18 15 30.7628020  0  7G01G07G11G17G18G28G30                           
  20748836.627 7   -126019.610 7       956.763 7        42.027                  
  21082127.708 6    196590.054 6     -1617.555 6        41.855                  
  20808787.112 7     56108.682 7      -481.267 7        42.098                  
  22373080.665 6   -346499.048 6      2734.020 6        39.992                  
  21491719.852 6     88074.770 6      -750.357 6        39.884                  
  21323555.440 6   -248634.648 6      2054.519 6        39.879                  
  20339917.180 6    -24861.118 6       156.336 6        41.792                  
 18  6  1 18 15 30.8628020  0  7G01G07G11G17G18G28G30                           
  20748819.179 7   -126115.357 7       958.026 7        44.323                  
  21082161.725 7    196751.723 7     -1615.907 7        43.369                  
  20808799.747 6     56156.742 6      -479.911 6        41.780                  
  22373032.249 6   -346772.459 6      2735.065 6        41.516                  
  21491741.495 7     88149.756 7      -749.452 7        42.393                  
  21323522.577 6   -248840.199 6      2056.581 6        41.933                  
  20339914.203 6    -24876.809 6       157.657 6        39.238                  
 18  6  1 18 15 30.9628020  0  7G01G07G11G17G18G28G30                           
  20748826.776 7   -126211.209 7       959.418 7        42.314                  
  21082217.184 7    196913.288 7     -1615.123 7        42.994                  
  20808828.782 6     56204.695 6      -479.179 6        41.963                  
  22372992.994 6   -347045.992 6      2735.134 6        41.279                  
  21491775.714 6     88224.635 6      -747.737 6        40.264                  
  21323504.648 6   -249045.866 6      2057.108 6        39.886                  
  20339929.164 7    -24892.584 7       158.346 7        43.921                  
 18  6  1 18 15 31.0628020  0  7G01G07G11G17G18G28G30                           
  20748828.092 7   -126307.145 7       959.538 7        42.337                  
  21082267.617 7    197074.763 7     -1614.358 7        42.929                  
  20808861.677 6     56252.579 6      -478.304 6        41.580                  
  22372962.090 6   -347319.587 6      2736.303 6        39.196                  
  21491810.557 6     88299.407 6      -747.941 6        39.970                  
  21323480.703 6   -249251.618 6      2057.753 6        40.291                  
  20339948.178 7    -24908.461 7       159.041 7        42.288                  
 18  6  1 18 15 31.1628020  0  7G01G07G11G17G18G28G30                           
  20748839.190 7   -126403.142 7       959.757 7        42.182                  
  21082321.235 6    197236.173 6     -1613.957 6        41.116                  
  20808902.170 7     56300.385 7      -478.030 7        44.264                  
  22372940.155 6   -347593.271 6      2737.107 6        40.589                  
  21491849.280 6     88374.145 6      -747.222 6        40.837                  
  21323470.005 6   -249457.440 6      2058.890 6        40.288                  
  20339974.680 6    -24924.385 6       159.540 6        41.356                  
 18  6  1 18 15 31.2628020  0  7G01G07G11G17G18G28G30                           
  20748833.673 6   -126499.213 6       961.375 6        40.379                  
  21082365.467 6    197397.504 6     -1612.941 6        40.669                  
  20808928.400 6     56348.113 6      -476.601 6        40.574                  
  22372905.151 6   -347867.023 6      2738.369 6        41.221                  
  21491877.001 7     88448.795 7      -745.433 7        43.444                  
  21323449.673 6   -249663.341 6      2059.207 6        41.874                  
  20339985.185 7    -24940.407 7       160.519 7        44.151                  
 18  6  1 18 15 31.3628020  0  7G01G07G11G17G18G28G30                           
  20748832.823 7   -126595.425 7       962.978 7        42.305                  
  21082418.507 7    197558.702 7     -1610.909 7        42.260                  
  20808949.790 7     56395.711 7      -475.281 7        43.228                  
  22372871.026 6   -348140.920 6      2739.577 6        38.958                  
  21491905.142 6     88523.301 6      -744.697 6        41.870                  
  21323428.058 6   -249869.393 6      2061.607 6        40.546                  
  20340001.441 7    -24956.555 7       162.338 7        43.112                  
 18  6  1 18 15 31.4628020  0  7G01G07G11G17G18G28G30                           
  20748826.349 7   -126691.786 7       964.642 7        42.041                  
  21082460.502 7    197719.744 7     -1609.879 7        42.090                  
  20808960.116 7     56443.153 7      -473.788 7        42.480                  
  22372825.278 6   -348414.964 6      2741.414 6        40.625                  
  21491931.633 6     88597.670 6      -742.456 6        39.313                  
  21323393.928 6   -250075.588 6      2062.357 6        41.253                  
  20340007.116 7    -24972.849 7       163.863 7        43.233                  
 18  6  1 18 15 31.5628020  0  7G01G07G11G17G18G28G30                           
  20748819.496 7   -126788.312 7       966.123 7        43.848                  
  21082505.898 7    197880.623 7     -1607.746 7        43.725                  
  20808987.218 6     56490.419 6      -471.792 6        40.269                  
  22372792.496 6   -348689.189 6      2743.095 6        40.621                  
  21491960.131 6     88671.864 6      -741.346 6        40.687                  
  21323371.021 6   -250281.975 6      2064.892 6        40.459                  
  20340020.294 7    -24989.331 7       165.552 7        44.028                  
 18  6  1 18 15 31.6628020  0  7G01G07G11G17G18G28G30                           
  20748814.306 7   -126884.996 7       967.398 7        42.750                  
  21082546.206 7    198041.333 7     -1606.250 7        43.052                  
  20809007.416 7     56537.545 7      -470.481 7        42.530                  
  22372752.951 6   -348963.574 6      2744.431 6        41.303                  
  21491991.138 6     88745.901 6      -739.666 6        40.241                  
  21323342.523 6   -250488.518 6      2066.041 6        40.894                  
  20340030.190 7    -25005.950 7       166.940 7        42.289                  
 18  6  1 18 15 31.7628020  0  7G01G07G11G17G18G28G30                           
  20748813.305 7   -126981.801 7       968.501 7        43.606                  
  21082589.711 7    198201.939 7     -1605.482 7        43.127                  
  20809029.697 6     56584.536 6      -469.169 6        41.405                  
  22372712.191 6   -349238.074 6      2745.657 6        40.556                  
  21492021.341 6     88819.804 6      -738.491 6        40.565                  
  21323326.368 6   -250695.181 6      2067.371 6        40.895                  
  20340038.765 7    -25022.694 7       167.376 7        43.324                  
 18  6  1 18 15 31.8628020  0  7G01G07G11G17G18G28G30                           
  20748820.749 7   -127078.706 7       969.716 7        42.127                  
  21082646.942 7    198362.421 7     -1604.615 7        42.178                  
  20809066.216 6     56631.416 6      -468.348 6        41.918                  
  22372684.163 7   -349512.695 7      2746.824 7        43.978                  
  21492062.416 6     88893.623 6      -737.855 6        41.456                  
  21323312.957 6   -250901.962 6      2068.518 6        39.422                  
  20340065.968 7    -25039.548 7       169.606 7        42.921                  
 18  6  1 18 15 31.9628020  0  7G01G07G11G17G18G28G30                           
  20748816.962 7   -127175.728 7       970.913 7        42.806                  
  21082693.222 6    198522.790 6     -1602.995 6        41.158                  
  20809090.752 6     56678.199 6      -467.213 6        40.391                  
  22372649.052 6   -349787.428 6      2747.864 6        39.373                  
  21492091.012 6     88967.323 6      -735.800 6        40.522                  
  21323289.829 6   -251108.861 6      2069.641 6        39.029                  
  20340078.297 6    -25056.507 6       170.238 6        41.790                  
 18  6  1 18 15 32.0628020  0  7G01G07G11G17G18G28G30                           
  20748810.757 6   -127272.887 6       971.892 6        41.569                  
  21082737.653 6    198683.028 6     -1601.787 6        41.618                  
  20809114.028 7     56724.839 7      -465.592 7        42.925                  
  22372609.675 7   -350062.296 7      2749.329 7        42.039                  
  21492119.047 7     89040.890 7      -735.478 7        42.669                  
  21323263.923 6   -251315.885 6      2070.551 6        41.944                  
  20340086.926 6    -25073.611 6       171.781 6        41.553                  
 18  6  1 18 15 32.1628020  0  7G01G07G11G17G18G28G30                           
  20748829.359 6   -127370.194 6       974.111 6        41.519                  
  21082804.092 7    198843.108 7     -1599.771 7        44.621                  
  20809163.592 6     56771.316 6      -464.289 6        41.622                  
  22372590.875 6   -350337.316 6      2750.895 6        41.208                  
  21492165.467 6     89114.290 6      -733.067 6        41.744                  
  21323259.033 6   -251523.085 6      2073.255 6        41.744                  
  20340123.772 6    -25090.866 6       173.145 6        40.595                  
 18  6  1 18 15 32.2628020  0  7G01G07G11G17G18G28G30                           
  20748823.292 7   -127467.624 7       974.771 7        44.377                  
  21082844.357 7    199003.071 7     -1599.361 7        42.277                  
  20809189.339 7     56817.683 7      -462.981 7        42.449                  
  22372551.138 7   -350612.480 7      2752.313 7        42.859                  
  21492194.068 6     89187.579 6      -732.519 6        38.720                  
  21323229.052 6   -251730.409 6      2073.533 6        39.586                  
  20340129.973 7    -25108.243 7       174.391 7        43.859                  
 18  6  1 18 15 32.3628020  0  7G01G07G11G17G18G28G30                           
  20748803.710 6   -127565.130 6       975.246 6        41.409                  
  21082875.073 6    199162.945 6     -1598.361 6        41.790                  
  20809190.664 7     56863.966 7      -462.639 7        42.612                  
  22372502.470 7   -350887.713 7      2752.974 7        42.353                  
  21492203.360 6     89260.795 6      -731.795 6        37.681                  
  21323183.371 6   -251937.800 6      2074.128 6        40.547                  
  20340119.222 6    -25125.703 6       174.854 6        41.764                  
 18  6  1 18 15 32.4628020  0  7G01G07G11G17G18G28G30                           
  20748807.558 6   -127662.703 6       976.256 6        40.934                  
  21082926.286 6    199322.752 6     -1597.529 6        39.832                  
  20809216.965 6     56910.170 6      -461.365 6        41.932                  
  22372471.816 6   -351163.022 6      2753.310 6        41.345                  
  21492238.271 6     89333.930 6      -730.684 6        40.048                  
  21323160.120 6   -252145.293 6      2075.546 6        39.898                  
  20340140.526 7    -25143.225 7       175.250 7        42.049                  
 18  6  1 18 15 32.5628020  0  7G01G07G11G17G18G28G30                           
  20748794.652 6   -127760.362 6       977.077 6        40.109                  
  21082969.958 7    199482.481 7     -1597.223 7        43.970                  
  20809236.867 6     56956.307 6      -460.975 6        41.714                  
  22372433.118 6   -351438.412 6      2754.284 6        40.978                  
  21492258.888 6     89406.995 6      -730.987 6        41.501                  
  21323134.481 6   -252352.860 6      2075.765 6        39.692                  
  20340145.288 7    -25160.838 7       176.938 7        42.822                  
 18  6  1 18 15 32.6628020  0  7G01G07G11G17G18G28G30                           
  20748793.249 7   -127858.094 7       977.507 7        43.166                  
  21083020.896 6    199642.127 6     -1595.855 6        41.068                  
  20809256.120 7     57002.361 7      -460.605 7        42.954                  
  22372392.613 6   -351713.889 6      2755.377 6        40.140                  
  21492289.906 7     89479.982 7      -728.899 7        42.230                  
  21323108.185 6   -252560.507 6      2077.398 6        40.669                  
  20340158.969 6    -25178.513 6       176.752 6        40.373                  
 18  6  1 18 15 32.7628020  0  7G01G07G11G17G18G28G30                           
  20748792.788 7   -127955.924 7       978.812 7        43.369                  
  21083063.000 6    199801.669 6     -1595.053 6        41.950                  
  20809279.095 6     57048.316 6      -458.912 6        41.728                  
  22372357.493 6   -351989.466 6      2756.342 6        40.595                  
  21492320.939 6     89552.868 6      -728.667 6        39.661                  
  21323086.867 6   -252768.261 6      2077.490 6        41.921                  
  20340171.452 6    -25196.294 6       178.919 6        41.878                  
 18  6  1 18 15 32.8628020  0  7G01G07G11G17G18G28G30                           
  20748793.485 6   -128053.864 6       980.062 6        39.439                  
  21083110.797 7    199961.107 7     -1593.738 7        42.500                  
  20809308.350 6     57094.155 6      -457.876 6        38.829                  
  22372320.587 7   -352265.157 7      2757.087 7        42.917                  
  21492356.541 6     89625.655 6      -727.118 6        39.788                  
  21323069.164 6   -252976.127 6      2079.296 6        39.825                  
  20340186.704 7    -25214.187 7       179.610 7        42.907                  
 18  6  1 18 15 32.9628020  0  7G01G07G11G17G18G28G30                           
  20748791.480 7   -128151.924 7       981.251 7        42.971                  
  21083160.875 6    200120.418 6     -1592.233 6        41.632                  
  20809338.213 6     57139.876 6      -456.353 6        39.895                  
  22372286.561 6   -352540.974 6      2758.786 6        41.990                  
  21492390.151 6     89698.302 6      -725.414 6        41.587                  
  21323048.377 6   -253184.134 6      2080.906 6        40.453                  
  20340203.647 7    -25232.209 7       180.599 7        42.771                  
 18  6  1 18 15 33.0628020  0  7G01G07G11G17G18G28G30                           
  20748795.211 6   -128250.131 6       982.681 6        40.106                  
  21083215.100 7    200279.586 7     -1591.121 7        43.364                  
  20809374.611 6     57185.451 6      -455.077 6        40.920                  
  22372258.628 6   -352816.938 6      2760.103 6        41.249                  
  21492425.609 6     89770.807 6      -725.021 6        40.231                  
  21323033.943 6   -253392.274 6      2082.191 6        39.536                  
  20340225.609 7    -25250.363 7       182.140 7        42.602                  
 18  6  1 18 15 33.1628020  0  7G01G07G11G17G18G28G30                           
  20748788.799 6   -128348.472 6       984.275 6        40.180                  
  21083259.259 7    200438.618 7     -1589.364 7        43.808                  
  20809398.503 6     57230.896 6      -453.691 6        41.671                  
  22372217.819 6   -353093.038 6      2762.504 6        40.836                  
  21492455.204 6     89843.183 6      -723.129 6        40.937                  
  21323007.066 6   -253600.557 6      2083.409 6        41.931                  
  20340234.156 7    -25268.658 7       183.461 7        42.192                  
 18  6  1 18 15 33.2628020  0  7G01G07G11G17G18G28G30                           
  20748792.783 6   -128446.902 6       984.651 6        41.541                  
  21083304.341 7    200597.552 7     -1589.218 7        43.203                  
  20809423.158 7     57276.237 7      -453.036 7        42.223                  
  22372179.475 6   -353369.235 6      2761.982 6        38.953                  
  21492485.814 6     89915.460 6      -722.475 6        41.711                  
  21322983.680 6   -253808.944 6      2084.319 6        41.499                  
  20340244.137 6    -25287.042 6       184.079 6        41.763                  
 18  6  1 18 15 33.3628020  0  7G01G07G11G17G18G28G30                           
  20748790.311 7   -128545.416 7       985.355 7        43.263                  
  21083350.784 7    200756.401 7     -1587.844 7        44.595                  
  20809451.014 7     57321.500 7      -452.396 7        43.715                  
  22372144.778 6   -353645.514 6      2762.964 6        40.030                  
  21492515.141 7     89987.658 7      -721.214 7        42.018                  
  21322960.792 6   -254017.419 6      2085.394 6        39.597                  
  20340256.227 7    -25305.522 7       185.318 7        44.561                  
 18  6  1 18 15 33.4628020  0  7G01G07G11G17G18G28G30                           
  20748803.320 7   -128643.992 7       986.029 7        43.423                  
  21083412.195 7    200915.189 7     -1587.249 7        45.616                  
  20809489.056 7     57366.702 7      -451.625 7        43.009                  
  22372124.016 7   -353921.860 7      2763.795 7        42.652                  
  21492552.859 7     90059.791 7      -721.143 7        43.799                  
  21322949.942 6   -254225.959 6      2085.474 6        39.262                  
  20340286.722 6    -25324.046 6       185.667 6        41.286                  
 18  6  1 18 15 33.5628020  0  7G01G07G11G17G18G28G30                           
  20748803.433 7   -128742.675 7       987.183 7        42.480                  
  21083457.470 7    201073.880 7     -1587.195 7        43.364                  
  20809515.725 7     57411.803 7      -450.672 7        44.172                  
  22372090.911 7   -354198.317 7      2765.314 7        42.686                  
  21492584.943 7     90131.828 7      -719.883 7        43.750                  
  21322930.087 6   -254434.605 6      2087.373 6        41.446                  
  20340301.707 7    -25342.676 7       186.786 7        42.885                  
 18  6  1 18 15 33.6628020  0  7G01G07G11G17G18G28G30                           
  20748792.743 7   -128841.391 7       987.507 7        42.298                  
  21083502.951 7    201232.503 7     -1585.750 7        42.706                  
  20809532.247 6     57456.832 6      -450.130 6        41.303                  
  22372047.871 7   -354474.830 7      2765.317 7        42.398                  
  21492613.497 6     90203.801 6      -719.491 6        41.322                  
  21322900.993 6   -254643.322 6      2087.627 6        40.707                  
  20340311.203 6    -25361.370 6       187.182 6        41.506                  
 18  6  1 18 15 33.7628020  0  7G01G07G11G17G18G28G30                           
  20748783.327 6   -128940.182 6       988.057 6        41.439                  
  21083544.926 6    201391.084 6     -1585.761 6        41.921                  
  20809552.241 7     57501.829 7      -449.573 7        42.453                  
  22372005.541 7   -354751.392 7      2765.650 7        42.226                  
  21492641.507 6     90275.739 6      -719.493 6        41.749                  
  21322875.200 6   -254852.066 6      2087.283 6        40.656                  
  20340317.995 6    -25380.103 6       187.614 6        41.161                  
 18  6  1 18 15 33.8628020  0  7G01G07G11G17G18G28G30                           
  20748774.197 6   -129038.927 6       986.615 6        41.397                  
  21083586.028 7    201549.694 7     -1586.881 7        44.153                  
  20809573.644 6     57546.856 6      -450.969 6        41.007                  
  22371968.115 6   -355027.923 6      2764.620 6        40.933                  
  21492667.870 7     90347.706 7      -719.826 7        42.722                  
  21322845.666 6   -255060.805 6      2086.451 6        40.308                  
  20340326.210 6    -25398.809 6       186.106 6        41.875                  
 18  6  1 18 15 33.9628020  0  7G01G07G11G17G18G28G30                           
  20748759.427 7   -129137.552 7       986.098 7        42.778                  
  21083622.879 7    201708.414 7     -1587.223 7        42.587                  
  20809593.105 6     57591.977 6      -451.530 6        40.480                  
  22371927.209 6   -355304.350 6      2764.368 6        40.911                  
  21492693.180 6     90419.775 6      -721.119 6        41.280                  
  21322816.471 6   -255269.431 6      2086.695 6        39.879                  
  20340330.487 6    -25417.408 6       186.042 6        41.401                  
 18  6  1 18 15 34.0628020  0  7G01G07G11G17G18G28G30                           
  20748759.725 7   -129236.239 7       987.670 7        42.293                  
  21083665.730 7    201867.088 7     -1585.827 7        42.883                  
  20809614.133 7     57637.071 7      -450.159 7        43.241                  
  22371889.333 6   -355580.826 6      2765.600 6        41.723                  
  21492717.907 6     90491.799 6      -719.604 6        41.352                  
  21322787.073 6   -255478.127 6      2087.342 6        40.764                  
  20340336.707 7    -25436.046 7       187.112 7        43.572                  
 18  6  1 18 15 34.1628020  0  7G01G07G11G17G18G28G30                           
  20748767.848 7   -129335.035 7       988.582 7        43.877                  
  21083721.359 7    202025.628 7     -1584.577 7        45.158                  
  20809642.559 6     57682.031 6      -448.744 6        41.543                  
  22371859.840 7   -355857.439 7      2766.631 7        42.430                  
  21492756.266 7     90563.693 7      -718.272 7        42.624                  
  21322768.865 7   -255686.946 7      2089.090 7        43.636                  
  20340362.361 7    -25454.817 7       188.618 7        43.055                  
 18  6  1 18 15 34.2628020  0  7G01G07G11G17G18G28G30                           
  20748783.056 6   -129434.006 6       990.387 6        41.574                  
  21083782.369 7    202184.011 7     -1583.018 7        42.863                  
  20809683.251 7     57726.830 7      -446.872 7        42.179                  
  22371831.299 7   -356134.208 7      2768.659 7        42.560                  
  21492799.740 7     90635.446 7      -716.173 7        43.004                  
  21322757.649 6   -255895.919 6      2090.432 6        41.210                  
  20340390.471 7    -25473.735 7       190.155 7        42.272                  
 18  6  1 18 15 34.3628020  0  7G01G07G11G17G18G28G30                           
  20748777.625 7   -129533.165 7       993.016 7        43.626                  
  21083826.873 7    202342.193 7     -1580.922 7        42.490                  
  20809707.409 6     57771.433 6      -445.327 6        40.531                  
  22371791.064 7   -356411.176 7      2770.731 7        43.585                  
  21492828.539 6     90706.977 6      -714.546 6        40.624                  
  21322733.485 6   -256105.114 6      2092.779 6        41.200                  
  20340398.742 7    -25492.856 7       191.844 7        42.873                  
 18  6  1 18 15 34.4628020  0  7G01G07G11G17G18G28G30                           
  20748770.655 7   -129632.525 7       994.749 7        43.486                  
  21083874.220 7    202500.172 7     -1578.773 7        43.304                  
  20809730.012 6     57815.836 6      -443.144 6        41.983                  
  22371753.944 6   -356688.350 6      2772.842 6        40.455                  
  21492856.925 7     90778.331 7      -712.925 7        43.360                  
  21322716.034 7   -256314.491 7      2095.163 7        42.176                  
  20340410.910 7    -25512.184 7       194.323 7        42.856                  
 18  6  1 18 15 34.5628020  0  7G01G07G11G17G18G28G30                           
  20748773.519 6   -129732.086 6       996.344 6        41.132                  
  21083928.340 6    202657.947 6     -1576.814 6        41.661                  
  20809760.097 6     57860.036 6      -440.927 6        41.134                  
  22371718.183 6   -356965.739 6      2774.551 6        41.164                  
  21492889.754 7     90849.470 7      -710.202 7        44.059                  
  21322703.294 7   -256524.079 7      2096.558 7        42.663                  
  20340427.028 6    -25531.698 6       196.436 6        40.927                  
 18  6  1 18 15 34.6628020  0  7G01G07G11G17G18G28G30                           
  20748748.263 7   -129831.808 7       998.149 7        42.220                  
  21083956.250 7    202815.570 7     -1575.552 7        42.016                  
  20809762.328 6     57904.066 6      -439.575 6        41.548                  
  22371663.629 7   -357243.278 7      2776.487 7        43.994                  
  21492904.295 6     90920.451 6      -708.694 6        41.484                  
  21322653.068 6   -256733.852 6      2098.797 6        39.371                  
  20340415.387 7    -25551.393 7       197.691 7        43.867                  
 18  6  1 18 15 34.7628020  0  7G01G07G11G17G18G28G30                           
  20748756.141 6   -129931.712 6       999.302 6        41.884                  
  21084003.497 6    202973.016 6     -1573.870 6        41.668                  
  20809789.236 7     57947.932 7      -437.781 7        43.683                  
  22371634.166 6   -357521.000 6      2777.710 6        39.951                  
  21492939.336 7     90991.265 7      -707.480 7        43.576                  
  21322635.644 6   -256943.783 6      2099.994 6        38.878                  
  20340435.196 6    -25571.252 6       199.066 6        41.349                  
 18  6  1 18 15 34.8628020  0  7G01G07G11G17G18G28G30                           
  20748759.633 6   -130031.741 6      1001.316 6        41.920                  
  21084055.856 7    203130.316 7     -1572.026 7        45.093                  
  20809826.456 7     57991.654 7      -436.566 7        42.808                  
  22371611.084 6   -357798.871 6      2779.746 6        40.963                  
  21492970.300 6     91061.925 6      -706.064 6        40.699                  
  21322618.356 6   -257153.868 6      2101.279 6        40.478                  
  20340456.066 7    -25591.252 7       200.642 7        45.426                  
 18  6  1 18 15 34.9628020  0  7G01G07G11G17G18G28G30                           
  20748761.060 7   -130131.922 7      1002.729 7        42.316                  
  21084111.591 7    203287.458 7     -1570.236 7        45.798                  
  20809854.792 7     58035.221 7      -434.647 7        42.478                  
  22371581.893 6   -358076.897 6      2780.804 6        41.985                  
  21493003.186 7     91132.434 7      -703.952 7        44.290                  
  21322600.307 7   -257364.111 7      2103.818 7        42.928                  
  20340478.504 7    -25611.406 7       202.479 7        42.735                  
 18  6  1 18 15 35.0628020  0  7G01G07G11G17G18G28G30                           
  20748772.703 6   -130232.301 6      1004.293 6        41.608                  
  21084170.554 6    203444.414 6     -1568.939 6        41.191                  
  20809899.057 6     58078.591 6      -433.045 6        41.613                  
  22371554.049 6   -358355.104 6      2783.096 6        40.470                  
  21493050.067 7     91202.756 7      -702.704 7        42.418                  
  21322589.268 6   -257574.554 6      2104.765 6        39.755                  
  20340508.320 7    -25631.754 7       204.322 7        42.434                  
 18  6  1 18 15 35.1628020  0  7G01G07G11G17G18G28G30                           
  20748764.445 7   -130332.801 7      1005.999 7        44.423                  
  21084212.396 7    203601.248 7     -1567.928 7        42.936                  
  20809918.714 6     58121.840 6      -432.235 6        41.828                  
  22371516.109 6   -358633.450 6      2783.919 6        41.258                  
  21493074.000 6     91272.959 6      -701.438 6        41.572                  
  21322555.864 6   -257785.131 6      2106.162 6        40.232                  
  20340514.957 7    -25652.219 7       204.857 7        42.299                  
 18  6  1 18 15 35.2628020  0  7G01G07G11G17G18G28G30                           
  20748756.011 6   -130433.391 6      1006.113 6        41.787                  
  21084249.084 6    203757.983 6     -1566.944 6        41.349                  
  20809934.900 6     58165.001 6      -430.813 6        40.609                  
  22371472.467 6   -358911.889 6      2785.063 6        40.071                  
  21493100.567 7     91343.069 7      -700.711 7        43.364                  
  21322531.502 6   -257995.789 6      2107.629 6        39.550                  
  20340518.338 7    -25672.781 7       206.256 7        42.295                  
 18  6  1 18 15 35.3628020  0  7G01G07G11G17G18G28G30                           
  20748740.300 7   -130534.092 7      1007.907 7        42.464                  
  21084281.442 7    203914.597 7     -1565.299 7        42.683                  
  20809942.973 6     58208.037 6      -429.910 6        41.769                  
  22371426.465 6   -359190.446 6      2785.969 6        41.070                  
  21493118.741 7     91413.065 7      -699.511 7        44.335                  
  21322494.735 6   -258206.577 6      2108.542 6        40.026                  
  20340514.798 7    -25693.459 7       207.350 7        43.578                  
 18  6  1 18 15 35.4628020  0  7G01G07G11G17G18G28G30                           
  20748745.075 6   -130634.905 6      1008.277 6        40.123                  
  21084333.700 7    204071.104 7     -1564.889 7        42.257                  
  20809972.562 7     58250.971 7      -428.873 7        42.296                  
  22371395.934 6   -359469.117 6      2787.299 6        41.013                  
  21493153.944 7     91482.942 7      -697.966 7        42.988                  
  21322480.651 6   -258417.480 6      2109.463 6        39.602                  
  20340535.745 6    -25714.246 6       208.245 6        41.620                  
 18  6  1 18 15 35.5628020  0  7G01G07G11G17G18G28G30                           
  20748735.322 7   -130735.835 7      1009.487 7        42.773                  
  21084375.156 6    204227.504 6     -1563.223 6        41.806                  
  20809987.631 6     58293.787 6      -427.494 6        40.269                  
  22371351.243 7   -359747.890 7      2788.392 7        42.505                  
  21493174.342 7     91552.715 7      -697.441 7        44.008                  
  21322444.468 6   -258628.498 6      2110.691 6        39.682                  
  20340536.028 7    -25735.138 7       209.589 7        44.166                  
 18  6  1 18 15 35.6628020  0  7G01G07G11G17G18G28G30                           
  20748738.547 6   -130836.857 6      1011.146 6        40.907                  
  21084432.717 7    204383.792 7     -1562.813 7        42.776                  
  20810023.232 7     58336.504 7      -426.492 7        42.502                  
  22371320.380 7   -360026.786 7      2789.516 7        43.248                  
  21493212.724 6     91622.382 6      -696.018 6        41.936                  
  21322434.387 6   -258839.637 6      2111.858 6        39.726                  
  20340559.973 7    -25756.141 7       210.322 7        44.255                  
 18  6  1 18 15 35.7628020  0  7G01G07G11G17G18G28G30                           
  20748755.109 7   -130938.008 7      1012.285 7        42.212                  
  21084493.838 7    204539.961 7     -1560.143 7        44.941                  
  20810075.497 7     58379.101 7      -425.368 7        43.035                  
  22371296.715 6   -360305.799 6      2790.823 6        39.659                  
  21493258.856 6     91691.925 6      -694.732 6        41.379                  
  21322425.212 6   -259050.890 6      2113.235 6        41.175                  
  20340590.089 7    -25777.264 7       212.210 7        42.164                  
 18  6  1 18 15 35.8628020  0  7G01G07G11G17G18G28G30                           
  20748749.869 6   -131039.336 6      1014.078 6        41.250                  
  21084538.595 7    204695.947 7     -1559.437 7        43.270                  
  20810099.757 6     58421.513 6      -423.369 6        40.978                  
  22371260.652 6   -360585.001 6      2793.291 6        39.836                  
  21493288.375 7     91761.290 7      -692.594 7        43.890                  
  21322398.167 6   -259262.336 6      2115.560 6        39.759                  
  20340602.057 7    -25798.564 7       214.136 7        42.713                  
 18  6  1 18 15 35.9628020  0  7G01G07G11G17G18G28G30                           
  20748754.995 6   -131140.808 6      1015.711 6        41.370                  
  21084591.064 7    204851.780 7     -1557.391 7        44.233                  
  20810129.239 7     58463.773 7      -421.716 7        42.105                  
  22371228.057 7   -360864.350 7      2793.693 7        43.146                  
  21493325.050 7     91830.504 7      -691.657 7        43.280                  
  21322386.355 6   -259473.927 6      2116.571 6        40.248                  
  20340622.748 6    -25820.012 6       215.076 6        41.866                  
 18  6  1 18 15 36.0628020  0  7G01G07G11G17G18G28G30                           
  20748752.144 7   -131242.430 7      1016.920 7        43.214                  
  21084636.058 6    205007.465 6     -1555.888 6        41.383                  
  20810141.029 6     58505.887 6      -420.312 6        40.606                  
  22371188.209 6   -361143.857 6      2795.976 6        41.872                  
  21493349.741 6     91899.568 6      -689.593 6        41.441                  
  21322353.890 6   -259685.678 6      2118.696 6        39.089                  
  20340631.706 7    -25841.613 7       217.005 7        43.003                  
 18  6  1 18 15 42.1628020  0  7G01G07G11G17G18G28G30                           
  20748574.691 7   -131344.320 7      1018.308 7        42.832                  
  21084506.162 7    205163.185 7     -1554.873 7        45.237                  
  20809994.660 6     58547.894 6      -418.972 6        40.575                  
  22370981.802 6   -361424.089 6      2797.671 6        40.552                  
  21493207.550 6     91968.581 6      -688.389 6        41.218                  
  21322158.353 6   -259897.821 6      2119.132 6        39.927                  
  20340472.794 7    -25863.388 7       217.859 7        42.199                  
 18  6  1 18 15 42.2628020  0  7G01G07G11G17G18G28G30                           
  20748555.006 7   -131446.124 7      1019.984 7        42.069                  
  21084536.002 7    205318.378 7     -1553.159 7        43.484                  
  20809996.428 6     58589.676 6      -417.483 6        39.051                  
  22370932.165 6   -361703.324 6      2798.646 6        41.702                  
  21493222.898 7     92037.256 7      -687.070 7        42.941                  
  21322117.366 6   -260109.632 6      2121.609 6        38.824                  
  20340465.460 6    -25885.269 6       219.531 6        41.392                  
 18  6  1 18 15 42.3628020  0  7G01G07G11G17G18G28G30                           
  20748548.524 6   -131548.158 6      1020.560 6        41.266                  
  21084581.298 7    205473.658 7     -1552.674 7        42.688                  
  20810017.625 6     58631.368 6      -416.878 6        41.461                  
  22370890.154 6   -361983.248 6      2799.560 6        40.488                  
  21493248.403 7     92105.911 7      -686.553 7        42.024                  
  21322095.458 6   -260321.814 6      2122.276 6        40.314                  
  20340470.981 7    -25907.275 7       220.688 7        42.754                  
 18  6  1 18 15 42.4628020  0  7G01G07G11G17G18G28G30                           
  20748551.138 6   -131650.267 6      1021.382 6        41.292                  
  21084635.661 7    205628.852 7     -1551.173 7        43.866                  
  20810051.098 7     58673.010 7      -415.786 7        42.920                  
  22370865.140 6   -362263.243 6      2800.184 6        41.077                  
  21493282.905 7     92174.495 7      -685.265 7        42.608                  
  21322074.601 6   -260534.065 6      2122.064 6        36.401                  
  20340495.219 7    -25929.361 7       221.181 7        42.465                  
 18  6  1 18 15 42.5628020  0  7G01G07G11G17G18G28G30                           
  20748545.806 7   -131752.426 7      1022.055 7        42.175                  
  21084686.357 7    205783.978 7     -1551.330 7        43.486                  
  20810082.189 7     58714.567 7      -415.392 7        42.004                  
  22370827.550 7   -362543.319 7      2801.039 7        43.121                  
  21493313.858 7     92243.020 7      -685.130 7        43.197                  
  21322041.826 6   -260746.379 6      2123.692 6        41.744                  
  20340507.548 7    -25951.516 7       221.666 7        44.075                  
 18  6  1 18 15 42.6628020  0  7G01G07G11G17G18G28G30                           
  20748550.191 6   -131854.599 6      1021.275 6        40.827                  
  21084734.295 7    205939.111 7     -1551.236 7        43.605                  
  20810119.987 7     58756.122 7      -415.764 7        43.380                  
  22370796.838 6   -362823.393 6      2800.711 6        41.007                  
  21493355.565 6     92311.526 6      -685.251 6        40.630                  
  21322027.736 6   -260958.709 6      2123.623 6        39.918                  
  20340528.954 7    -25973.653 7       221.282 7        42.358                  
 18  6  1 18 15 42.7628020  0  7G01G07G11G17G18G28G30                           
  20748554.269 7   -131956.761 7      1022.232 7        43.211                  
  21084782.246 7    206094.236 7     -1551.013 7        45.056                  
  20810145.538 7     58797.689 7      -415.263 7        43.619                  
  22370761.537 6   -363103.469 6      2801.106 6        40.654                  
  21493386.981 7     92380.048 7      -685.341 7        42.562                  
  21322008.180 6   -261171.050 6      2123.506 6        39.621                  
  20340542.563 7    -25995.799 7       221.535 7        45.627                  
 18  6  1 18 15 42.8628020  0  7G01G07G11G17G18G28G30                           
  20748546.295 6   -132058.987 6      1022.420 6        41.521                  
  21084826.134 7    206249.303 7     -1550.384 7        42.726                  
  20810166.676 7     58839.188 7      -414.932 7        42.593                  
  22370721.623 6   -363383.605 6      2801.548 6        41.337                  
  21493414.034 7     92448.518 7      -684.169 7        43.047                  
  21321986.265 6   -261383.444 6      2124.597 6        38.376                  
  20340550.458 7    -26018.005 7       222.881 7        44.695                  
 18  6  1 18 15 42.9628020  0  7G01G07G11G17G18G28G30                           
  20748549.521 6   -132161.288 6      1023.074 6        40.196                  
  21084873.281 6    206404.298 6     -1549.567 6        41.923                  
  20810195.019 6     58880.604 6      -413.465 6        41.477                  
  22370691.678 6   -363663.817 6      2802.625 6        39.232                  
  21493448.512 7     92516.902 7      -682.967 7        42.225                  
  21321969.183 6   -261595.934 6      2124.935 6        39.926                  
  20340569.349 6    -26040.295 6       223.109 6        41.466                  
 18  6  1 18 15 43.0628020  0  7G01G07G11G17G18G28G30                           
  20748553.183 7   -132263.661 7      1024.724 7        42.110                  
  21084926.014 6    206559.194 6     -1548.252 6        41.843                  
  20810219.638 7     58921.948 7      -413.042 7        43.113                  
  22370657.001 6   -363944.119 6      2803.498 6        39.609                  
  21493480.181 7     92585.204 7      -682.886 7        44.100                  
  21321950.991 6   -261808.497 6      2126.592 6        41.220                  
  20340586.096 7    -26062.660 7       224.215 7        42.692                  
 18  6  1 18 15 43.1628020  0  7G01G07G11G17G18G28G30                           
  20748544.928 7   -132366.169 7      1025.446 7        44.637                  
  21084971.857 7    206713.985 7     -1547.435 7        42.841                  
  20810245.055 7     58963.173 7      -411.671 7        42.270                  
  22370621.265 6   -364224.554 6      2804.731 6        41.881                  
  21493512.203 6     92653.387 6      -680.918 6        41.967                  
  21321919.895 6   -262021.202 6      2127.375 6        39.719                  
  20340600.631 7    -26085.143 7       225.339 7        42.290                  
 18  6  1 18 15 43.2628020  0  7G01G07G11G17G18G28G30                           
  20748557.540 6   -132468.762 6      1024.109 6        41.851                  
  21085029.722 7    206868.671 7     -1546.591 7        43.983                  
  20810282.117 5     59004.299 5      -411.182 5        33.014                  
  22370595.059 5   -364505.073 5      2804.110 5        34.534                  
  21493547.705 6     92721.487 6      -682.882 6        40.208                  
  21321908.773 6   -262233.991 6      2126.775 6        36.242                  
  20340623.904 7    -26107.722 7       225.647 7        44.521                  
 18  6  1 18 15 43.3628020  0  5G01G11G17G28G30                                 
  20748562.101 4   -132569.277 4       979.237 4        29.490                  
  20810316.085 4     59045.985 4      -430.806 4        28.443                  
  22370569.452 4   -364784.136 4      2768.508 4        27.656                  
  21321903.275 4   -262443.853 4      2057.413 4        29.541                  
  20340648.518 4    -26129.113 4       191.479 4        27.448                  
 18  6  1 18 15 43.4628020  0  5G01G11G17G28G30                                 
  20748559.399 6   -132663.041 6       884.223 6        37.693                  
  20810343.536 4     59092.108 4      -505.497 4        27.739                  
  22370530.364 4   -365056.745 4      2674.976 4        27.611                  
  21321876.843 4   -262646.131 4      1986.379 4        29.609                  
  20340658.308 5    -26144.172 5       101.702 5        32.364                  
 18  6  1 18 15 43.5628020  0  5G01G11G17G28G30                                 
  20748568.657 6   -132748.517 6       847.543 6        41.895                  
  20810375.261 7     59148.219 7      -591.466 7        42.097                  
  22370502.023 7   -365320.747 7      2626.649 7        42.453                  
  21321861.451 6   -262842.027 6      1949.755 6        38.730                  
  20340684.353 7    -26150.507 7        46.568 7        42.756                  
 18  6  1 18 15 43.6628020  0  5G01G11G17G28G30                                 
  20748566.737 7   -132833.300 7       848.380 7        43.386                  
  20810403.036 7     59207.168 7      -589.033 7        42.814                  
  22370468.385 7   -365583.478 7      2627.416 7        42.472                  
  21321836.637 6   -263037.027 6      1950.520 6        40.390                  
  20340698.606 7    -26155.278 7        47.949 7        42.399                  
 18  6  1 18 15 43.7628020  0  5G01G11G17G28G30                                 
  20748555.824 6   -132918.145 6       849.118 6        41.574                  
  20810415.045 6     59266.032 6      -587.702 6        41.788                  
  22370423.454 6   -365846.288 6      2629.008 6        41.435                  
  21321807.734 6   -263232.117 6      1951.310 6        38.974                  
  20340700.543 7    -26160.115 7        49.138 7        43.108                  
 18  6  1 18 15 43.8628020  0  5G01G11G17G28G30                                 
  20748554.649 7   -133003.152 7       850.514 7        42.843                  
  20810442.864 6     59324.738 6      -586.644 6        40.183                  
  22370389.487 7   -366109.236 7      2629.620 7        42.952                  
  21321787.938 6   -263427.349 6      1953.197 6        38.812                  
  20340715.132 7    -26165.117 7        50.475 7        43.809                  
 18  6  1 18 15 44.5628020  0  7G01G07G11G17G18G28G30                           
  20748535.683 7   -133642.304 7       888.376 7        43.475                  
  21085649.094 7    209162.976 7     -1712.529 7        42.086                  
  20810613.257 6     59762.644 6      -573.803 6        41.970                  
  22370135.184 6   -368082.241 6      2602.651 6        41.005                  
  21493953.198 7     93845.847 7      -857.673 7        43.881                  
  21321626.071 6   -264892.870 6      1946.939 6        37.657                  
  20340806.366 7    -26204.606 7        69.889 7        43.253                  
 18  6  1 18 15 44.6628020  0  7G01G07G11G17G18G28G30                           
  20748537.407 7   -133685.570 7       856.739 7        42.867                  
  21085694.863 7    209249.636 7     -1715.435 7        42.507                  
  20810638.041 7     59791.974 7      -580.272 7        42.168                  
  22370096.529 7   -368215.439 7      2636.911 7        43.738                  
  21493983.840 6     93888.761 6      -849.655 6        41.461                  
  21321599.397 7   -264991.867 7      1960.034 7        42.473                  
  20340816.469 6    -26207.473 6        56.836 6        41.844                  
 18  6  1 18 15 44.7628020  0  7G01G07G11G17G18G28G30                           
  20748534.123 7   -133771.282 7       857.503 7        43.427                  
  21085737.495 7    209421.166 7     -1715.285 7        45.014                  
  20810669.036 6     59849.963 6      -579.827 6        41.940                  
  22370066.152 7   -368479.149 7      2637.127 7        43.150                  
  21494016.521 7     93973.727 7      -849.359 7        42.562                  
  21321570.964 6   -265187.883 6      1960.382 6        39.940                  
  20340831.633 6    -26213.185 6        57.241 6        41.437                  
 18  6  1 18 15 44.8628020  0  7G01G07G11G17G18G28G30                           
  20748538.272 7   -133857.047 7       857.776 7        42.463                  
  21085790.723 7    209592.655 7     -1714.385 7        42.562                  
  20810698.804 6     59907.887 6      -579.121 6        40.934                  
  22370033.308 6   -368742.900 6      2637.712 6        41.790                  
  21494050.280 7     94058.620 7      -848.631 7        42.704                  
  21321549.332 6   -265383.947 6      1960.619 6        39.323                  
  20340849.964 7    -26218.953 7        58.230 7        44.002                  
 18  6  1 18 15 44.9628020  0  7G01G07G11G17G18G28G30                           
  20748531.521 7   -133942.863 7       858.970 7        44.025                  
  21085836.579 6    209764.079 6     -1713.920 6        41.656                  
  20810720.497 6     59965.768 6      -577.987 6        39.730                  
  22369995.882 6   -369006.731 6      2639.108 6        40.876                  
  21494077.167 7     94143.475 7      -848.485 7        42.308                  
  21321520.489 6   -265580.067 6      1961.721 6        38.852                  
  20340860.092 7    -26224.772 7        58.537 7        42.931                  
 18  6  1 18 15 45.0628020  0  7G01G07G11G17G18G28G30                           
  20748530.220 7   -134028.810 7       859.811 7        42.871                  
  21085888.965 7    209935.391 7     -1712.428 7        42.807                  
  20810748.734 6     60023.524 6      -576.990 6        41.189                  
  22369963.816 6   -369270.662 6      2639.827 6        41.183                  
  21494107.006 7     94228.201 7      -846.428 7        42.102                  
  21321512.918 6   -265776.309 6      1963.124 6        39.970                  
  20340876.675 7    -26230.706 7        59.929 7        42.900                  
 18  6  1 18 15 45.1628020  0  7G01G07G11G17G18G28G30                           
  20748528.326 7   -134114.854 7       860.767 7        42.942                  
  21085935.844 6    210106.576 6     -1711.096 6        40.866                  
  20810775.256 7     60081.168 7      -575.946 7        42.336                  
  22369924.535 7   -369534.724 7      2641.535 7        43.103                  
  21494135.665 7     94312.816 7      -845.465 7        42.206                  
  21321486.248 6   -265972.686 6      1964.741 6        40.004                  
  20340885.172 7    -26236.758 7        60.981 7        42.337                  
 18  6  1 18 15 45.2628020  0  7G01G07G11G17G18G28G30                           
  20748518.016 6   -134201.017 6       862.149 6        41.559                  
  21085974.459 7    210277.663 7     -1710.833 7        42.406                  
  20810789.088 7     60138.703 7      -574.938 7        43.811                  
  22369877.675 6   -369798.902 6      2641.881 6        41.781                  
  21494161.021 7     94397.334 7      -844.393 7        42.296                  
  21321451.520 6   -266169.161 6      1965.134 6        38.246                  
  20340886.831 7    -26242.917 7        62.018 7        43.650                  
 18  6  1 18 15 45.3628020  0  7G01G07G11G17G18G28G30                           
  20748528.550 6   -134287.285 6       863.384 6        41.858                  
  21086030.683 6    210448.633 6     -1709.000 6        39.234                  
  20810825.720 7     60196.124 7      -573.536 7        43.403                  
  22369853.832 6   -370063.181 6      2643.662 6        41.371                  
  21494200.790 7     94481.732 7      -843.994 7        42.110                  
  21321433.871 6   -266365.766 6      1966.455 6        38.956                  
  20340914.941 6    -26249.189 6        63.410 6        41.076                  
 18  6  1 18 15 45.4628020  0  7G01G07G11G17G18G28G30                           
  20748539.064 6   -134373.646 6       864.029 6        40.775                  
  21086094.701 7    210619.499 7     -1708.421 7        42.233                  
  20810869.506 6     60253.453 6      -572.915 6        39.931                  
  22369832.035 6   -370327.562 6      2644.169 6        41.579                  
  21494246.242 6     94566.035 6      -842.478 6        41.970                  
  21321427.979 6   -266562.463 6      1967.203 6        37.799                  
  20340950.391 7    -26255.552 7        63.907 7        45.021                  
 18  6  1 18 15 45.5628020  0  7G01G07G11G17G18G28G30                           
  20748537.242 7   -134460.071 7       864.372 7        43.079                  
  21086138.432 6    210790.317 6     -1707.960 6        40.887                  
  20810889.492 7     60310.726 7      -572.515 7        42.160                  
  22369792.918 7   -370592.017 7      2644.703 7        44.028                  
  21494274.409 7     94650.284 7      -842.174 7        44.437                  
  21321413.844 6   -266759.211 6      1967.743 6        40.140                  
  20340959.219 7    -26261.969 7        64.700 7        45.122                  
 18  6  1 18 15 45.6628020  0  7G01G07G11G17G18G28G30                           
  20748522.919 6   -134546.569 6       865.600 6        41.856                  
  21086174.961 7    210961.053 7     -1706.509 7        43.899                  
  20810906.350 7     60367.904 7      -571.025 7        42.881                  
  22369748.576 7   -370856.539 7      2645.894 7        42.025                  
  21494292.581 7     94734.443 7      -840.846 7        42.293                  
  21321381.441 6   -266956.059 6      1969.331 6        40.334                  
  20340955.623 7    -26268.486 7        65.356 7        42.315                  
 18  6  1 18 15 45.7628020  0  7G01G07G11G17G18G28G30                           
  20748525.794 7   -134633.176 7       866.032 7        44.133                  
  21086224.695 7    211131.672 7     -1705.742 7        42.778                  
  20810932.362 7     60424.980 7      -570.459 7        42.934                  
  22369713.519 7   -371121.180 7      2646.709 7        42.901                  
  21494329.291 7     94818.501 7      -840.339 7        42.188                  
  21321352.921 6   -267153.027 6      1969.949 6        40.040                  
  20340974.477 6    -26275.088 6        66.528 6        41.983                  
 18  6  1 18 15 45.8628020  0  7G01G07G11G17G18G28G30                           
  20748511.582 7   -134719.821 7       867.209 7        43.216                  
  21086259.245 7    211302.265 7     -1705.541 7        42.817                  
  20810948.301 7     60482.019 7      -570.035 7        42.486                  
  22369672.144 6   -371385.862 6      2647.141 6        40.859                  
  21494353.619 7     94902.513 7      -839.972 7        43.520                  
  21321320.353 6   -267350.032 6      1970.101 6        39.245                  
  20340977.388 7    -26281.750 7        67.133 7        44.132                  
 18  6  1 18 15 45.9628020  0  7G01G07G11G17G18G28G30                           
  20748521.907 7   -134806.587 7       868.170 7        43.034                  
  21086314.753 6    211472.716 6     -1703.593 6        40.897                  
  20810988.079 7     60538.937 7      -568.728 7        43.205                  
  22369649.661 7   -371650.664 7      2648.847 7        43.150                  
  21494396.868 7     94986.419 7      -838.375 7        44.375                  
  21321312.764 6   -267547.153 6      1972.339 6        37.337                  
  20341008.025 6    -26288.512 6        68.099 6        41.887                  
 18  6  1 18 15 46.0628020  0  7G01G07G11G17G18G28G30                           
  20748519.026 6   -134893.479 6       869.723 6        41.979                  
  21086361.312 7    211643.044 7     -1702.915 7        43.538                  
  20811006.252 6     60595.723 6      -566.774 6        41.654                  
  22369607.845 6   -371915.607 6      2650.465 6        41.359                  
  21494419.370 7     95070.191 7      -836.852 7        42.898                  
  21321284.175 6   -267744.433 6      1973.319 6        41.207                  
  20341012.289 6    -26295.409 6        69.965 6        41.977                  
 18  6  1 18 15 46.1628020  0  7G01G07G11G17G18G28G30                           
  20748511.938 6   -134980.529 6       871.252 6        40.964                  
  21086405.857 7    211813.221 7     -1701.427 7        43.393                  
  20811033.081 7     60652.361 7      -565.881 7        42.491                  
  22369569.926 6   -372180.703 6      2651.083 6        41.726                  
  21494451.245 7     95153.795 7      -835.493 7        42.605                  
  21321259.237 6   -267941.859 6      1975.227 6        38.817                  
  20341023.934 7    -26302.475 7        70.870 7        43.762                  
 18  6  1 18 15 46.2628020  0  7G01G07G11G17G18G28G30                           
  20748512.343 7   -135067.662 7       871.347 7        42.439                  
  21086449.253 6    211983.300 6     -1700.456 6        41.751                  
  20811058.400 6     60708.907 6      -564.829 6        41.259                  
  22369539.179 6   -372445.901 6      2652.666 6        41.380                  
  21494479.734 6     95237.327 6      -835.048 6        41.943                  
  21321238.145 7   -268139.373 7      1975.493 7        42.745                  
  20341037.050 6    -26309.620 6        71.901 6        41.798                  
 18  6  1 18 15 46.3628020  0  7G01G07G11G17G18G28G30                           
  20748526.317 7   -135154.867 7       872.687 7        45.036                  
  21086511.689 7    212153.326 7     -1699.721 7        44.224                  
  20811102.306 7     60765.374 7      -564.664 7        43.009                  
  22369516.925 7   -372711.151 7      2652.565 7        43.039                  
  21494522.801 6     95320.777 6      -834.240 6        41.136                  
  21321229.829 6   -268336.961 6      1976.216 6        40.684                  
  20341069.033 7    -26316.834 7        72.394 7        42.685                  
 18  6  1 18 15 46.4628020  0  7G01G07G11G17G18G28G30                           
  20748517.216 7   -135242.119 7       872.562 7        43.784                  
  21086554.924 7    212323.285 7     -1698.871 7        42.696                  
  20811123.410 7     60821.799 7      -563.948 7        44.242                  
  22369479.911 6   -372976.472 6      2653.738 6        40.640                  
  21494547.443 7     95404.193 7      -833.544 7        43.986                  
  21321203.280 6   -268534.612 6      1976.894 6        38.405                  
  20341076.987 7    -26324.092 7        73.176 7        42.814                  
 18  6  1 18 15 46.5628020  0  7G01G07G11G17G18G28G30                           
  20748508.215 6   -135329.476 6       874.101 6        41.770                  
  21086598.774 7    212493.139 7     -1698.558 7        43.380                  
  20811137.764 6     60878.110 6      -562.617 6        41.535                  
  22369435.328 6   -373241.894 6      2654.411 6        40.723                  
  21494572.013 6     95487.491 6      -832.808 6        41.976                  
  21321174.525 6   -268732.372 6      1978.074 6        38.543                  
  20341081.687 7    -26331.463 7        73.879 7        42.446                  
 18  6  1 18 15 46.6628020  0  7G01G07G11G17G18G28G30                           
  20748488.460 6   -135416.914 6       874.876 6        41.251                  
  21086628.551 6    212662.909 6     -1696.914 6        41.635                  
  20811144.339 7     60934.351 7      -562.153 7        42.151                  
  22369380.516 6   -373507.397 6      2656.034 6        41.591                  
  21494589.944 7     95570.725 7      -831.601 7        43.255                  
  21321138.498 6   -268930.201 6      1978.785 6        38.987                  
  20341071.123 6    -26338.908 6        75.239 6        40.942                  
 18  6  1 18 15 46.7628020  0  7G01G07G11G17G18G28G30                           
  20748487.265 7   -135504.446 7       875.433 7        43.868                  
  21086676.668 7    212832.589 7     -1696.713 7        42.786                  
  20811173.119 7     60990.487 7      -560.768 7        42.335                  
  22369342.210 7   -373773.009 7      2656.084 7        43.112                  
  21494621.027 6     95653.837 6      -831.152 6        40.657                  
  21321102.547 6   -269128.171 6      1980.087 6        39.224                  
  20341082.041 7    -26346.458 7        75.690 7        44.279                  
 18  6  1 18 15 46.8628020  0  7G01G07G11G17G18G28G30                           
  20748495.559 7   -135592.036 7       876.577 7        43.303                  
  21086732.223 6    213002.206 6     -1695.603 6        41.067                  
  20811204.385 7     61046.567 7      -560.623 7        42.885                  
  22369317.066 6   -374038.675 6      2657.077 6        41.931                  
  21494662.150 7     95736.897 7      -829.646 7        43.745                  
  21321090.290 6   -269326.176 6      1980.403 6        40.391                  
  20341111.949 7    -26354.062 7        76.498 7        43.035                  
 18  6  1 18 15 46.9628020  0  7G01G07G11G17G18G28G30                           
  20748505.920 7   -135679.727 7       877.367 7        42.683                  
  21086791.536 7    213171.723 7     -1694.768 7        44.446                  
  20811246.108 6     61102.542 6      -559.139 6        41.403                  
  22369291.244 6   -374304.452 6      2658.517 6        41.547                  
  21494698.923 7     95819.867 7      -829.259 7        42.435                  
  21321083.244 6   -269524.298 6      1981.765 6        40.217                  
  20341136.025 7    -26361.766 7        77.285 7        43.749                  
 18  6  1 18 15 47.0628020  0  7G01G07G11G17G18G28G30                           
  20748502.605 7   -135767.509 7       878.260 7        42.949                  
  21086836.998 7    213341.135 7     -1693.549 7        42.725                  
  20811269.484 7     61158.429 7      -558.536 7        42.012                  
  22369256.007 6   -374570.330 6      2659.257 6        41.845                  
  21494732.933 7     95902.737 7      -828.691 7        45.400                  
  21321064.314 6   -269722.507 6      1982.685 6        40.198                  
  20341152.319 6    -26369.565 6        78.441 6        41.245                  
 18  6  1 18 15 47.1628020  0  7G01G07G11G17G18G28G30                           
  20748501.046 6   -135855.401 6       879.256 6        41.790                  
  21086881.485 6    213510.470 6     -1692.712 6        41.272                  
  20811291.783 6     61214.217 6      -557.187 6        40.564                  
  22369216.824 6   -374836.289 6      2659.964 6        41.918                  
  21494757.474 7     95985.519 7      -827.009 7        42.051                  
  21321041.723 6   -269920.825 6      1983.982 6        40.066                  
  20341157.765 7    -26377.460 7        80.044 7        42.059                  
 18  6  1 18 15 47.2628020  0  7G01G07G11G17G18G28G30                           
  20748488.469 7   -135943.349 7       880.084 7        42.609                  
  21086923.320 7    213679.705 7     -1692.215 7        42.190                  
  20811308.711 7     61269.916 7      -556.718 7        42.371                  
  22369171.199 7   -375102.344 7      2660.783 7        42.379                  
  21494785.878 6     96068.211 6      -826.860 6        39.695                  
  21321001.976 6   -270119.235 6      1983.939 6        39.024                  
  20341163.573 7    -26385.435 7        79.803 7        44.118                  
 18  6  1 18 15 47.3628020  0  7G01G07G11G17G18G28G30                           
  20748486.717 7   -136031.367 7       880.427 7        42.376                  
  21086972.637 6    213848.871 6     -1691.206 6        41.649                  
  20811335.810 6     61325.556 6      -556.240 6        41.717                  
  22369140.121 6   -375368.465 6      2661.934 6        41.373                  
  21494812.637 7     96150.847 7      -825.643 7        43.176                  
  21320981.391 6   -270317.702 6      1985.761 6        39.536                  
  20341177.445 7    -26393.474 7        80.527 7        43.194                  
 18  6  1 18 15 47.4628020  0  7G01G07G11G17G18G28G30                           
  20748496.411 6   -136119.469 6       881.754 6        41.046                  
  21087027.079 7    214017.960 7     -1690.615 7        43.135                  
  20811364.693 7     61381.115 7      -555.199 7        44.265                  
  22369112.585 6   -375634.673 6      2662.226 6        41.988                  
  21494849.857 7     96233.389 7      -825.399 7        45.269                  
  21320968.001 6   -270516.262 6      1985.401 6        39.361                  
  20341202.510 7    -26401.596 7        81.585 7        43.586                  
 18  6  1 18 15 47.5628020  0  7G01G07G11G17G18G28G30                           
  20748507.333 7   -136207.658 7       881.892 7        43.340                  
  21087083.256 7    214186.974 7     -1689.754 7        42.743                  
  20811407.715 7     61436.603 7      -553.981 7        43.227                  
  22369092.369 7   -375900.959 7      2663.481 7        43.728                  
  21494891.392 6     96315.861 6      -824.087 6        40.206                  
  21320959.532 7   -270714.907 7      1986.897 7        42.660                  
  20341232.638 7    -26409.792 7        82.559 7        44.068                  
 18  6  1 18 15 47.6628020  0  7G01G07G11G17G18G28G30                           
  20748506.265 7   -136295.918 7       883.506 7        42.139                  
  21087129.250 7    214355.894 7     -1688.576 7        42.883                  
  20811433.712 6     61491.992 6      -553.633 6        41.137                  
  22369054.445 6   -376167.337 6      2664.116 6        41.896                  
  21494922.116 6     96398.244 6      -823.275 6        41.943                  
  21320930.483 6   -270913.650 6      1987.905 6        37.228                  
  20341243.440 7    -26418.073 7        83.147 7        42.429                  
 18  6  1 18 15 47.7628020  0  7G01G07G11G17G18G28G30                           
  20748493.285 7   -136384.309 7       884.432 7        42.852                  
  21087166.201 7    214524.702 7     -1687.360 7        43.129                  
  20811447.211 6     61547.261 6      -551.741 6        41.368                  
  22369005.532 6   -376433.851 6      2665.817 6        41.964                  
  21494947.836 6     96480.498 6      -822.111 6        40.598                  
  21320901.533 6   -271112.511 6      1989.397 6        38.089                  
  20341243.608 7    -26426.489 7        85.276 7        42.581                  
 18  6  1 18 15 47.8628020  0  7G01G07G11G17G18G28G30                           
  20748503.218 7   -136472.825 7       885.457 7        42.296                  
  21087228.085 6    214693.366 6     -1686.327 6        41.717                  
  20811487.938 6     61602.396 6      -550.947 6        41.932                  
  22368980.554 7   -376700.485 7      2667.027 7        42.537                  
  21494985.180 6     96562.632 6      -820.728 6        40.625                  
  21320890.514 6   -271311.511 6      1990.713 6        39.645                  
  20341270.280 7    -26435.029 7        85.701 7        42.540                  
 18  6  1 18 15 47.9628020  0  7G01G07G11G17G18G28G30                           
  20748492.924 7   -136561.421 7       886.198 7        43.238                  
  21087272.454 7    214861.946 7     -1685.363 7        43.300                  
  20811506.403 6     61657.449 6      -550.475 6        40.891                  
  22368946.602 7   -376967.204 7      2667.435 7        43.743                  
  21495006.925 6     96644.685 6      -820.413 6        41.555                  
  21320874.017 6   -271510.599 6      1990.929 6        40.474                  
  20341279.637 7    -26443.656 7        86.395 7        43.708                  
 18  6  1 18 15 48.0628020  0  7G01G07G11G17G18G28G30                           
  20748482.549 6   -136650.047 6       886.187 6        41.323                  
  21087307.073 7    215030.512 7     -1685.768 7        44.148                  
  20811517.838 6     61712.483 6      -550.726 6        40.358                  
  22368902.760 6   -377233.950 6      2667.424 6        40.581                  
  21495027.157 7     96726.714 7      -820.117 7        43.385                  
  21320839.868 6   -271709.709 6      1990.863 6        40.814                  
  20341278.345 6    -26452.294 6        85.877 6        41.863                  
 18  6  1 18 15 42.1628020  0  7G01G07G11G17G18G28G30                           
  20748633.691 7   -136738.503 7       885.346 7        43.176                  
  21087503.434 6    215198.918 6     -1686.593 6        40.602                  
  20811698.873 6     61767.521 6      -551.134 6        41.594                  
  22369017.540 7   -377500.072 7      2666.433 7        43.243                  
  21495216.708 7     96808.693 7      -821.269 7        43.492                  
  21320962.867 6   -271908.543 6      1990.387 6        38.747                  
  20341446.242 7    -26460.865 7        86.036 7        42.647                  
 18  6  1 18 15 42.2628020  0  7G01G07G11G17G18G28G30                           
  20748636.916 7   -136827.122 7       884.729 7        43.050                  
  21087554.675 6    215367.793 6     -1686.900 6        40.857                  
  20811727.759 7     61822.711 7      -551.245 7        42.915                  
  22368983.157 7   -377767.299 7      2666.473 7        42.816                  
  21495253.469 7     96890.938 7      -821.687 7        42.468                  
  21320944.970 6   -272107.784 6      1989.443 6        40.022                  
  20341465.575 6    -26469.410 6        85.092 6        41.792                  
 18  6  1 18 15 42.3628020  0  7G01G07G11G17G18G28G30                           
  20748628.844 7   -136915.613 7       885.506 7        44.006                  
  21087598.092 7    215536.470 7     -1686.356 7        43.825                  
  20811751.896 6     61877.864 6      -551.594 6        41.607                  
  22368941.718 6   -378033.936 6      2666.453 6        41.006                  
  21495285.858 6     96973.091 6      -821.089 6        41.803                  
  21320908.019 6   -272306.787 6      1991.178 6        39.387                  
  20341475.725 6    -26477.938 6        85.647 6        40.957                  
 18  6  1 18 15 42.4628020  0  7G01G07G11G17G18G28G30                           
  20748639.894 7   -137004.167 7       885.535 7        42.795                  
  21087657.320 6    215705.097 6     -1685.896 6        41.850                  
  20811789.250 7     61932.973 7      -550.974 7        42.590                  
  22368915.784 7   -378300.625 7      2666.897 7        43.342                  
  21495323.878 7     97055.180 7      -821.073 7        42.939                  
  21320898.681 6   -272505.846 6      1990.715 6        39.637                  
  20341502.153 7    -26486.511 7        85.641 7        42.646                  
 18  6  1 18 15 42.5628020  0  7G01G07G11G17G18G28G30                           
  20748647.664 6   -137092.764 6       886.187 6        41.346                  
  21087716.644 7    215873.679 7     -1686.032 7        44.587                  
  20811828.705 6     61988.019 6      -549.857 6        41.216                  
  22368890.069 7   -378567.370 7      2667.950 7        42.787                  
  21495362.076 6     97137.226 6      -820.165 6        41.367                  
  21320886.018 6   -272704.968 6      1991.367 6        39.119                  
  20341528.721 6    -26495.134 6        86.626 6        41.524                  
 18  6  1 18 15 42.6628020  0  7G01G07G11G17G18G28G30                           
  20748642.382 7   -137181.415 7       886.519 7        43.063                  
  21087763.717 6    216042.192 6     -1684.478 6        41.981                  
  20811846.983 7     62043.005 7      -549.826 7        43.165                  
  22368848.227 6   -378834.181 6      2668.382 6        39.072                  
  21495386.194 6     97219.215 6      -819.311 6        41.364                  
  21320859.433 6   -272904.152 6      1992.445 6        40.083                  
  20341534.993 7    -26503.821 7        86.991 7        44.397                  
 18  6  1 18 15 42.7628020  0  7G01G07G11G17G18G28G30                           
  20748644.265 7   -137270.114 7       887.143 7        43.205                  
  21087807.800 7    216210.660 7     -1684.577 7        42.652                  
  20811876.030 6     62097.947 6      -549.440 6        39.729                  
  22368814.901 7   -379101.039 7      2668.999 7        43.922                  
  21495416.335 7     97301.162 7      -819.389 7        42.914                  
  21320844.744 6   -273103.395 6      1991.756 6        40.303                  
  20341546.718 7    -26512.543 7        87.206 7        42.295                  
 18  6  1 18 15 42.8628020  0  7G01G07G11G17G18G28G30                           
  20748637.638 7   -137358.790 7       886.579 7        42.594                  
  21087850.151 7    216379.154 7     -1685.136 7        43.610                  
  20811890.172 6     62152.917 6      -549.808 6        40.377                  
  22368771.999 6   -379367.870 6      2667.867 6        41.338                  
  21495442.766 6     97383.135 6      -819.894 6        40.336                  
  21320820.550 6   -273302.617 6      1992.427 6        39.047                  
  20341553.426 7    -26521.247 7        87.026 7        43.825                  
 18  6  1 18 15 42.9628020  0  7G01G07G11G17G18G28G30                           
  20748627.265 7   -137447.444 7       887.004 7        43.801                  
  21087892.149 6    216547.656 6     -1684.594 6        41.219                  
  20811902.950 6     62207.897 6      -549.661 6        41.613                  
  22368729.220 7   -379634.693 7      2668.371 7        42.185                  
  21495469.530 7     97465.122 7      -819.651 7        42.372                  
  21320792.345 6   -273501.820 6      1992.561 6        41.696                  
  20341561.264 6    -26529.933 6        86.982 6        41.923                  
 18  6  1 18 15 43.0628020  0  7G01G07G11G17G18G28G30                           
  20748620.150 6   -137536.168 6       887.974 6        41.306                  
  21087931.616 7    216716.095 7     -1683.897 7        44.027                  
  20811924.885 7     62262.816 7      -548.495 7        42.099                  
  22368692.545 7   -379901.582 7      2669.730 7        42.166                  
  21495491.630 6     97547.037 6      -818.665 6        41.418                  
  21320761.293 6   -273701.103 6      1993.110 6        39.691                  
  20341565.425 7    -26538.679 7        88.045 7        43.230                  
 18  6  1 18 15 43.1628020  0  7G01G07G11G17G18G28G30                           
  20748626.238 7   -137625.064 7       889.742 7        45.771                  
  21087983.519 7    216884.356 7     -1681.863 7        43.710                  
  20811959.256 6     62317.557 6      -546.199 6        41.294                  
  22368662.024 7   -380168.655 7      2671.770 7        43.582                  
  21495526.661 6     97628.790 6      -816.554 6        41.799                  
  21320742.696 6   -273900.565 6      1995.721 6        37.685                  
  20341584.410 6    -26547.606 6        90.457 6        41.137                  
 18  6  1 18 15 43.2628020  0  7G01G07G11G17G18G28G30                           
  20748633.176 6   -137714.138 6       891.376 6        41.631                  
  21088038.186 7    217052.436 7     -1679.848 7        42.782                  
  20811995.005 7     62372.108 7      -544.657 7        42.632                  
  22368637.479 6   -380435.907 6      2673.551 6        40.213                  
  21495565.454 6     97710.344 6      -814.960 6        40.820                  
  21320725.667 6   -274100.202 6      1997.116 6        37.921                  
  20341611.496 7    -26556.716 7        91.881 7        42.447                  
 18  6  1 18 15 43.3628020  0  7G01G07G11G17G18G28G30                           
  20748629.299 7   -137803.387 7       893.574 7        42.919                  
  21088087.212 7    217220.337 7     -1678.397 7        43.274                  
  20812023.366 7     62426.502 7      -543.405 7        42.850                  
  22368605.695 6   -380703.341 6      2674.965 6        39.715                  
  21495597.975 7     97791.741 7      -813.063 7        42.674                  
  21320703.614 6   -274300.032 6      1999.151 6        39.698                  
  20341629.462 7    -26565.997 7        93.591 7        43.672                  
 18  6  1 18 15 43.4628020  0  7G01G07G11G17G18G28G30                           
  20748631.966 7   -137892.777 7       894.754 7        43.665                  
  21088141.021 6    217388.101 6     -1676.525 6        41.426                  
  20812055.862 7     62480.741 7      -541.637 7        43.359                  
  22368570.627 6   -380970.921 6      2676.322 6        40.469                  
  21495633.295 6     97872.993 6      -811.831 6        41.975                  
  21320681.334 6   -274500.004 6      2000.599 6        39.092                  
  20341647.239 6    -26575.432 6        94.752 6        41.519                  
 18  6  1 18 15 43.5628020  0  7G01G07G11G17G18G28G30                           
  20748634.579 6   -137982.293 6       895.434 6        41.471                  
  21088189.695 7    217555.737 7     -1676.126 7        43.542                  
  20812081.509 7     62534.861 7      -540.679 7        42.384                  
  22368535.790 6   -381238.622 6      2677.655 6        39.625                  
  21495666.616 6     97954.113 6      -810.881 6        40.660                  
  21320659.133 6   -274700.104 6      2001.345 6        38.748                  
  20341663.412 6    -26584.967 6        96.208 6        41.398                  
 18  6  1 18 15 43.6628020  0  7G01G07G11G17G18G28G30                           
  20748622.053 6   -138071.916 6       896.607 6        41.514                  
  21088227.847 6    217723.259 6     -1674.619 6        41.840                  
  20812098.076 6     62588.858 6      -539.266 6        40.789                  
  22368489.186 7   -381506.437 7      2678.895 7        42.322                  
  21495692.548 6     98035.125 6      -809.341 6        41.991                  
  21320624.229 6   -274900.318 6      2002.928 6        38.953                  
  20341665.177 7    -26594.627 7        96.686 7        44.808                  
 18  6  1 18 15 43.7628020  0  7G01G07G11G17G18G28G30                           
  20748616.096 6   -138161.662 6       898.255 6        40.033                  
  21088271.977 7    217890.662 7     -1673.412 7        44.453                  
  20812121.314 6     62642.751 6      -538.433 6        39.802                  
  22368456.723 7   -381774.377 7      2680.006 7        42.246                  
  21495725.463 7     98116.021 7      -808.017 7        42.744                  
  21320606.673 6   -275100.670 6      2003.903 6        39.132                  
  20341682.643 7    -26604.405 7        98.885 7        42.749                  
 18  6  1 18 15 43.8628020  0  7G01G07G11G17G18G28G30                           
  20748617.109 7   -138251.530 7       899.192 7        42.483                  
  21088321.360 7    218057.926 7     -1671.651 7        42.333                  
  20812146.889 6     62696.503 6      -536.720 6        39.850                  
  22368421.796 7   -382042.451 7      2681.353 7        42.920                  
  21495749.923 7     98196.784 7      -807.345 7        42.484                  
  21320587.428 6   -275301.144 6      2005.968 6        38.027                  
  20341692.181 7    -26614.324 7        99.788 7        42.555                  
 18  6  1 18 15 43.9628020  0  7G01G07G11G17G18G28G30                           
  20748616.968 6   -138341.540 6       900.821 6        41.686                  
  21088366.559 7    218225.067 7     -1670.855 7        43.022                  
  20812174.542 6     62750.132 6      -535.589 6        41.180                  
  22368387.781 6   -382310.653 6      2682.370 6        41.691                  
  21495782.862 6     98277.427 6      -805.816 6        40.518                  
  21320563.550 6   -275501.759 6      2006.435 6        40.645                  
  20341706.850 6    -26624.362 6       101.233 6        41.594                  
 18  6  1 18 15 44.0628020  0  7G01G07G11G17G18G28G30                           
  20748619.918 7   -138431.654 7       901.810 7        43.371                  
  21088418.245 6    218392.090 6     -1669.998 6        41.527                  
  20812200.112 6     62803.644 6      -534.770 6        41.204                  
  22368353.380 7   -382578.980 7      2684.145 7        42.208                  
  21495811.436 7     98357.947 7      -804.134 7        42.461                  
  21320539.631 6   -275702.485 6      2008.012 6        40.100                  
  20341720.848 7    -26634.507 7       101.879 7        43.573                  
 18  6  1 18 15 44.1628020  0  7G01G07G11G17G18G28G30                           
  20748621.974 7   -138521.861 7       902.502 7        43.064                  
  21088472.612 6    218559.015 6     -1668.537 6        41.070                  
  20812230.895 7     62857.046 7      -533.559 7        43.065                  
  22368321.619 6   -382847.414 6      2685.026 6        40.336                  
  21495846.805 6     98438.371 6      -804.347 6        41.224                  
  21320527.644 6   -275903.315 6      2008.859 6        39.034                  
  20341741.953 7    -26644.760 7       102.807 7        45.276                  
 18  6  1 18 15 44.2628020  0  7G01G07G11G17G18G28G30                           
  20748617.792 7   -138612.244 7       904.776 7        43.231                  
  21088520.250 7    218725.759 7     -1666.333 7        42.958                  
  20812254.319 7     62910.297 7      -531.252 7        42.770                  
  22368285.998 6   -383116.017 6      2686.660 6        39.889                  
  21495875.321 6     98518.620 6      -801.030 6        41.316                  
  21320507.390 6   -276104.339 6      2011.155 6        39.144                  
  20341754.834 7    -26655.189 7       105.790 7        43.342                  
