     2.10           OBSERVATION DATA    M (MIXED)           RINEX VERSION / TYPE
CONVBIN 2.4.3                           20180522 145419 UTC PGM / RUN BY / DATE 
log: 2018_05_22_1043.nvs                                    COMMENT             
format: NVS BINR                                            COMMENT             
                                                            MARKER NAME         
                                                            MARKER NUMBER       
                                                            OBSERVER / AGENCY   
                                                            REC # / TYPE / VERS 
                                                            ANT # / TYPE        
   654581.6891 -5210181.8275  3608242.9618                  APPROX POSITION XYZ 
        0.0000        0.0000        0.0000                  ANTENNA: DELTA H/E/N
     1     1                                                WAVELENGTH FACT L1/2
     6    C1    L1    D1    C2    L2    D2                  # / TYPES OF OBSERV 
  2018     5    22    14    43   35.4300000     GPS         TIME OF FIRST OBS   
  2018     5    22    14    53   25.0000000     GPS         TIME OF LAST OBS    
                                                            END OF HEADER       
 18  5 22 14 43 35.4300000  0  8R10R11R12R19R20R21G 3G16
  20352134.997     -104398.906        2214.043                                  
                
  20338422.484     -218260.101        4639.827                                  
                
  23313868.450                        5914.073                                  
                
  23357003.795                         831.749                                  
                
  20982411.204     -202951.344        4302.708                                  
                
  21733161.844     -343788.214        7318.953                                  
                
  24234117.403      -27792.477         620.807                                  
                
  20652653.486      -55021.355        1176.150                                  
                
 18  5 22 14 43 35.9300000  0  8R10R11R12R19R20R21G 3G16
  20351927.368     -105506.141        2214.564                                  
                
  20337988.312     -220580.329        4640.548                                  
                
  23313314.734     -281089.934        5915.611                                  
                
  23356926.234                         828.470                                  
                
  20982008.883     -205102.813        4302.950                                  
                
  21732478.076     -347447.876        7318.910                                  
                
  24234058.337      -28103.166         621.562                                  
                
  20652541.590      -55609.687        1176.846                                  
                
 18  5 22 14 43 36.4300000  0  8R10R11R12R19R20R21G 3G16
  20351720.811     -106613.632        2215.460                                  
                
  20337555.202     -222900.806        4641.422                                  
                
  23312762.063     -284047.068        5914.904                                  
                
  23356849.487                         834.307                                  
                
  20981607.669     -207254.350        4303.254                                  
                
  21731795.373     -351107.801        7320.275                                  
                
  24233999.217      -28414.164         622.429                                  
                
  20652429.649      -56198.218        1177.513                                  
                
 18  5 22 14 43 36.9300000  0  8R10R11R12R19R20R21G 3G16
  20351513.128     -107721.102        2214.466                                  
                
  20337120.967     -225221.261        4640.364                                  
                
  23312208.454     -287004.217        5913.333                                  
                
  23356771.587                         832.166                                  
                
  20981205.366     -209405.698        4302.035                                  
                
  21731111.561     -354767.643        7319.221                                  
                
  24233940.089      -28725.188         621.655                                  
                
  20652317.727      -56786.703        1176.544                                  
                
 18  5 22 14 43 37.4300000  0  9R10R11R12R19R20R21G 3G 9G16
  20351304.347     -108828.459        2214.526                                  
                
  20336685.642     -227541.590        4640.242                                  
                
  23311654.005     -289961.301        5913.576                                  
                
  23356692.856                         833.096                                  
                
  20980802.000     -211556.733        4301.701                                  
                
  21730426.668     -358427.282        7318.697                                  
                
  24233880.978      -29036.128         621.842                                  
                
  20996264.710      -30170.9091       5442.232                                  
                
  20652205.831      -57375.011        1176.291                                  
                
 18  5 22 14 43 38.0000000  0  9R10R11R12R19R20R21G 3G 9G16
  20351067.582     -110090.845        2215.155                                  
                
  20336190.608     -230186.776        4640.803                                  
                
  23311019.762                        5916.872                                  
                
  23356604.574                         831.010                                  
                
  20980343.445     -214008.697        4301.811                                  
                
  21729647.132     -362599.255        7319.207                                  
                
  24233813.585      -29390.670         622.328                                  
                
  20995674.157      -33273.131        5442.739                                  
                
  20652078.264      -58045.664        1177.119                                  
                
 18  5 22 14 43 38.5000000  0  9R10R11R12R19R20R21G 3G 9G16
  20350860.436     -111198.292        2214.799                                  
                
  20335756.909     -232507.187        4640.635                                  
                
  23310467.117                        5913.587                                  
                
  23356527.603                         832.123                                  
                
  20979941.794     -216159.411        4301.077                                  
                
  21728963.892     -366258.924        7319.086                                  
                
  24233754.447      -29701.799         622.123                                  
                
  20995156.116      -35994.321        5442.121                                  
                
  20651966.368      -58633.947        1176.200                                  
                
 18  5 22 14 43 39.0000000  0  9R10R11R12R19R20R21G 3G 9G16
  20350652.771     -112305.720        2215.112                                  
                
  20335322.691     -234827.558        4640.969                                  
                
  23309913.982                        5913.120                                  
                
  23356450.070                         826.810                                  
                
  20979539.643     -218309.967        4301.240                                  
                
  21728280.125     -369918.562        7319.458                                  
                
  24233695.310      -30012.984         622.563                                  
                
  20994638.057      -38715.424        5442.328                                  
                
  20651854.472      -59222.230        1176.809                                  
                
 18  5 22 14 43 39.5000000  0  9R10R11R12R19R20R21G 3G 9G16
  20350445.168     -113413.078        2214.493                                  
                
  20334888.537     -237147.862        4640.605                                  
                
  23309360.730                        5913.880                                  
                
  23356372.482                         830.054                                  
                
  20979137.590     -220460.264        4300.313                                  
                
  21727596.429     -373578.067        7319.122                                  
                
  24233636.172      -30324.151         622.367                                  
                
  20994120.133      -41436.412        5441.992                                  
                
  20651742.594      -59810.405        1176.303                                  
                
 18  5 22 14 43 40.0000000  0  9R10R11R12R19R20R21G 3G 9G16
  20350237.512     -114520.416        2214.676                                  
                
  20334454.337     -239468.086        4640.530                                  
                
  23308807.559     -305160.584        5915.232                                  
                
  23356294.940      -43322.931         829.090                                  
                
  20978735.528     -222610.348        4299.954                                  
                
  21726912.680     -377237.544        7318.499                                  
                
  24233577.026      -30635.365         622.393                                  
                
  20993602.252      -44157.160        5440.667                                  
                
  20651630.734      -60398.515        1176.165                                  
                
 18  5 22 14 43 40.5000000  0  9R10R11R12R19R20R21G 3G 9G16
  20949616.211     -115623.229        2214.294                                  
                
  20933607.413     -241778.946        4640.052                                  
                
  23907842.877     -308105.790        5912.928                                  
                
  23955802.778                         829.510                                  
                
  21577920.633     -224751.565        4299.259                                  
                
  22325817.197     -380882.207        7318.208                                  
                
  24833103.046      -30945.264         622.247                                  
                
  21592671.522      -46866.931        5441.168                                  
                
  21251104.255      -60984.140        1175.721                                  
                
 18  5 22 14 43 41.0000000  0  9R10R11R12R19R20R21G 3G 9G16
  20949408.537     -116730.487        2214.280                                  
                
  20933173.195     -244099.103        4639.754                                  
                
  23907290.528                        5913.608                                  
                
  23955724.797                         828.884                                  
                
  21577518.616     -226901.214        4298.885                                  
                
  22325133.439     -384541.503        7318.644                                  
                
  24833043.899      -31256.450         622.046                                  
                
  21592153.919      -49587.491        5440.984                                  
                
  21250992.430      -61572.076        1175.481                                  
                
 18  5 22 14 43 41.5000000  0  9R10R11R12R19R20R21G 3G 9G16
  20949201.051     -117837.588        2214.740                                  
                
  20932739.166     -246419.123        4640.605                                  
                
  23906738.473                        5914.917                                  
                
  23955646.683      -44565.269         829.054                                  
                
  21577116.840     -229050.511        4298.648                                  
                
  22324449.877     -388200.602        7318.783                                  
                
  24832984.762      -31567.583         623.120                                  
                
  21591636.352      -52307.806        5441.530                                  
                
  21250880.624      -62159.855        1176.381                                  
                
 18  5 22 14 43 42.0000000  0  9R10R11R12R19R20R21G 3G 9G16
  20948993.395     -118944.924        2215.292                                  
                
  20932304.975     -248739.367        4641.028                                  
                
  23906186.186     -316977.660        5916.613                                  
                
  23955568.577      -44979.851         829.216                                  
                
  21576714.921     -231199.882        4299.077                                  
                
  22323766.182     -391859.865        7319.154                                  
                
  24832925.570      -31878.956         623.318                                  
                
  21591118.704      -55028.232        5441.398                                  
                
  21250768.791      -62747.796        1176.155                                  
                
 18  5 22 14 43 42.5000000  0  9R10R11R12R19R20R21G 3G 9G16
  20948787.714     -120052.261        2214.590                                  
                
  20931872.768     -251059.613        4640.578                                  
                
  23905635.713                        5913.557                                  
                
  23955492.688      -45394.271         828.842                                  
                
  21576315.021     -233349.065        4298.037                                  
                
  22323084.470     -395519.106        7318.480                                  
                
  24832866.379      -32190.386         622.708                                  
                
  21590601.092      -57748.575        5440.499                                  
                
  21250656.957      -63335.709        1175.553                                  
                
 18  5 22 14 43 43.0000000  0  9R10R11R12R19R20R21G 3G 9G16
  20948580.085     -121159.451        2214.346                                  
                
  20931438.613     -253379.673        4640.066                                  
                
  23905083.498                        5914.497                                  
                
  23955414.841                         828.565                                  
                
  21575913.209     -235497.904        4297.320                                  
                
  22322400.810     -399178.176        7317.705                                  
                
  24832807.206      -32501.734         622.748                                  
                
  21590083.560      -60468.664        5439.816                                  
                
  21250545.151      -63923.439        1175.327                                  
                
 18  5 22 14 43 43.5000000  0  9R10R11R12R19R20R21G 3G 9G16
  20948370.418     -122266.594        2214.169                                  
                
  20931002.440     -255699.679        4640.003                                  
                
  23904529.067                        5913.702                                  
                
  23955334.806                         828.583                                  
                
  21575509.396     -237646.515        4296.996                                  
                
  22321715.122     -402837.196        7318.371                                  
                
  24832748.033      -32813.043         622.273                                  
                
  21589566.038      -63188.632        5440.190                                  
                
  21250433.371      -64511.068        1175.030                                  
                
 18  5 22 14 43 44.0000000  0  9R10R11R12R19R20R21G 3G 9G16
  20948162.789     -123373.842        2214.690                                  
                
  20930568.294     -258019.766        4640.493                                  
                
  23903977.057     -328806.219        5914.104                                  
                
  23955256.557      -46636.355         826.919                                  
                
  21575107.647     -239795.054        4297.079                                  
                
  22321031.489     -406496.175        7318.594                                  
                
  24832688.824      -33124.546         623.343                                  
                
  21589048.560      -65908.554        5440.005                                  
                
  21250321.574      -65098.783        1175.773                                  
                
 18  5 22 14 43 44.5000000  0  9R10R11R12R19R20R21G 3G 9G16
  20947954.865     -124481.073        2214.655                                  
                
  20930133.871     -260339.832        4640.208                                  
                
  23903424.600                        5914.872                                  
                
  23955178.023      -47050.173         827.724                                  
                
  21574705.648     -241943.385        4296.612                                  
                
  22320347.570     -410155.165        7318.101                                  
                
  24832629.615      -33436.062         623.119                                  
                
  21588531.091      -68628.384        5439.527                                  
                
  21250209.785      -65686.421        1175.350                                  
                
 18  5 22 14 43 45.0000000  0  9R10R11R12R19R20R21G 3G 9G16
  20947747.218     -125588.373        2214.586                                  
                
  20929699.725     -262659.967        4640.275                                  
                
  23902872.028     -334720.219        5914.794                                  
                
  23955100.114      -47463.987         827.742                                  
                
  21574303.961     -244091.601        4296.276                                  
                
  22319663.937     -413814.158        7317.971                                  
                
  24832570.370      -33747.723         623.351                                  
                
  21588013.604      -71348.209        5439.571                                  
                
  21250097.987      -66274.116        1175.316                                  
                
 18  5 22 14 43 45.5000000  0  9R10R11R12R19R20R21G 3G 9G16
  20947540.018     -126695.777        2215.054                                  
                
  20929266.026     -264980.193        4640.587                                  
                
  23902319.830     -337678.121        5914.488                                  
                
  23955012.601      -47877.705         828.047                                  
                
  21573902.748     -246239.739        4296.269                                  
                
  22318980.750     -417473.199        7318.354                                  
                
  24832511.107      -34059.492         623.893                                  
                
  21587496.144      -74068.014        5439.440                                  
                
  21249986.181      -66861.857        1175.677                                  
                
 18  5 22 14 43 46.0000000  0  9R10R11R12R19R20R21G 3G 9G16
  20947332.389     -127803.070        2214.190                                  
                
  20928831.898     -267300.306        4639.765                                  
                
  23901767.803     -340635.441        5914.518                                  
                
  23954935.817      -48291.149         826.027                                  
                
  21573501.141     -248387.560        4294.664                                  
                
  22318297.135     -421132.082        7317.381                                  
                
  24832451.854      -34371.215         623.042                                  
                
  21586978.737      -76787.618        5438.607                                  
                
  21249874.392      -67449.452        1174.808                                  
                
 18  5 22 14 43 46.5000000  0  9R10R11R12R19R20R21G 3G 9G16
  20947124.403     -128910.326        2214.695                                  
                
  20928397.422     -269620.391        4640.265                                  
                
  23901215.355                        5913.727                                  
                
  23954859.007      -48704.5451        827.556                                  
                
  21573099.213     -250535.209        4295.174                                  
                
  22317613.145     -424790.942        7318.266                                  
                
  24832392.600      -34682.955         623.425                                  
                
  21586461.340      -79507.127        5439.147                                  
                
  21249762.631      -68036.972        1174.881                                  
                
 18  5 22 14 43 47.0000000  0  9R10R11R12R19R20R21G 3G 9G16
  20946916.782     -130017.532        2214.730                                  
                
  20927963.312     -271940.424        4640.350                                  
                
  23900663.256     -346550.036        5914.433                                  
                
  23954782.287      -49117.650         826.593                                  
                
  21572697.679     -252682.620        4294.948                                  
                
  22316929.529     -428449.690        7317.692                                  
                
  24832333.346      -34994.716         623.882                                  
                
  21585943.951      -82226.498        5439.555                                  
                
  21249650.878      -68624.421        1174.988                                  
                
 18  5 22 14 43 47.5000000  0  9R10R11R12R19R20R21G 3G 9G16
  20946709.082     -131124.885        2214.591                                  
                
  20927529.139     -274260.556        4639.904                                  
                
  23900111.085                        5911.574                                  
                
  23954704.753      -49530.867         826.295                                  
                
  21572296.117     -254829.980        4294.327                                  
                
  22316245.843     -432108.578        7318.172                                  
                
  24832274.048      -35306.637         623.638                                  
                
  21585426.536      -84945.855        5438.350                                  
                
  21249539.098      -69211.959        1174.829                                  
                
 18  5 22 14 43 48.0000000  0  9R10R11R12R19R20R21G 3G 9G16
  20946501.408     -132232.271        2215.387                                  
                
  20927094.985     -276580.747        4640.853                                  
                
  23899558.548     -352464.461        5916.204                                  
                
  23954627.032      -49943.931         826.537                                  
                
  21571894.600     -256977.197        4294.753                                  
                
  22315562.192     -435767.409        7317.720                                  
                
  24832214.741      -35618.658         624.377                                  
                
  21584909.129      -87665.196        5439.332                                  
                
  21249427.318      -69799.511        1175.478                                  
                
 18  5 22 14 43 48.5000000  0  9R10R11R12R19R20R21G 3G 9G16
  20946293.975     -133339.809        2215.325                                  
                
  20926661.089     -278901.031        4640.744                                  
                
  23899006.118     -355422.132        5915.449                                  
                
  23954549.963      -50357.060         826.292                                  
                
  21571493.360     -259124.383        4294.431                                  
                
  22314878.782     -439426.386        7318.267                                  
                
  24832155.398      -35930.882         624.788                                  
                
  21584391.651      -90384.598        5439.403                                  
                
  21249315.521      -70387.162        1175.442                                  
                
 18  5 22 14 43 49.0000000  0  9R10R11R12R19R20R21G 3G 9G16
  20946086.275     -134447.426        2215.186                                  
                
  20926226.925     -281221.397        4640.675                                  
                
  23898453.411                        5915.877                                  
                
  23954472.706      -50770.159         826.054                                  
                
  21571091.879     -261271.473        4294.093                                  
                
  22314195.113     -443085.375        7317.907                                  
                
  24832096.028      -36243.217         624.537                                  
                
  21583874.173      -93103.902        5438.217                                  
                
  21249203.705      -70974.853        1175.356                                  
                
 18  5 22 14 43 49.5000000  0  9R10R11R12R19R20R21G 3G 9G16
  20945878.324     -135554.971        2214.990                                  
                
  20925792.520     -283541.686        4640.636                                  
                
  23897900.008                        5916.241                                  
                
  23954395.279      -51183.018         824.911                                  
                
  21570690.201     -263418.285        4293.323                                  
                
  22313511.230     -446744.240        7317.412                                  
                
  24832036.667      -36555.544         624.447                                  
                
  21583356.731      -95823.081        5437.862                                  
                
  21249091.917      -71562.435        1175.006                                  
                
 18  5 22 14 43 50.0000000  0  9R10R11R12R19R20R21G 3G 9G16
  20945670.543     -136662.512        2214.943                                  
                
  20925358.285     -285861.952        4640.417                                  
                
  23897346.729     -364295.829        5914.117                                  
                
  23954317.898      -51595.755         824.284                                  
                
  21570288.720     -265564.916        4293.156                                  
                
  22312827.499     -450403.054        7316.957                                  
                
  24831977.297      -36867.892         624.282                                  
                
  21582839.342      -98542.171        5438.218                                  
                
  21248980.137      -72149.944        1174.686                                  
                
 18  5 22 14 43 50.5000000  0  9R10R11R12R19R20R21G 3G 9G16
  20945465.550     -137769.830        2214.948                                  
                
  20924926.829     -288182.022        4640.471                                  
                
  23896796.354     -367253.321        5915.061                                  
                
  23954243.357      -52008.178         824.696                                  
                
  21569890.071     -267711.143        4292.776                                  
                
  22312146.573     -454061.674        7317.906                                  
                
  24831917.954      -37180.102         624.954                                  
                
  21582322.043     -101260.935        5438.110                                  
                
  21248868.393      -72737.241        1175.019                                  
                
 18  5 22 14 43 51.0000000  0  9R10R11R12R19R20R21G 3G 9G16
  20945257.894     -138877.207        2214.884                                  
                
  20924492.728     -290502.110        4640.184                                  
                
  23896243.532                        5915.658                                  
                
  23954166.225      -52420.564         825.018                                  
                
  21569488.795     -269857.239        4292.268                                  
                
  22311463.002     -457720.217        7316.486                                  
                
  24831858.602      -37492.395         624.678                                  
                
  21581804.762     -103979.647        5437.436                                  
                
  21248756.649      -73324.529        1174.746                                  
                
 18  5 22 14 43 51.5000000  0  9R10R11R12R19R20R21G 3G 9G16
  20945051.140     -139984.501        2214.452                                  
                
  20924059.529     -292822.126        4639.621                                  
                
  23895691.477                        5915.346                                  
                
  23954090.103      -52832.650         823.589                                  
                
  21569088.458     -272003.069        4291.333                                  
                
  22310780.325     -461378.716        7316.678                                  
                
  24831799.250      -37804.670         624.100                                  
                
  21581287.525     -106698.197        5436.752                                  
                
  21248644.923      -73911.701        1173.932                                  
                
 18  5 22 14 43 52.0000000  0  9R10R11R12R19R20R21G 3G 9G16
  20944840.241     -141091.805        2214.375                                  
                
  20923622.194     -295142.151        4639.796                                  
                
  23895135.018                        5914.391                                  
                
  23954009.907      -53244.669         823.391                                  
                
  21568684.010     -274148.730        4290.830                                  
                
  22310093.520     -465037.185        7316.936                                  
                
  24831739.880      -38117.007         624.373                                  
                
  21580770.324     -109416.636        5435.981                                  
                
  21248533.188      -74498.852        1173.957                                  
                
 18  5 22 14 43 52.5000000  0  9R10R11R12R19R20R21G 3G 9G16
  20944630.360     -142199.152        2215.843                                  
                
  20923185.877     -297462.182        4641.104                                  
                
  23894579.345                        5914.840                                  
                
  23953930.765      -53656.622         825.604                                  
                
  21568280.608     -276294.264        4291.985                                  
                
  22309407.725     -468695.649        7318.356                                  
                
  24831680.484      -38429.452         626.164                                  
                
  21580253.150     -112135.046        5437.592                                  
                
  21248421.462      -75086.009        1175.404                                  
                
 18  5 22 14 43 53.0000000  0  9R10R11R12R19R20R21G 3G 9G16
  20944422.660     -143306.339        2214.769                                  
                
  20922751.758     -299782.036        4639.982                                  
                
  23894026.111                        5916.050                                  
                
  23953853.857      -54068.231         823.431                                  
                
  21567879.431     -278439.438        4290.508                                  
                
  22308724.145     -472353.863        7316.689                                  
                
  24831621.123      -38741.761         625.177                                  
                
  21579736.047     -114853.177        5436.339                                  
                
  21248309.763      -75672.975        1174.292                                  
                
 18  5 22 14 43 53.5000000  0  9R10R11R12R19R20R21G 3G 9G16
  20944217.470     -144413.624        2214.674                                  
                
  20922320.149     -302101.979        4640.206                                  
                
  23893475.897     -384999.047        5914.434                                  
                
  23953780.138      -54479.879         823.828                                  
                
  21567480.799     -280584.525        4290.146                                  
                
  22308043.077     -476012.143        7316.191                                  
                
  24831561.726      -39054.207         625.139                                  
                
  21579218.971     -117571.336        5436.896                                  
                
  21248198.046      -76259.986        1174.402                                  
                
 18  5 22 14 43 54.0000000  0  9R10R11R12R19R20R21G 3G 9G16
  20944009.707     -145521.024        2214.165                                  
                
  20921885.977     -304422.023        4639.560                                  
                
  23892922.904                        5915.316                                  
                
  23953703.400      -54891.401         820.499                                  
                
  21567079.631     -282729.544        4289.228                                  
                
  22307359.417     -479670.540        7316.377                                  
                
  24831502.303      -39366.841         624.971                                  
                
  21578701.922     -120289.466        5435.325                                  
                
  21248086.320      -76847.060        1173.423                                  
                
 18  5 22 14 43 54.5000000  0  9R10R11R12R19R20R21G 3G 9G16
  20943801.667     -146628.442        2214.041                                  
                
  20921451.527     -306742.077        4639.240                                  
                
  23892369.679                        5916.360                                  
                
  23953626.063      -55302.903         820.970                                  
                
  21566678.221     -284874.401        4288.596                                  
                
  22306675.498     -483328.904        7315.765                                  
                
  24831442.870      -39679.507         624.571                                  
                
  21578184.873     -123007.555        5435.366                                  
                
  21247974.585      -77434.120        1173.049                                  
                
 18  5 22 14 43 55.0000000  0  9R10R11R12R19R20R21G 3G 9G16
  20943593.850     -147735.933        2214.108                                  
                
  20921017.319     -309062.193        4639.208                                  
                
  23891816.749                        5914.896                                  
                
  23953542.096      -55714.413         822.646                                  
                
  21566277.071     -287019.143        4288.282                                  
                
  22305991.829     -486987.257        7316.107                                  
                
  24831383.411      -39992.293         624.417                                  
                
  21577667.868     -125725.582        5434.820                                  
                
  21247862.850      -78021.222        1173.217                                  
                
 18  5 22 14 43 55.5000000  0  9R10R11R12R19R20R21G 3G 9G16
  20943385.953     -148843.417        2214.661                                  
                
  20920583.030     -311382.317        4640.084                                  
                
  23891264.078                        5913.052                                  
                
  23953466.287      -56125.722         822.323                                  
                
  21565875.875     -289163.692        4288.524                                  
                
  22305308.089     -490645.569        7316.379                                  
                
  24831323.934      -40305.150         625.416                                  
                
  21577150.882     -128443.531        5435.108                                  
                
  21247751.124      -78608.265        1173.662                                  
                
 18  5 22 14 43 56.0000000  0  9R10R11R12R19R20R21G 3G 9G16
  20943178.163     -149950.748        2214.178                                  
                
  20920148.849     -313702.261        4639.585                                  
                
  23890711.461                        5913.552                                  
                
  23953395.070      -56536.726         821.660                                  
                
  21565474.832     -291307.900        4287.533                                  
                
  22304624.464     -494303.682        7315.480                                  
                
  24831264.484      -40617.904         625.023                                  
                
  21576633.940     -131161.248        5434.563                                  
                
  21247639.424      -79195.135        1173.051                                  
                
 18  5 22 14 43 56.5000000  0  9R10R11R12R19R20R21G 3G 9G16
  20942971.275     -151057.855        2213.575                                  
                
  20919715.578     -316021.978        4638.902                                  
                
  23890159.701                        5914.844                                  
                
  23953319.332      -56947.3811        820.504                                  
                
  21565074.718     -293451.721        4286.925                                  
                
  22303941.725     -497961.574        7315.118                                  
                
  24831205.069      -40930.467         624.534                                  
                
  21576117.043     -133878.634        5433.861                                  
                
  21247527.779      -79781.729        1172.470                                  
                
 18  5 22 14 43 57.0000000  0  9R10R11R12R19R20R21G 3G 9G16
  20942763.557     -152164.933        2214.441                                  
                
  20919281.477     -318341.637        4639.680                                  
                
  23889607.173                        5916.666                                  
                
  23953242.969      -57357.889         821.338                                  
                
  21564673.808     -295595.318        4287.723                                  
                
  22303258.190     -501619.361        7315.495                                  
                
  24831145.646      -41243.052         625.478                                  
                
  21575600.190     -136595.860        5434.552                                  
                
  21247416.142      -80368.264        1173.554                                  
                
 18  5 22 14 43 57.5000000  0  9R10R11R12R19R20R21G 3G 9G16
  20942555.222     -153272.299        2214.944                                  
                
  20918846.778     -320661.577        4640.047                                  
                
  23889054.457                        5915.456                                  
                
  23953166.051      -57768.576         820.813                                  
                
  21564272.318     -297739.007        4287.302                                  
                
  22302574.030     -505277.443        7316.487                                  
                
  24831086.160      -41555.986         626.045                                  
                
  21575083.293     -139313.291        5434.733                                  
                
  21247304.452      -80955.039        1173.673                                  
                
 18  5 22 14 43 58.0000000  0  9R10R11R12R19R20R21G 3G 9G16
  20942347.486     -154379.490        2213.175                                  
                
  20918412.659     -322981.348        4638.507                                  
                
  23888502.885                        5913.394                                  
                
  23953089.608      -58179.026         820.136                                  
                
  21563871.453     -299882.341        4285.201                                  
                
  22301890.477     -508935.246        7313.909                                  
                
  24831026.692      -41868.779         624.108                                  
                
  21574566.449     -142030.450        5432.742                                  
                
  21247192.797      -81541.597        1171.673                                  
                
 18  5 22 14 43 58.5000000  0  9R10R11R12R19R20R21G 3G 9G16
  20942140.723     -155486.319        2212.980                                  
                
  20917979.540     -325300.734        4638.223                                  
                
  23887952.081                        5919.093                                  
                
  23953014.200      -58588.892         818.921                                  
                
  21563471.607     -302025.134        4284.276                                  
                
  22301207.898     -512592.703        7314.270                                  
                
  24830967.286      -42181.261         623.694                                  
                
  21574049.686     -144747.119        5431.715                                  
                
  21247081.232      -82127.759        1171.093                                  
                
 18  5 22 14 43 59.0000000  0  9R10R11R12R19R20R21G 3G 9G16
  20941933.085     -156593.013        2212.616                                  
                
  20917545.529     -327619.970        4637.810                                  
                
  23887400.170                        5912.437                                  
                
  23952938.061      -58998.544         819.210                                  
                
  21563070.921     -304167.619        4283.867                                  
                
  22300524.453     -516249.937        7313.374                                  
                
  24830907.881      -42493.705         624.135                                  
                
  21573532.977     -147463.613        5432.004                                  
                
  21246969.684      -82713.758        1170.815                                  
                
 18  5 22 14 43 59.5000000  0  9R10R11R12R19R20R21G 3G 9G16
  20941726.108     -157700.047        2213.427                                  
                
  20917112.196     -329939.533        4638.506                                  
                
  23886849.062                        5914.679                                  
                
  23952862.626      -59408.402         819.355                                  
                
  21562670.923     -306310.294        4284.617                                  
                
  22299841.678     -519907.487        7314.084                                  
                
  24830848.413      -42806.491         624.930                                  
                
  21573016.231     -150180.349        5432.825                                  
                
  21246858.083      -83300.070        1171.994                                  
                
 18  5 22 14 44  0.0000000  0  9R10R11R12R19R20R21G 3G 9G16
  20941518.408     -158807.038        2214.264                                  
                
  20916678.139     -332259.044        4639.001                                  
                
  23886296.695                        5915.409                                  
                
  23952786.478      -59818.087         819.301                                  
                
  21562270.246     -308452.672        4284.590                                  
                
  22299158.187     -523564.946        7314.886                                  
                
  24830788.936      -43119.296         625.972                                  
                
  21572499.504     -152896.905        5432.988                                  
                
  21246746.500      -83886.273        1172.513                                  
                
 18  5 22 14 44  0.5000000  0  9R10R11R12R19R20R21G 3G 9G16
  20941310.001     -159914.258        2215.750                                  
                
  20916243.368     -334578.799        4640.769                                  
                
  23885743.015                        5914.634                                  
                
  23952709.641      -60227.887         821.594                                  
                
  21561868.890     -310595.132        4285.876                                  
                
  22298473.991     -527222.660        7316.790                                  
                
  24830729.405      -43432.374         627.406                                  
                
  21571982.758     -155613.622        5434.529                                  
                
  21246634.873      -84472.700        1174.360                                  
                
 18  5 22 14 44  1.0000000  0  9R10R11R12R19R20R21G 3G 9G16
  20941102.265     -161021.432        2213.718                                  
                
  20915809.267     -336898.512        4638.700                                  
                
  23885190.022                        5914.383                                  
                
  23952633.394      -60637.474         817.983                                  
                
  21561468.240     -312737.349        4283.394                                  
                
  22297790.492     -530880.211        7314.499                                  
                
  24830669.865      -43745.455         625.447                                  
                
  21571466.031     -158330.180        5432.808                                  
                
  21246523.263      -85059.013        1172.182                                  
                
 18  5 22 14 44  1.5000000  0 10R10R11R12R19R20R21G 3G 9G16G23
  20940894.314     -162128.526        2214.151                                  
                
  20915374.969     -339218.144        4638.922                                  
                
  23884636.851                        5913.539                                  
                
  23952556.896      -61046.904         818.232                                  
                
  21561067.428     -314879.343        4283.996                                  
                
  22297106.779     -534537.677        7314.427                                  
                
  24830610.326      -44058.519         625.962                                  
                
  21570949.312     -161046.567        5432.453                                  
                
  21246411.671      -85645.219        1172.017                                  
                
  20561069.606       -8681.0621       3239.686                                  
                
 18  5 22 14 44  2.0000000  0 10R10R11R12R19R20R21G 3G 9G16G23
  20940686.712     -163235.013        2214.699                                  
                
  20914941.011     -341537.166        4640.148                                  
                
  23884084.162                        5914.127                                  
                
  23952480.730      -61455.581         818.718                                  
                
  21560666.984     -317020.501        4283.833                                  
                
  22296423.387     -538194.505        7315.901                                  
                
  24830550.902      -44371.017         626.436                                  
                
  21570432.728     -163762.260        5433.098                                  
                
  21246300.204      -86230.800        1172.875                                  
                
  20560760.007      -10300.035        3239.335                                  
                
 18  5 22 14 44  2.5000000  0 10R10R11R12R19R20R21G 3G 9G16G23
  20940479.744     -164342.373        2213.716                                  
                
  20914507.696     -343857.021        4638.872                                  
                
  23883532.161                        5916.561                                  
                
  23952405.179      -61865.051         817.820                                  
                
  21560267.209     -319162.365        4282.496                                  
                
  22295740.647     -541852.099        7313.642                                  
                
  24830491.291      -44684.463         626.071                                  
                
  21569915.991     -166478.717        5431.723                                  
                
  21246188.576      -86817.214        1172.021                                  
                
  20560451.489      -11919.819        3238.445                                  
                
 18  5 22 14 44  3.0000000  0 10R10R11R12R19R20R21G 3G 9G16G23
  20940272.070     -165449.142        2213.160                                  
                
  20914073.702     -346176.253        4637.825                                  
                
  23882979.642                        5916.186                                  
                
  23952328.941      -62273.741         816.714                                  
                
  21559866.782     -321303.452        4281.531                                  
                
  22295057.184     -545509.087        7312.749                                  
                
  24830431.779      -44997.342         625.338                                  
                
  21569399.380     -169194.494        5431.111                                  
                
  21246077.064      -87402.977        1171.105                                  
                
  20560142.847      -13538.847        3237.214                                  
                
 18  5 22 14 44  3.5000000  0 10R10R11R12R19R20R21G 3G 9G16G23
  20940065.057     -166556.214        2214.690                                  
                
  20913640.361     -348495.797        4639.742                                  
                
  23882427.239                        5914.228                                  
                
  23952253.409      -62682.643         818.294                                  
                
  21559467.043     -323444.669        4283.002                                  
                
  22294374.373     -549166.411        7315.638                                  
                
  24830372.203      -45310.605         627.383                                  
                
  21568882.706     -171910.489        5432.695                                  
                
  21245965.508      -87989.030        1172.748                                  
                
  20559834.347      -15158.062        3238.737                                  
                
 18  5 22 14 44  4.0000000  0 10R10R11R12R19R20R21G 3G 9G16G23
  20939857.294     -167663.461        2214.558                                  
                
  20913206.286     -350815.503        4639.624                                  
                
  23881874.112                        5915.196                                  
                
  23952177.099      -63091.618         818.264                                  
                
  21559066.589     -325585.874        4282.277                                  
                
  22293682.377     -552823.834        7316.060                                  
                
  24830312.583      -45624.040         627.222                                  
                
  21568366.023     -174626.541        5432.260                                  
                
  21245853.934      -88575.187        1172.664                                  
                
  20559525.829      -16777.324        3239.001                                  
                
 18  5 22 14 44  4.5000000  0 10R10R11R12R19R20R21G 3G 9G16G23
  20939648.950     -168770.930        2214.625                                  
                
  20912771.649     -353135.400        4639.435                                  
                
  23881320.530                        5914.352                                  
                
  23952100.182      -63500.613         817.224                                  
                
  21558665.608     -327727.096        4281.841                                  
                
  22292996.680     -556481.382        7314.575                                  
                
  24830252.901      -45937.782         627.356                                  
                
  21567849.314     -177342.720        5432.068                                  
                
  21245742.315      -89161.547        1172.244                                  
                
  20559217.204      -18396.624        3237.956                                  
                
 18  5 22 14 44  5.0000000  0 10R10R11R12R19R20R21G 3G 9G16G23
  20939441.152     -169878.309        2214.851                                  
                
  20912337.557     -355455.208        4639.234                                  
                
  23880767.823                        5917.421                                  
                
  23952025.284      -63909.417         816.514                                  
                
  21558265.199     -329868.069        4281.836                                  
                
  22292311.582     -560138.796        7314.558                                  
                
  24830193.236      -46251.459         626.786                                  
                
  21567332.649     -180058.681        5431.419                                  
                
  21245630.732      -89747.755        1172.049                                  
                
  20558908.419      -20015.734        3237.516                                  
                
 18  5 22 14 44  5.5000000  0 10R10R11R12R19R20R21G 3G 9G16G23
  20939234.863     -170985.365        2214.709                                  
                
  20911904.975     -357774.710        4639.565                                  
                
  23880216.251                        5923.663                                  
                
  23951950.047      -64317.878         817.782                                  
                
  21557866.345     -332008.519        4281.450                                  
                
  22291600.859     -563795.918        7315.093                                  
                
  24830133.616      -46564.885         627.451                                  
                
  21566816.038     -182774.286        5432.097                                  
                
  21245519.211      -90333.646        1172.485                                  
                
  20558599.839      -21634.401        3237.997                                  
                
 18  5 22 14 44  6.0000000  0 10R10R11R12R19R20R21G 3G 9G16G23
  20939027.814     -172092.355        2214.156                                  
                
  20911471.633     -360094.138        4638.890                                  
                
  23879664.232                        5917.646                                  
                
  23951876.355      -64726.042         816.524                                  
                
  21557466.758     -334148.723        4280.138                                  
                
  22290920.898     -567452.914        7316.183                                  
                
  24830074.005      -46878.272         626.767                                  
                
  21566299.480     -185489.635        5430.502                                  
                
  21245407.717      -90919.377        1171.451                                  
                
  20558291.276      -23252.820        3236.986                                  
                
 18  5 22 14 44  6.5000000  0 10R10R11R12R19R20R21G 3G 9G16G23
  20938820.435     -173199.439        2213.195                                  
                
  20911037.979     -362413.627        4637.440                                  
                
  23879113.187                        5912.106                                  
                
  23951790.101      -65134.225         815.871                                  
                
  21557066.876     -336288.856        4278.933                                  
                
  22290237.256     -571109.896        7312.146                                  
                
  24830014.349      -47191.853         626.063                                  
                
  21565782.886     -188205.085        5429.943                                  
                
  21245296.206      -91505.239        1170.491                                  
                
  20557982.857      -24871.288        3236.080                                  
                
 18  5 22 14 44  7.0000000  0 10R10R11R12R19R20R21G 3G 9G16G23
  20938613.324     -174306.389        2214.107                                  
                
  20910604.584     -364733.022        4639.371                                  
                
  23878562.777                        5915.101                                  
                
  23951715.802      -65542.080         816.199                                  
                
  21556667.298     -338428.673        4279.917                                  
                
  22289554.043     -574766.777        7311.880                                  
                
  24829954.711      -47505.321         627.313                                  
                
  21565266.338     -190920.211        5430.203                                  
                
  21245184.739      -92090.883        1171.464                                  
                
  20557674.572      -26489.441        3236.378                                  
                
 18  5 22 14 44  7.5000000  0 10R10R11R12R19R20R21G 3G 9G16G23
  20938409.349     -175413.514        2214.580                                  
                
  20910174.333     -367052.535        4639.214                                  
                
  23878015.297                        5916.685                                  
                
  23951643.700      -65950.034         816.597                                  
                
  21556270.900     -340568.461        4279.640                                  
                
  22288874.279     -578423.768        7314.043                                  
                
  24829895.038      -47818.987         627.605                                  
                
  21564749.735     -193635.477        5430.211                                  
                
  21245073.236      -92676.658        1171.691                                  
                
  20557366.510      -28107.609        3235.932                                  
                
 18  5 22 14 44  8.0000000  0 10R10R11R12R19R20R21G 3G 9G16G23
  20938201.560     -176520.790        2214.681                                  
                
  20909740.277     -369372.223        4639.368                                  
                
  23877462.724                        5914.736                                  
                
  23951570.678      -66357.976         815.847                                  
                
  21555870.723     -342708.209        4279.115                                  
                
  22288191.253     -582080.842        7314.168                                  
                
  24829835.320      -48132.860         627.619                                  
                
  21564233.124     -196350.785        5430.271                                  
                
  21244961.724      -93262.545        1171.829                                  
                
  20557058.376      -29725.832        3235.954                                  
                
 18  5 22 14 44  8.5000000  0 10R10R11R12R19R20R21G 3G 9G16G23
  20937992.152     -177628.233        2215.398                                  
                
  20909304.603     -371692.056        4639.989                                  
                
  23876907.256                        5917.212                                  
                
  23951493.493      -66765.9871        815.988                                  
                
  21555468.956     -344847.956        4279.756                                  
                
  22287512.936     -585738.036        7314.176                                  
                
  24829775.557      -48446.957         628.424                                  
                
  21563716.504     -199066.155        5431.245                                  
                
  21244850.186      -93848.551        1172.420                                  
                
  20556750.162      -31344.080        3236.507                                  
                
 18  5 22 14 44  9.0000000  0 10R10R11R12R19R20R21G 3G 9G16G23
  20937783.371     -178735.744        2215.380                                  
                
  20908869.564     -374011.947        4640.088                                  
                
  23876356.470                        5912.306                                  
                
  23951416.683                         816.588                                  
                
  21555067.859     -346987.587        4279.358                                  
                
  22286832.189     -589395.277        7313.818                                  
                
  24829715.767      -48761.158         628.773                                  
                
  21563199.866     -201781.490        5431.114                                  
                
  21244738.639      -94434.595        1172.281                                  
                
  20556441.948      -32962.285        3236.468                                  
                
 18  5 22 14 44  9.5000000  0 10R10R11R12R19R20R21G 3G 9G16G23
  20937570.390     -179843.403        2215.074                                  
                
  20908430.334     -376331.927        4639.320                                  
                
  23875802.924                        5912.148                                  
                
  23951334.995      -67581.933         816.210                                  
                
  21554662.599     -349127.170        4278.539                                  
                
  22286145.429     -593052.683        7314.668                                  
                
  24829655.941      -49075.560         628.480                                  
                
  21562683.218     -204496.870        5430.620                                  
                
  21244627.082      -95020.750        1172.091                                  
                
  20556129.196      -34581.055        3238.925                                  
                
 18  5 22 14 44 10.0000000  0 10R10R11R12R19R20R21G 3G 9G16G23
  20937362.573     -180950.037        2211.286                                  
                
  20907996.260     -378650.885        4635.674                                  
                
  23875256.337                        5910.531                                  
                
  23951258.355      -67988.707         810.628                                  
                
  21554262.529     -351265.556        4274.488                                  
                
  22285462.225     -596708.948        7310.984                                  
                
  24829596.303      -49388.989         624.793                                  
                
  21562166.777     -207211.136        5426.682                                  
                
  21244515.723      -95605.842        1168.116                                  
                
  20555820.973      -36198.027        3231.526                                  
                
 18  5 22 14 44 10.5000000  0 10R10R11R12R19R20R21G 3G 9G16G23
  20937156.865     -182056.277        2211.294                                  
                
  20907564.303     -380969.465        4636.007                                  
                
  23874704.560                        5915.924                                  
                
  23951183.867      -68395.015         809.679                                  
                
  21553864.604     -353403.347        4273.981                                  
                
  22284781.513     -600364.765        7310.185                                  
                
  24829536.719      -49702.091         624.839                                  
                
  21561650.425     -209924.887        5426.066                                  
                
  21244404.443      -96190.507        1167.890                                  
                
  20555512.652      -37814.608        3232.882                                  
                
 18  5 22 14 44 11.0000000  0 10R10R11R12R19R20R21G 3G 9G16G23
  20936949.057     -183163.098        2215.693                                  
                
  20907130.256     -383288.603        4640.251                                  
                
  23874150.691                        5915.924                                  
                
  23951107.504      -68801.767         815.346                                  
                
  21553464.624     -355541.556        4278.391                                  
                
  22284098.854     -604021.201        7315.179                                  
                
  24829477.019      -50015.830         629.971                                  
                
  21561133.956     -212639.148        5430.548                                  
                
  21244293.066      -96775.713        1172.586                                  
                
  20555204.376      -39431.525        3234.019                                  
                
 18  5 22 14 44 11.5000000  0 10R10R11R12R19R20R21G 3G 9G16G23
  20936740.963     -184270.210        2215.296                                  
                
  20906695.922     -385608.006        4639.712                                  
                
  23873596.886                        5911.924                                  
                
  23951030.828      -69208.672         812.146                                  
                
  21553064.393     -357679.859        4277.547                                  
                
  22283409.002     -607677.820        7314.797                                  
                
  24829417.265      -50329.866         628.856                                  
                
  21560617.452     -215353.578        5429.531                                  
                
  21244181.643      -97361.148        1171.520                                  
                
  20554896.492      -41048.627        3232.695                                  
                
 18  5 22 14 44 12.0000000  0 10R10R11R12R19R20R21G 3G 9G16G23
  20936533.540     -185376.816        2211.044                                  
                
  20906262.259     -387926.865        4635.197                                  
                
  23873043.732                        5911.924                                  
                
  23950955.055      -69614.958         808.688                                  
                
  21552664.851     -359817.472        4272.771                                  
                
  22282732.562     -611333.880        7309.601                                  
                
  24829357.582      -50643.472         625.171                                  
                
  21560101.073     -218067.414        5425.448                                  
                
  21244070.319      -97946.072        1167.865                                  
                
  20554588.797                        3233.073                                  
                
 18  5 22 14 44 12.5000000  0 10R10R11R12R19R20R21G 3G 9G16G23
  20936332.737     -186482.844        2212.576                                  
                
  20905835.216     -390245.176        4636.947                                  
                
  23872497.092                        5911.924                                  
                
  23950885.803      -70020.636         813.183                                  
                
  21552271.965     -361954.319        4274.052                                  
                
  22282057.568     -614989.3531       7311.186                                  
                
  24829298.016      -50956.545         626.441                                  
                
  21559584.792     -220780.584        5426.510                                  
                
  21243959.120      -98530.357        1168.710                                  
                
  20554281.271                        3230.599                                  
                
 18  5 22 14 44 13.0000000  0 10R10R11R12R19R20R21G 3G 9G16G23
  20936124.482     -187589.807        2214.481                                  
                
  20905400.713     -392564.450        4639.389                                  
                
  23871943.170                        5911.924                                  
                
  23950809.118      -70427.001         814.802                                  
                
  21551871.663     -364091.933        4275.644                                  
                
  22281377.428     -618645.684        7312.409                                  
                
  24829238.244      -51270.631         629.408                                  
                
  21559068.351     -223494.591        5429.048                                  
                
  21243847.752      -99115.557        1171.156                                  
                
  20553974.147      -45897.984        3232.705                                  
                
 18  5 22 14 44 13.5000000  0 10R10R11R12R19R20R21G 3G 9G16G23
  20935916.719     -188696.865        2212.646                                  
                
  20904966.710     -394883.723        4636.512                                  
                
  23871389.758                        5911.924                                  
                
  23950724.660      -70833.309         810.587                                  
                
  21551471.879     -366229.433        4272.938                                  
                
  22280695.028     -622302.108        7311.478                                  
                
  24829178.454      -51584.808         627.182                                  
                
  21558551.909     -226208.538        5426.150                                  
                
  21243736.374      -99700.785        1168.891                                  
                
  20553667.041      -47514.607        3232.742                                  
                
 18  5 22 14 44 14.0000000  0 10R10R11R12R19R20R21G 3G 9G16G23
  20935704.909     -189802.911        2212.483                                  
                
  20904528.660     -397202.079        4637.171                                  
                
  23870832.119                        5911.924                                  
                
  23950644.473      -71238.587         811.487                                  
                
  21551068.093     -368365.760        4272.996                                  
                
  22280008.894     -625957.453        7311.110                                  
                
  24829118.843      -51898.049         627.005                                  
                
  21558035.673     -228921.458        5426.584                                  
                
  21243625.193     -100285.001        1169.065                                  
                
  20553359.935                        3230.375                                  
                
 18  5 22 14 44 14.5000000  0 10R10R11R12R19R20R21G 3G 9G16G23
  20935496.172     -190909.809        2214.036                                  
                
  20904106.933     -399521.658        4636.951                                  
                
  23870277.688                        5911.924                                  
                
  23950567.440      -71644.507         812.526                                  
                
  21550667.398     -370502.763        4274.456                                  
                
  22279325.814     -629613.615        7312.583                                  
                
  24829059.062      -52212.207         628.912                                  
                
  21557519.294     -231635.084        5427.379                                  
                
  21243513.860     -100870.025        1170.546                                  
                
  20553052.516      -50745.037        3232.844                                  
                
 18  5 22 14 44 15.0000000  0 10R10R11R12R19R20R21G 3G 9G16G23
  20935284.987     -192016.744        2213.228                                  
                
  20903669.928     -401840.918        4638.458                                  
                
  23869720.827                        5911.924                                  
                
  23950488.146      -72050.364         810.575                                  
                
  21550264.300     -372639.587        4272.978                                  
                
  22278640.055     -633269.784        7311.513                                  
                
  24828999.264      -52526.422         627.967                                  
                
  21557002.924     -234348.620        5426.164                                  
                
  21243402.527     -101455.005        1169.200                                  
                
  20552745.214      -52361.019        3229.914                                  
                
 18  5 22 14 44 15.5000000  0 10R10R11R12R19R20R21G 3G 9G16G23
  20935079.680     -193123.564        2212.453                                  
                
  20903238.526                        4636.444                                  
                
  23869169.674                        5913.924                                  
                
  23950414.624      -72455.963         809.196                                  
                
  21549867.116     -374776.112        4271.550                                  
                
  22277959.862     -636925.716        7309.618                                  
                
  24828939.474      -52840.571         627.255                                  
                
  21556486.581     -237061.988        5425.061                                  
                
  21243291.221     -102039.866        1168.342                                  
                
  20552438.045      -53976.833        3229.853                                  
                
 18  5 22 14 44 16.0000000  0 10R10R11R12R19R20R21G 3G 9G16G23
  20934872.033     -194229.965        2212.620                                  
                
  20902804.398                        4634.605                                  
                
  23868616.065                        5913.924                                  
                
  23950339.199      -72861.043         809.109                                  
                
  21549467.618     -376912.038        4271.409                                  
                
  22277277.399     -640581.333        7310.918                                  
                
  24828879.756      -53154.368         627.408                                  
                
  21555970.336     -239774.833        5425.282                                  
                
  21243180.004     -102624.271        1168.552                                  
                
  20552128.482                        3229.955                                  
                
 18  5 22 14 44 16.5000000  0 10R10R11R12R19R20R21G 3G 9G16G23
  20934668.443     -195336.694        2214.243                                  
                
  20902373.531                        4638.191                                  
                
  23868066.557                        5913.924                                  
                
  23950268.125      -73266.352         811.651                                  
                
  21549072.212     -379048.111        4272.513                                  
                
  22276598.876     -644237.145        7312.111                                  
                
  24828819.966      -53468.539         629.031                                  
                
  21555454.037     -242487.899        5426.423                                  
                
  21243068.743     -103208.948        1170.021                                  
                
  20551820.626                        3230.916                                  
                
 18  5 22 14 44 17.0000000  0 10R10R11R12R19R20R21G 3G 9G16G23
  20934460.590     -196443.952        2215.992                                  
                
  20901938.224                        4640.035                                  
                
  23867512.894                        5913.924                                  
                
  23950192.941      -73671.998         812.209                                  
                
  21548672.572     -381184.527        4273.942                                  
                
  22275916.110     -647893.474        7313.837                                  
                
  24828760.069      -53783.268         630.644                                  
                
  21554937.649     -245201.390        5427.758                                  
                
  21242957.383     -103794.109        1171.428                                  
                
  20551512.555                        3233.063                                  
                
 18  5 22 14 44 17.5000000  0 10R10R11R12R19R20R21G 3G 9G16G23
  20934256.088     -197550.861        2212.118                                  
                
  20901506.508                        4635.995                                  
                
  23866962.511                        5913.924                                  
                
  23950139.512      -74077.190         808.269                                  
                
  21548276.308     -383320.430        4270.085                                  
                
  22275236.542     -651549.395        7309.388                                  
                
  24828700.226      -54097.712         627.022                                  
                
  21554421.342     -247914.429        5423.747                                  
                
  21242846.095     -104378.903        1167.730                                  
                
  20551203.769                        3229.015                                  
                
 18  5 22 14 44 18.0000000  0 10R10R11R12R19R20R21G 3G 9G16G23
  20934048.343     -198657.247        2214.171                                  
                
  20901071.567                        4638.298                                  
                
  23866408.785                        5913.924                                  
                
  23950065.356      -74481.780         809.975                                  
                
  21547876.846     -385455.613        4271.676                                  
                
  22274553.731     -655204.748        7311.582                                  
                
  24828640.463      -54411.701         629.587                                  
                
  21553905.132     -250626.870        5426.053                                  
                
  21242734.914     -104963.133        1169.836                                  
                
  20550894.626                        3228.805                                  
                
 18  5 22 14 44 18.5000000  0 10R10R11R12R19R20R21G 3G 9G16G23
  20933840.446     -199763.663        2212.702                                  
                
  20900637.109                        4636.127                                  
                
  23865854.917                        5913.924                                  
                
  23949991.182      -74886.2391        808.442                                  
                
  21547477.259     -387590.650        4269.961                                  
                
  22273875.548     -658860.174        7311.403                                  
                
  24828580.682      -54725.753         627.763                                  
                
  21553388.932     -253339.244        5424.207                                  
                
  21242623.733     -105547.363        1168.299                                  
                
  20550585.385                        3231.053                                  
                
 18  5 22 14 44 19.0000000  0 10R10R11R12R19R20R21G 3G 9G16G23
  20933630.753     -200870.413        2212.484                                  
                
  20900201.212                        4637.503                                  
                
  23865299.316                        5913.924                                  
                
  23949915.962      -75290.933         808.384                                  
                
  21547075.912     -389725.828        4269.296                                  
                
  22273190.521                        7309.571                                  
                
  24828520.838      -55040.195         627.798                                  
                
  21552872.669     -256051.864        5423.930                                  
                
  21242512.498     -106131.881        1167.938                                  
                
  20550276.269                        3228.272                                  
                
 18  5 22 14 44 19.5000000  0 10R10R11R12R19R20R21G 3G 9G16G23
  20933422.865     -201977.320        2212.273                                  
                
  20899766.396                        4638.415                                  
                
  23864745.403                        5915.924                                  
                
  23949840.135      -75695.640         808.049                                  
                
  21546676.405     -391860.975        4268.420                                  
                
  22272506.843     -666170.597        7311.514                                  
                
  24828460.941      -55354.847         627.845                                  
                
  21552356.397     -258764.546        5424.037                                  
                
  21242401.245     -106716.529        1167.928                                  
                
  20549967.269                        3227.710                                  
                
 18  5 22 14 44 20.0000000  0 10R10R11R12R19R20R21G 3G 9G16G23
  20933215.316     -203083.764        2212.272                                  
                
  20899332.509                        4636.691                                  
                
  23864191.695                        5915.924                                  
                
  23949764.701      -76099.766         808.025                                  
                
  21546277.256     -393995.501        4268.365                                  
                
  22271823.148     -669825.821        7310.149                                  
                
  24828401.134      -55669.084         627.922                                  
                
  21551840.215     -261476.633        5423.412                                  
                
  21242290.082     -107300.675        1167.630                                  
                
  20549658.251                        3229.225                                  
                
 18  5 22 14 44 20.5000000  0 11R 1R10R11R12R19R20R21G 3G 9G16G23
  20854701.645                        2978.979                                  
                
  20933007.973     -204190.112        2213.940                                  
                
  20898899.954                        4636.915                                  
                
  23863637.532                        5916.860                                  
                
  23949689.356      -76503.681         808.998                                  
                
  21545878.348     -396129.744        4269.768                                  
                
  22271140.042     -673480.888        7313.232                                  
                
  24828341.326      -55983.287         629.685                                  
                
  21551324.050     -264188.576        5425.251                                  
                
  21242178.946     -107884.712        1169.466                                  
                
  20549348.956                        3227.973                                  
                
 18  5 22 14 44 21.0000000  0 11R 1R10R11R12R19R20R21G 3G 9G16G23
  20854422.522      -97143.833        2983.162                                  
                
  20932800.299     -205297.161        2215.678                                  
                
  20898467.523     -429666.080        4639.799                                  
                
  23863080.582                        5916.013                                  
                
  23949613.699      -76908.171         811.041                                  
                
  21545479.154     -398264.491        4270.951                                  
                
  22270456.552                        7310.329                                  
                
  24828281.385      -56298.234         631.557                                  
                
  21550807.787     -266901.060        5426.248                                  
                
  21242067.693     -108469.372        1170.970                                  
                
  20549039.777                        3221.113                                  
                
 18  5 22 14 44 21.5000000  0 11R 1R10R11R12R19R20R21G 3G 9G16G23
  20854143.595      -98633.823        2978.863                                  
                
  20932592.491     -206403.808        2212.632                                  
                
  20898034.262     -431984.838        4636.923                                  
                
  23862521.773                        5915.547                                  
                
  23949538.023      -77312.105         807.501                                  
                
  21545079.853     -400398.657        4267.414                                  
                
  22269772.660     -680792.007        7311.057                                  
                
  24828221.506      -56612.818         628.140                                  
                
  21550291.596     -269613.095        5423.365                                  
                
  21241956.512     -109053.609        1167.797                                  
                
  20548730.858                        3222.061                                  
                
 18  5 22 14 44 22.0000000  0 11R 1R10R11R12R19R20R21G 3G 9G16G23
  20853863.016                        2981.321                                  
                
  20932384.862     -207510.711        2215.369                                  
                
  20897603.994     -434303.856        4639.576                                  
                
  23861964.554                        5911.714                                  
                
  23949462.509      -77716.179         809.696                                  
                
  21544680.775     -402532.873        4269.375                                  
                
  22269089.018     -684447.511        7312.463                                  
                
  24828161.555      -56927.728         631.491                                  
                
  21549775.369     -272325.284        5426.021                                  
                
  21241845.295     -109638.052        1170.332                                  
                
  20548422.090                        3224.074                                  
                
 18  5 22 14 44 22.5000000  0 11R 1R10R11R12R19R20R21G 3G 9G16G23
  20853581.391     -101613.461        2978.904                                  
                
  20932174.392     -208617.322        2212.576                                  
                
  20897173.761     -436622.561        4637.114                                  
                
  23861404.735                        5914.388                                  
                
  23949384.064      -78119.831         806.815                                  
                
  21544278.883     -404666.674        4266.908                                  
                
  22268400.158     -688102.665        7306.502                                  
                
  24828101.667      -57242.354         628.729                                  
                
  21549259.231     -275037.021        5422.572                                  
                
  21241734.141     -110222.170        1167.953                                  
                
  20548113.045                        3226.851                                  
                
 18  5 22 14 44 23.0000000  0 11R 1R10R11R12R19R20R21G 3G 9G16G23
  20853301.589                        2976.297                                  
                
  20931966.101     -209723.942        2214.048                                  
                
  20896739.517     -438941.254        4638.338                                  
                
  23860845.551                        5915.894                                  
                
  23949307.709      -78523.377         807.935                                  
                
  21543879.197     -406800.258        4267.864                                  
                
  22267716.417     -691757.930        7310.500                                  
                
  24828041.761      -57557.052         630.151                                  
                
  21548743.093     -277748.707        5423.673                                  
                
  21241623.005     -110806.243        1168.877                                  
                
  20547805.608                        3226.311                                  
                
 18  5 22 14 44 23.5000000  0 11R 1R10R11R12R19R20R21G 3G 9G16G23
  20853010.806                        2976.548                                  
                
  20931746.965     -210830.464        2212.590                                  
                
  20896286.957     -441259.819        4636.569                                  
                
  23860274.001                        5915.965                                  
                
  23949220.526      -78926.710         805.985                                  
                
  21543468.719     -408933.559        4266.220                                  
                
  22267021.706     -695412.966        7309.787                                  
                
  24827981.855      -57871.727         629.032                                  
                
  21548226.991     -280460.193        5422.713                                  
                
  21241511.886     -111390.208        1167.685                                  
                
  20547500.084                        3223.799                                  
                
 18  5 22 14 44 24.0000000  0 11R 1R10R11R12R19R20R21G 3G 9G16G23
  20852735.302     -106079.622        2978.778                                  
                
  20931542.481     -211937.123        2212.920                                  
                
  20895855.876     -443578.571        4637.822                                  
                
  23859717.819                        5913.979                                  
                
  23949148.032      -79330.046         806.567                                  
                
  21543072.920     -411066.800        4265.821                                  
                
  22266337.956     -699068.070        7308.916                                  
                
  24827921.913      -58186.597         629.359                                  
                
  21547710.862     -283171.732        5423.058                                  
                
  21241400.750     -111974.269        1167.575                                  
                
  20547194.917                        3227.213                                  
                
 18  5 22 14 44 24.5000000  0 11R 1R10R11R12R19R20R21G 3G 9G16G23
  20852463.228     -107568.592        2978.112                                  
                
  20931341.177     -213043.908        2214.179                                  
                
  20895427.761     -445897.3801       4638.526                                  
                
  23859165.550                        5914.402                                  
                
  23949078.736      -79733.417         807.726                                  
                
  21542680.320     -413199.997        4266.743                                  
                
  22265656.959     -702723.2601       7310.063                                  
                
  24827861.945      -58501.616         630.562                                  
                
  21547194.734     -285883.293        5423.481                                  
                
  21241289.596     -112558.410        1168.792                                  
                
  20546889.660                        3226.476                                  
                
 18  5 22 14 44 25.0000000  0 11R 1R10R11R12R19R20R21G 3G 9G16G23
  20852185.454     -109057.524        2979.136                                  
                
  20931134.227     -214150.715        2213.624                                  
                
  20894993.883     -448216.226        4637.609                                  
                
  23858608.528                        5916.476                                  
                
  23949003.882      -80136.593         805.995                                  
                
  21542282.127     -415333.050        4266.002                                  
                
  22264975.479     -706378.449        7309.855                                  
                
  24827801.941      -58816.721         630.433                                  
                
  21546678.596     -288594.808        5423.285                                  
                
  21241178.450     -113142.539        1168.323                                  
                
  20546584.225                        3227.517                                  
                
 18  5 22 14 44 25.5000000  0 11R 1R10R11R12R19R20R21G 3G 9G16G23
  20851890.177     -110546.140        2977.506                                  
                
  20930926.955     -215257.492        2213.885                                  
                
  20894560.417     -450535.031        4637.740                                  
                
  23858052.212                        5921.015                                  
                
  23948928.663      -80539.646         805.510                                  
                
  21541883.630     -417465.862        4265.692                                  
                
  22264293.052     -710033.612        7310.968                                  
                
  24827741.946      -59131.834         630.387                                  
                
  21546162.494     -291306.155        5423.270                                  
                
  21241067.314     -113726.589        1168.338                                  
                
  20546278.540                        3227.945                                  
                
 18  5 22 14 44 26.0000000  0 11R 1R10R11R12R19R20R21G 3G 9G16G23
  20851612.993                        2977.876                                  
                
  20930719.281     -216364.284        2213.690                                  
                
  20894126.709     -452853.851        4637.729                                  
                
  23857495.163                        5915.948                                  
                
  23948853.121      -80942.625         805.766                                  
                
  21541484.775     -419598.497        4264.772                                  
                
  22263610.500     -713688.710        7310.765                                  
                
  24827681.932      -59447.003         630.415                                  
                
  21545646.410     -294017.366        5421.849                                  
                
  21240956.186     -114310.608        1167.983                                  
                
  20545973.265      -87868.496        3226.352                                  
                
 18  5 22 14 44 26.5000000  0 11R 1R10R11R12R19R20R21G 3G 9G16G23
  20851331.761                        2977.542                                  
                
  20930508.865     -217471.400        2214.735                                  
                
  20893690.204     -455172.987        4638.523                                  
                
  23856935.943                        5915.799                                  
                
  23948771.630      -81345.842         807.259                                  
                
  21541083.205     -421731.333        4265.811                                  
                
  22262925.429     -717344.099        7311.801                                  
                
  24827621.839      -59762.610         631.802                                  
                
  21545130.272     -296728.897        5422.845                                  
                
  21240844.996     -114894.956        1168.926                                  
                
  20545667.607      -89481.641        3225.558                                  
                
 18  5 22 14 44 27.0000000  0 11R 1R10R11R12R19R20R21G 3G 9G16G23
  20851055.470                        2976.125                                  
                
  20930302.844     -218578.569        2214.386                                  
                
  20893258.006     -457492.174        4638.282                                  
                
  23856380.591                        5914.786                                  
                
  23948697.652      -81748.904         806.374                                  
                
  21540686.066     -423863.993        4265.059                                  
                
  22262244.815     -720999.441        7310.586                                  
                
  24827561.745      -60078.234         630.566                                  
                
  21544614.134     -299440.379        5423.041                                  
                
  21240733.815     -115479.261        1168.316                                  
                
  20545364.789      -91094.757        3226.125                                  
                
 18  5 22 14 44 27.5000000  0 11R 1R10R11R12R19R20R21G 3G 9G16G23
  20850778.027                        2977.602                                  
                
  20930096.046     -219685.694        2213.991                                  
                
  20892825.004     -459811.296        4638.165                                  
                
  23855824.490                        5914.797                                  
                
  23948622.951      -82151.726         803.920                                  
                
  21540288.194     -425996.441        4264.585                                  
                
  22261563.255     -724654.760        7310.676                                  
                
  24827501.643      -60393.915         631.328                                  
                
  21544098.059     -302151.628        5422.143                                  
                
  21240622.643     -116063.530        1168.558                                  
                
  20545064.098      -92707.665        3225.154                                  
                
 18  5 22 14 44 28.0000000  0 11R 1R10R11R12R19R20R21G 3G 9G16G23
  20850499.074                        2977.167                                  
                
  20929888.131     -220792.936        2214.832                                  
                
  20892390.796     -462130.526        4638.875                                  
                
  23855267.923                        5916.841                                  
                
  23948520.802      -82554.688         804.898                                  
                
  21539889.241     -428128.802        4264.720                                  
                
  22260880.578     -728310.120        7311.171                                  
                
  24827441.523      -60709.680         631.944                                  
                
  21543581.983     -304862.926        5422.809                                  
                
  21240511.471     -116647.808        1168.386                                  
                
  20544759.405      -94320.584        3226.681                                  
                
 18  5 22 14 44 28.5000000  0 11R 1R10R11R12R19R20R21G 3G 9G16G23
  20850220.103                        2975.709                                  
                
  20929680.260     -221899.984        2214.305                                  
                
  20891956.641     -464449.540        4637.926                                  
                
  23854712.670                        5917.001                                  
                
  23948447.950      -82957.328         806.440                                  
                
  21539490.360     -430260.794        4263.965                                  
                
  22260197.963     -731965.208        7309.827                                  
                
  24827381.411      -61025.368         631.414                                  
                
  21543065.953     -307573.957        5422.379                                  
                
  21240400.317     -117231.923        1168.254                                  
                
  20544453.737      -95933.111        3225.026                                  
                
 18  5 22 14 44 29.0000000  0 11R 1R10R11R12R19R20R21G 3G 9G16G23
  20849941.373                        2976.014                                  
                
  20929472.586     -223007.131        2213.739                                  
                
  20891522.620     -466768.663        4638.004                                  
                
  23854158.033                        5916.507                                  
                
  23948372.552                         806.638                                  
                
  21539091.720     -432392.693        4263.031                                  
                
  22259515.599     -735620.402        7309.930                                  
                
  24827321.282      -61341.196         631.164                                  
                
  21542549.931     -310284.978        5421.818                                  
                
  21240289.171     -117816.089        1168.325                                  
                
  20544146.944      -97545.681        3224.789                                  
                
 18  5 22 14 44 29.5000000  0 11R 1R10R11R12R19R20R21G 3G 9G16G23
  20849659.533                        2977.753                                  
                
  20929261.839     -224113.600        2212.791                                  
                
  20891085.535     -469087.064        4636.261                                  
                
  23853600.958                        5916.517                                  
                
  23948294.268                         803.846                                  
                
  21538690.033     -434523.728        4261.514                                  
                
  22258830.126     -739274.845        7308.342                                  
                
  24827261.269      -61656.396         630.204                                  
                
  21542034.070     -312995.194        5419.846                                  
                
  21240178.151     -118399.512        1166.544                                  
                
  20543840.258      -99157.381        3222.784                                  
                
 18  5 22 14 44 30.0000000  0 11R 1R10R11R12R19R20R21G 3G 9G16G23
  20849380.607                        2973.171                                  
                
  20929054.157     -225220.253        2213.514                                  
                
  20890651.505     -471405.688        4637.458                                  
                
  23853047.590                        5915.174                                  
                
  23948219.665                         803.926                                  
                
  21538291.456     -436654.768        4262.063                                  
                
  22258147.788     -742929.455        7309.388                                  
                
  24827201.202      -61971.852         631.357                                  
                
  21541518.192     -315705.554        5420.727                                  
                
  21240067.113     -118983.105        1167.466                                  
                
  20543533.813     -100769.135        3223.614                                  
                
 18  5 22 14 44 30.5000000  0 11R 1R10R11R12R19R20R21G 3G 9G16G23
  20849094.336                        2974.167                                  
                
  20928838.844     -226327.157        2214.333                                  
                
  20890209.864     -473724.514        4637.866                                  
                
  23852486.520                        5918.640                                  
                
  23948137.548                         805.947                                  
                
  21537885.275     -438785.872        4262.476                                  
                
  22257457.704     -746584.280        7310.444                                  
                
  24827141.082      -62287.570         632.178                                  
                
  21541002.268     -318416.058        5421.934                                  
                
  21239956.021     -119566.903        1168.355                                  
                
  20543227.324     -102381.040        3224.662                                  
                
 18  5 22 14 44 31.0000000  0 11R 1R10R11R12R19R20R21G 3G 9G16G23
  20848815.731                        2973.753                                  
                
  20928631.081     -227434.477        2214.910                                  
                
  20889775.780     -476043.754        4638.698                                  
                
  23851932.902                        5916.216                                  
                
  23948062.694      -84968.599         803.739                                  
                
  21537486.688     -440917.199        4262.738                                  
                
  22256775.286     -750239.435        7310.269                                  
                
  24827080.881      -62603.761         632.810                                  
                
  21540486.309     -321126.818        5421.743                                  
                
  21239844.867     -120151.064        1168.758                                  
                
  20542920.906     -103992.6881       3224.661                                  
                
 18  5 22 14 44 31.5000000  0 11R 1R10R11R12R19R20R21G 3G 9G16G23
  20848539.173                        2977.276                                  
                
  20928425.113     -228541.542        2213.981                                  
                
  20889343.502     -478362.724        4637.886                                  
                
  23851381.518                        5917.904                                  
                
  23947989.485                         804.130                                  
                
  21537089.934     -443048.083        4261.249                                  
                
  22256094.566     -753894.375        7310.087                                  
                
  24827020.698      -62919.789         632.760                                  
                
  21539970.413     -323837.281        5420.993                                  
                
  21239733.766     -120734.948        1167.737                                  
                
  20542614.532     -105604.479        3223.332                                  
                
 18  5 22 14 44 32.0000000  0 11R 1R10R11R12R19R20R21G 3G 9G16G23
  20848260.970                        2975.068                                  
                
  20928217.323     -229648.704        2214.305                                  
                
  20888909.410     -480681.780        4638.130                                  
                
  23850828.489                        5914.559                                  
                
  23947914.363                         804.193                                  
                
  21536691.383     -445178.910        4261.651                                  
                
  22255412.032     -757549.318        7309.503                                  
                
  24826960.506      -63235.918         632.165                                  
                
  21539454.534     -326547.736        5421.194                                  
                
  21239622.648     -121318.904        1168.083                                  
                
  20542308.409     -107216.240        3223.404                                  
                
 18  5 22 14 44 32.5000000  0 11R 1R10R11R12R19R20R21G 3G 9G16G23
  20847980.757                        2973.150                                  
                
  20928007.014     -230755.812        2214.225                                  
                
  20888472.807     -483000.785        4638.032                                  
                
  23850272.727                        5914.858                                  
                
  23947836.758                         802.721                                  
                
  21536290.366     -447309.454        4260.808                                  
                
  22254726.915     -761204.177        7309.857                                  
                
  24826900.315      -63552.065         632.529                                  
                
  21538938.718     -329257.987        5420.228                                  
                
  21239511.556     -121902.755        1167.690                                  
                
  20542002.295     -108827.744        3221.840                                  
                
 18  5 22 14 44 33.0000000  0 11R 1R10R11R12R19R20R21G 3G 9G16G23
  20847703.251     -132863.092        2973.251                                  
                
  20927799.233     -231862.970        2214.373                                  
                
  20888038.733     -485319.837        4638.315                                  
                
  23849719.002                        5918.048                                  
                
  23947761.789                         801.116                                  
                
  21535891.896     -449439.896        4260.888                                  
                
  22254044.346     -764859.056        7310.226                                  
                
  24826840.105      -63868.290         632.784                                  
                
  21538422.911     -331968.220        5420.740                                  
                
  21239400.456     -122486.602        1167.982                                  
                
  20541696.306     -110439.302        3224.081                                  
                
 18  5 22 14 44 33.5000000  0 11R 1R10R11R12R19R20R21G 3G 9G16G23
  20847431.561     -134349.219        2972.726                                  
                
  20927597.501     -232970.251        2214.753                                  
                
  20887610.689     -487638.969        4638.198                                  
                
  23849171.414                        5917.751                                  
                
  23947692.734                         801.595                                  
                
  21535499.510     -451570.259        4260.791                                  
                
  22253367.824     -768513.944        7309.854                                  
                
  24826779.860      -64184.689         633.320                                  
                
  21537907.121     -334678.455        5420.368                                  
                
  21239289.355     -123070.519        1168.134                                  
                
  20541390.406     -112050.736        3223.229                                  
                
 18  5 22 14 44 34.0000000  0 11R 1R10R11R12R19R20R21G 3G 9G16G23
  20847153.885                        2970.852                                  
                
  20927389.729     -234077.336        2214.212                                  
                
  20887176.606     -489957.915        4637.802                                  
                
  23848617.296                        5917.952                                  
                
  23947618.059                         801.863                                  
                
  21535101.138     -453700.235        4259.572                                  
                
  22252685.254     -772168.644        7309.233                                  
                
  24826719.650      -64500.952         632.574                                  
                
  21537391.403     -337388.441        5420.192                                  
                
  21239178.290     -123654.212        1167.248                                  
                
  20541084.613     -113661.844        3221.620                                  
                
 18  5 22 14 44 34.5000000  0 11R 1R10R11R12R19R20R21G 3G 9G16G23
  20846876.978                        2971.376                                  
                
  20927182.930     -235184.164        2213.357                                  
                
  20886743.470     -492276.620        4637.239                                  
                
  23848064.143                        5916.778                                  
                
  23947544.367      -87777.343         803.794                                  
                
  21534703.749     -455829.808        4258.745                                  
                
  22252003.614     -775823.064        7308.425                                  
                
  24826659.458      -64817.021         632.105                                  
                
  21536875.748     -340098.098        5419.703                                  
                
  21239067.279     -124237.653        1167.070                                  
                
  20540778.776     -115272.678        3221.681                                  
                
 18  5 22 14 44 35.0000000  0 11R 1R10R11R12R19R20R21G 3G 9G16G23
  20846599.240                        2969.275                                  
                
  20926975.230     -236291.018        2214.666                                  
                
  20886309.395     -494595.317        4638.176                                  
                
  23847510.542                        5917.049                                  
                
  23947469.827                         800.195                                  
                
  21534305.502     -457959.190        4259.335                                  
                
  22251321.080     -779477.443        7309.310                                  
                
  24826599.266      -65133.163         633.340                                  
                
  21536360.146     -342807.585        5419.513                                  
                
  21238956.276     -124821.020        1167.464                                  
                
  20540472.966     -116883.306        3221.694                                  
                
 18  5 22 14 44 35.5000000  0 11R 1R10R11R12R19R20R21G 3G 9G16G23
  20846317.785                        2969.053                                  
                
  20926763.482     -237398.125        2213.656                                  
                
  20885871.274     -496914.278        4637.334                                  
                
  23846952.904                        5917.581                                  
                
  23947391.364                         800.621                                  
                
  21533903.244     -460088.681        4258.416                                  
                
  22250634.489     -783132.054        7308.660                                  
                
  24826539.021      -65449.576         632.460                                  
                
  21535844.509     -345517.257        5418.244                                  
                
  21238845.238     -125404.615        1166.866                                  
                
  20540166.959     -118494.037        3220.039                                  
                
 18  5 22 14 44 36.0000000  0 11R 1R10R11R12R19R20R21G 3G 9G16G23
  20846039.957                        2971.040                                  
                
  20926555.835     -238504.898        2213.583                                  
                
  20885437.226     -499232.880        4637.519                                  
                
  23846399.071                        5914.205                                  
                
  23947316.814      -88978.478         803.045                                  
                
  21533505.113     -462217.616        4257.744                                  
                
  22249951.982     -786786.248        7308.262                                  
                
  24826478.820      -65765.714         632.107                                  
                
  21535328.961     -348226.543        5418.176                                  
                
  21238734.272     -125987.849        1166.377                                  
                
  20539860.978     -120104.396        3220.458                                  
                
 18  5 22 14 44 36.5000000  0 11R 1R10R11R12R19R20R21G 3G 9G16G23
  20845766.311                        2968.960                                  
                
  20926352.512     -239611.786        2214.115                                  
                
  20885007.512     -501551.562        4637.815                                  
                
  23845849.608                        5917.150                                  
                
  23947246.714                         800.891                                  
                
  21533111.351     -464346.488        4257.902                                  
                
  22249273.790     -790440.548        7308.745                                  
                
  24826418.593      -66082.050         632.966                                  
                
  21534813.422     -350935.831        5418.317                                  
                
  21238623.278     -126571.162        1166.943                                  
                
  20539554.953     -121714.699        3220.583                                  
                
 18  5 22 14 44 37.0000000  0 11R 1R10R11R12R19R20R21G 3G 9G16G23
  20845489.163                        2972.373                                  
                
  20926144.847     -240718.940        2214.801                                  
                
  20884573.429     -503870.493        4638.357                                  
                
  23845296.025                        5918.517                                  
                
  23947172.790      -89780.008         802.139                                  
                
  21532713.283     -466475.445        4258.149                                  
                
  22248591.274     -794095.080        7309.468                                  
                
  24826358.302      -66398.703         634.113                                  
                
  21534297.865     -353645.291        5419.333                                  
                
  21238512.249     -127154.703        1167.480                                  
                
  20539248.848     -123325.159        3221.834                                  
                
 18  5 22 14 44 37.5000000  0 11R 1R10R11R12R19R20R21G 3G 9G16G23
  20845214.953                        2975.665                                  
                
  20925938.701     -241825.902        2213.840                                  
                
  20884140.864     -506189.222        4637.343                                  
                
  23844744.087                        5917.582                                  
                
  23947100.045      -90180.809         801.765                                  
                
  21532316.769     -468604.004        4256.659                                  
                
  22247910.267     -797749.373        7309.037                                  
                
  24826298.048      -66715.165         632.840                                  
                
  21533782.379     -356354.432        5418.121                                  
                
  21238401.265     -127737.999        1166.365                                  
                
  20538942.752     -124935.230        3220.156                                  
                
 18  5 22 14 44 38.0000000  0 11R 1R10R11R12R19R20R21G 3G 9G16G23
  20844939.190                        2979.610                                  
                
  20925731.126     -242932.922        2214.151                                  
                
  20883706.844     -508508.028        4637.748                                  
                
  23844190.317                        5917.702                                  
                
  23947025.728      -90580.938         800.957                                  
                
  21531918.862     -470732.455        4256.855                                  
                
  22247227.858     -801403.623        7308.149                                  
                
  24826237.776      -67031.760         633.283                                  
                
  21533266.911     -359063.539        5417.715                                  
                
  21238290.271     -128321.332        1166.714                                  
                
  20538636.691     -126545.240        3219.774                                  
                
 18  5 22 14 44 38.5000000  0 11R 1R10R11R12R19R20R21G 3G 9G16G23
  20844662.479                        2967.962                                  
                
  20925524.658     -244039.839        2213.067                                  
                
  20883273.922     -510826.707        4636.129                                  
                
  23843637.441                        5915.880                                  
                
  23946952.367      -90980.909         797.394                                  
                
  21531522.089     -472860.600        4255.041                                  
                
  22246546.503     -805057.773        7307.091                                  
                
  24826177.513      -67348.307         632.327                                  
                
  21532751.479     -361772.480        5417.056                                  
                
  21238179.304     -128904.523        1165.561                                  
                
  20538330.702     -128155.043        3217.946                                  
                
 18  5 22 14 44 39.0000000  0 11R 1R10R11R12R19R20R21G 3G 9G16G23
  20844384.928                        2967.962                                  
                
  20925317.092     -245146.643        2213.662                                  
                
  20882839.892     -513145.290        4637.542                                  
                
  23843083.215                        5917.561                                  
                
  23946877.719      -91381.034         798.835                                  
                
  21531124.253     -474988.461        4255.494                                  
                
  22245864.077     -808711.731        7307.457                                  
                
  24826117.267      -67664.783         632.837                                  
                
  21532236.092     -364481.177        5417.251                                  
                
  21238068.374     -129487.554        1166.079                                  
                
  20538024.704     -129764.534        3218.034                                  
                
 18  5 22 14 44 39.5000000  0 11R 1R10R11R12R19R20R21G 3G 9G16G23
  20844109.629                        2966.962                                  
                
  20925111.687     -246253.480        2214.272                                  
                
  20882408.025     -515463.881        4637.724                                  
                
  23842531.169                        5917.427                                  
                
  23946805.564      -91780.701         799.991                                  
                
  21530728.606     -477116.153        4255.595                                  
                
  22245183.821     -812365.727        7307.874                                  
                
  24826057.004      -67981.350         633.971                                  
                
  21531720.731     -367189.795        5417.475                                  
                
  21237957.434     -130070.593        1166.611                                  
                
  20537718.670     -131374.012        3218.966                                  
                
 18  5 22 14 44 40.0000000  0 11R 1R10R11R12R19R20R21G 3G 9G16G23
  20843832.159                        2966.962                                  
                
  20924904.049     -247360.541        2214.066                                  
                
  20881973.915     -517782.683        4637.570                                  
                
  23841976.703                        5920.684                                  
                
  23946731.273      -92180.458         799.026                                  
                
  21530330.770     -479243.900        4255.185                                  
                
  22244501.304     -816019.986        7308.623                                  
                
  24825996.696      -68298.163         633.198                                  
                
  21531205.353     -369898.571        5417.256                                  
                
  21237846.458     -130653.805        1166.178                                  
                
  20537412.583     -132983.570        3218.895                                  
                
 18  5 22 14 44 40.5000000  0 11R 1R10R11R12R19R20R21G 3G 9G16G23
  20843554.850                        2966.962                                  
                
  20924696.599     -248467.437        2213.869                                  
                
  20881540.001     -520101.314        4637.465                                  
                
  23841422.745                        5918.711                                  
                
  23946664.631      -92579.906         798.862                                  
                
  21529933.158     -481371.301        4254.735                                  
                
  22243828.866     -819673.894        7307.503                                  
                
  24825936.406      -68614.919         634.002                                  
                
  21530690.011     -372607.088        5417.340                                  
                
  21237735.518     -131236.851        1166.597                                  
                
  20537106.540     -134592.836        3219.111                                  
                
 18  5 22 14 44 41.0000000  0 11R 1R10R11R12R19R20R21G 3G 9G16G23
  20843276.727                        2966.962                                  
                
  20924488.371     -249574.223        2213.904                                  
                
  20881105.310     -522419.819        4637.235                                  
                
  23840868.430                        5914.662                                  
                
  23946591.966      -92979.117         798.778                                  
                
  21529534.786     -483498.409        4254.427                                  
                
  22243145.903     -823327.686        7307.374                                  
                
  24825876.134      -68931.600         634.119                                  
                
  21530174.721     -375315.387        5417.044                                  
                
  21237624.614     -131819.722        1166.284                                  
                
  20536800.595     -136201.808        3218.448                                  
                
 18  5 22 14 44 41.5000000  0 11R 1R10R11R12R19R20R21G 3G 9G16G23
  20842999.856                        2964.962                                  
                
  20924281.233     -250680.977        2213.098                                  
                
  20880671.728     -524738.268        4636.442                                  
                
  23840314.910                        5916.958                                  
                
  23946518.212      -93378.199         797.795                                  
                
  21529137.548     -485625.305        4253.457                                  
                
  22242463.825     -826981.410        7306.225                                  
                
  24825815.861      -69248.272         633.352                                  
                
  21529659.450     -378023.574        5415.813                                  
                
  21237513.710     -132402.535        1165.501                                  
                
  20536494.687     -137810.682        3217.582                                  
                
 18  5 22 14 44 42.0000000  0 11R 1R10R11R12R19R20R21G 3G 9G16G23
  20842722.582                        2964.973                                  
                
  20924073.702     -251787.358        2213.427                                  
                
  20880237.734     -527056.340        4636.626                                  
                
  23839760.685                        5915.081                                  
                
  23946444.127      -93776.748         797.734                                  
                
  21528739.945     -487751.631        4252.942                                  
                
  22241791.762     -830634.695        7306.266                                  
                
  24825755.652      -69564.628         633.501                                  
                
  21529144.269     -380731.261        5416.384                                  
                
  21237402.895     -132984.937        1165.539                                  
                
  20536188.921     -139418.980        3217.199                                  
                
 18  5 22 14 44 42.5000000  0 11R 1R10R11R12R19R20R21G 3G 9G16G23
  20842444.924                        2966.369                                  
                
  20923864.653     -252893.918        2213.637                                  
                
  20879802.239     -529374.611        4637.281                                  
                
  23839205.155                        5916.780                                  
                
  23946369.050      -94174.8751        797.252                                  
                
  21528340.867     -489877.968        4252.956                                  
                
  22241106.878     -834288.150        7306.775                                  
                
  24825695.397      -69881.192         633.597                                  
                
  21528629.096     -383438.978        5415.919                                  
                
  21237292.045     -133567.448        1165.598                                  
                
  20535883.137     -141027.337        3216.930                                  
                
 18  5 22 14 44 43.0000000  0 11R 1R10R11R12R19R20R21G 3G 9G16G23
  20842169.581                        2970.307                                  
                
  20923657.247     -254000.539        2213.535                                  
                
  20879368.361     -531692.903        4636.725                                  
                
  23838651.233     -677813.291        5918.329                                  
                
  23946296.002      -94573.437         797.675                                  
                
  21527943.451     -492004.176        4252.444                                  
                
  22240425.836     -837941.596        7307.045                                  
                
  24825635.125      -70197.904         633.429                                  
                
  21528113.914     -386146.751        5415.911                                  
                
  21237181.185     -134150.034        1165.318                                  
                
  20535577.398     -142635.689        3217.082                                  
                
 18  5 22 14 44 43.5000000  0 11R 1R10R11R12R19R20R21G 3G 9G16G23
  20841887.786                        2966.301                                  
                
  20923443.650     -255107.065        2213.136                                  
                
  20878928.292     -534011.133        4636.672                                  
                
  23838091.075     -680771.829        5917.134                                  
                
  23946216.467      -94971.799         797.069                                  
                
  21527539.879     -494130.125        4252.009                                  
                
  22239735.252     -841594.966        7307.259                                  
                
  24825574.862      -70514.566         633.473                                  
                
  21527598.777     -388854.283        5414.503                                  
                
  21237070.362     -134732.455        1165.014                                  
                
  20535271.686     -144243.784        3216.420                                  
                
 18  5 22 14 44 44.0000000  0 11R 1R10R11R12R19R20R21G 3G 9G16G23
  20841612.880                        2960.341                                  
                
  20923236.637     -256213.561        2212.702                                  
                
  20878494.816     -536329.292        4636.161                                  
                
  23837537.457     -683730.317        5916.542                                  
                
  23946143.472      -95369.970         795.976                                  
                
  21527142.936     -496255.824        4250.992                                  
                
  22239050.922     -845248.197        7306.648                                  
                
  24825514.590      -70831.242         633.200                                  
                
  21527083.657     -391561.695        5414.268                                  
                
  21236959.547     -135314.815        1164.540                                  
                
  20534966.045     -145851.673        3215.003                                  
                
 18  5 22 14 44 44.5000000  0 11R 1R10R11R12R19R20R21G 3G 9G16G23
  20841340.762                        2961.413                                  
                
  20923032.189     -257320.246        2213.512                                  
                
  20878063.904     -538647.630        4636.611                                  
                
  23836986.662     -686689.015        5918.057                                  
                
  23946072.907      -95768.210         796.596                                  
                
  21526748.594     -498381.550        4251.453                                  
                
  22238371.354     -848901.6051       7307.441                                  
                
  24825454.282      -71148.175         634.132                                  
                
  21526568.529     -394269.219        5414.864                                  
                
  21236848.706     -135897.346        1165.170                                  
                
  20534660.369     -147459.691        3216.072                                  
                
 18  5 22 14 44 45.0000000  0 11R 1R10R11R12R19R20R21G 3G 9G16G23
  20841065.311                        2960.889                                  
                
  20922824.702     -258426.962        2213.689                                  
                
  20877629.946     -540966.004        4636.822                                  
                
  23836438.699     -689647.751        5917.739                                  
                
  23945999.349      -96166.370         796.402                                  
                
  21526351.232     -500507.121        4251.230                                  
                
  22237688.355     -852555.027        7307.864                                  
                
  24825393.956      -71465.183         634.740                                  
                
  21526053.410     -396976.674        5415.443                                  
                
  21236737.855     -136479.861        1165.571                                  
                
  20534354.764     -149067.567        3215.964                                  
                
 18  5 22 14 44 45.5000000  0 11R 1R10R11R12R19R20R21G 3G 9G16G23
  20840786.813                        2962.430                                  
                
  20922615.027     -259533.703        2213.338                                  
                
  20877193.808     -543284.406        4636.556                                  
                
  23835877.281     -692606.553        5916.564                                  
                
  23945923.442      -96564.410         795.761                                  
                
  21525951.716     -502632.534        4250.274                                  
                
  22237003.168     -856208.406        7306.519                                  
                
  24825333.621      -71782.226         633.727                                  
                
  21525538.335     -399683.983        5413.754                                  
                
  21236627.022     -137062.327        1164.567                                  
                
  20534049.159     -150675.313        3215.068                                  
                
 18  5 22 14 44 46.0000000  0 11R 1R10R11R12R19R20R21G 3G 9G16G23
  20840510.674                        2959.203                                  
                
  20922407.845     -260640.287        2212.999                                  
                
  20876760.172     -545602.640        4636.350                                  
                
  23835322.073     -695565.240        5917.236                                  
                
  23945850.098      -96962.172         794.930                                  
                
  21525554.729     -504757.612        4249.792                                  
                
  22236320.356     -859861.564        7305.922                                  
                
  24825273.304      -72099.202         633.689                                  
                
  21525023.288     -402391.114        5413.735                                  
                
  21236516.217     -137644.641        1164.332                                  
                
  20533743.599     -152282.824        3214.491                                  
                
 18  5 22 14 44 46.5000000  0 11R 1R10R11R12R19R20R21G 3G 9G16G23
  20840234.473                        2960.345                                  
                
  20922200.511     -261747.007        2213.963                                  
                
  20876326.392     -547920.990        4637.230                                  
                
  23834769.536     -698524.0431       5917.977                                  
                
  23945776.415      -97359.969         795.924                                  
                
  21525157.617     -506882.639        4250.088                                  
                
  22235637.367     -863514.805        7306.511                                  
                
  24825212.943      -72416.386         634.877                                  
                
  21524508.240     -405098.261        5414.649                                  
                
  21236405.384     -138227.047        1165.133                                  
                
  20533438.021     -153890.294        3214.658                                  
                
 18  5 22 14 44 47.0000000  0 11R 1R10R11R12R19R20R21G 3G 9G16G23
  20839957.503                        2960.464                                  
                
  20921993.042     -262853.596        2212.996                                  
                
  20875892.461     -550239.189        4636.351                                  
                
  23834219.090     -701482.738        5917.020                                  
                
  23945702.598      -97757.489         794.696                                  
                
  21524760.388     -509007.353        4248.962                                  
                
  22234954.064     -867167.933        7306.767                                  
                
  24825152.608      -72733.464         634.050                                  
                
  21523993.237     -407805.186        5413.858                                  
                
  21236294.596     -138809.287        1164.152                                  
                
  20533132.478     -155497.551        3214.168                                  
                
 18  5 22 14 44 47.5000000  0 11R 1R10R11R12R19R20R21G 3G 9G16G23
  20839681.426                        2960.614                                  
                
  20921786.512     -263959.881        2212.778                                  
                
  20875459.485     -552557.062        4635.887                                  
                
  23833666.061     -704441.183        5917.618                                  
                
  23945629.648      -98154.585         793.681                                  
                
  21524364.152     -511131.582        4248.465                                  
                
  22234271.718     -870820.606        7304.672                                  
                
  24825092.327      -73050.289         634.014                                  
                
  21523478.323     -410511.683        5412.940                                  
                
  21236183.871     -139391.190        1163.994                                  
                
  20532826.989     -157104.337        3213.477                                  
                
 18  5 22 14 44 48.0000000  0 11R 1R10R11R12R19R20R21G 3G 9G16G23
  20839404.537                        2958.327                                  
                
  20921579.151     -265066.339        2212.193                                  
                
  20875025.679     -554875.105        4635.149                                  
                
  23833109.772     -707399.824        5919.703                                  
                
  23945555.858      -98551.763         793.258                                  
                
  21523967.111     -513255.782        4247.156                                  
                
  22233588.379     -874473.465        7303.671                                  
                
  24825031.992      -73367.345         633.681                                  
                
  21522963.382     -413218.290        5412.637                                  
                
  21236073.118     -139973.224        1163.417                                  
                
  20532521.456     -158711.208        3213.038                                  
                
 18  5 22 14 44 48.5000000  0 11R 1R10R11R12R19R20R21G 3G 9G16G23
  20839128.201                        2959.644                                  
                
  20921372.201     -266172.917        2212.558                                  
                
  20874592.302     -557193.256        4635.146                                  
                
  23832556.297     -710358.467        5916.537                                  
                
  23945482.434      -98948.893         794.013                                  
                
  21523570.517     -515379.937        4247.125                                  
                
  22232905.515     -878126.439        7304.743                                  
                
  24824971.639      -73684.535         633.720                                  
                
  21522448.442     -415924.893        5412.292                                  
                
  21235962.348     -140555.319        1163.154                                  
                
  20532215.922     -160318.018        3212.842                                  
                
 18  5 22 14 44 49.0000000  0 11R 1R10R11R12R19R20R21G 3G 9G16G23
  20838851.383                        2960.755                                  
                
  20921164.867     -267279.061        2212.497                                  
                
  20874158.531     -559510.984        4635.524                                  
                
  23832002.473     -713316.834        5917.814                                  
                
  23945408.608      -99345.470         793.262                                  
                
  21523173.565     -517503.464        4247.057                                  
                
  22232222.328     -881778.920        7305.687                                  
                
  24824911.358      -74001.370         633.757                                  
                
  21521933.609     -418630.964        5412.171                                  
                
  21235851.668     -141136.971        1163.509                                  
                
  20531910.469     -161924.282        3212.557                                  
                
 18  5 22 14 44 49.5000000  0 12R 1R10R11R12R19R20R21G 3G 8G 9G16G23
  20838576.522                        2960.454                                  
                
  20920959.498     -268385.524        2212.865                                  
                
  20873726.735     -561829.012        4635.744                                  
                
  23831452.607     -716275.462        5916.994                                  
                
  23945336.757      -99742.219         792.482                                  
                
  21522778.624     -519627.127        4246.889                                  
                
  22231531.485     -885431.701        7306.475                                  
                
  24824851.006      -74318.591         634.266                                  
                
  22249992.556      -70054.4371       6644.166                                  
                
  21521418.722     -421337.256        5412.178                                  
                
  21235740.933     -141718.901        1163.806                                  
                
  20531604.998     -163530.710        3212.190                                  
                
 18  5 22 14 44 50.0000000  0 12R 1R10R11R12R19R20R21G 3G 8G 9G16G23
  20838299.901                        2958.099                                  
                
  20920752.530     -269491.917        2211.963                                  
                
  20873293.322     -564146.946        4634.966                                  
                
  23830896.836     -719234.083        5916.903                                  
                
  23945263.306     -100138.843         792.907                                  
                
  21522382.102     -521750.539        4246.082                                  
                
  22230848.638     -889084.304        7304.897                                  
                
  24824790.653      -74635.778         633.913                                  
                
  22249360.439      -73376.523        6643.580                                  
                
  21520903.870     -424043.398        5411.665                                  
                
  21235630.217     -142300.713        1162.989                                  
                
  20531299.563     -165136.974        3212.123                                  
                
 18  5 22 14 44 50.5000000  0 12R 1R10R11R12R19R20R21G 3G 8G 9G16G23
  20838019.312     -184765.517        2957.805                                  
                
  20920541.363     -270598.278        2212.637                                  
                
  20872855.745     -566464.838        4635.668                                  
                
  23830338.590     -722192.6401       5917.140                                  
                
  23945185.737     -100535.233         792.063                                  
                
  21521981.433     -523873.703        4245.775                                  
                
  22230161.833     -892736.837        7304.833                                  
                
  24824730.309      -74952.973         634.291                                  
                
  22248728.322      -76698.497        6644.272                                  
                
  21520389.046     -426749.381        5412.047                                  
                
  21235519.518     -142882.442        1163.154                                  
                
  20530994.146     -166743.034        3211.929                                  
                
 18  5 22 14 44 51.0000000  0 12R 1R10R11R12R19R20R21G 3G 8G 9G16G23
  20837742.200     -186244.574        2959.270                                  
                
  20920333.948     -271704.988        2214.216                                  
                
  20872421.903     -568783.071        4637.400                                  
                
  23829785.660     -725151.614        5919.253                                  
                
  23945111.938     -100931.870         793.156                                  
                
  21521584.536     -525997.070        4247.308                                  
                
  22229455.176     -896389.684        7306.188                                  
                
  24824669.894      -75270.551         635.998                                  
                
  22248096.179      -80020.773        6645.598                                  
                
  21519874.168     -429455.617        5413.222                                  
                
  21235408.757     -143464.493        1164.830                                  
                
  20530688.684     -168349.317        3213.013                                  
                
 18  5 22 14 44 51.5000000  0 12R 1R10R11R12R19R20R21G 3G 8G 9G16G23
  20837464.577     -187723.668        2958.826                                  
                
  20920126.257     -272811.881        2214.210                                  
                
  20871987.793     -571101.487        4637.304                                  
                
  23829231.354     -728110.765        5920.584                                  
                
  23945037.853     -101328.583         793.407                                  
                
  21521187.406     -528120.427        4246.917                                  
                
  22228771.373     -900042.652        7305.859                                  
                
  24824609.425      -75588.379         636.021                                  
                
  22247464.035      -83343.183        6645.350                                  
                
  21519359.281     -432161.916        5412.518                                  
                
  21235297.969     -144046.680        1164.535                                  
                
  20530383.213     -169955.679        3213.075                                  
                
 18  5 22 14 44 52.0000000  0 12R 1R10R11R12R19R20R21G 3G 8G 9G16G23
  20837181.309     -189202.403        2957.426                                  
                
  20919918.851     -273918.630        2213.292                                  
                
  20871553.978     -573419.744        4636.316                                  
                
  23828677.521     -731069.810        5918.137                                  
                
  23944964.045     -101725.047         792.605                                  
                
  21520790.588     -530243.453        4245.566                                  
                
  22228089.750                        7304.500                                  
                
  24824548.983      -75906.125         635.249                                  
                
  22246831.963      -86665.364        6643.198                                  
                
  21518844.421     -434868.014        5411.619                                  
                
  21235187.208     -144628.709        1163.469                                  
                
  20530077.804     -171561.718        3210.978                                  
                
 18  5 22 14 44 52.5000000  0 12R 1R10R11R12R19R20R21G 3G 8G 9G16G23
  20836906.742     -190680.787        2956.790                                  
                
  20919712.428     -275025.216        2212.791                                  
                
  20871121.164     -575737.817        4635.955                                  
                
  23828128.254                        5917.891                                  
                
  23944891.220     -102121.225         792.098                                  
                
  21520394.798     -532366.119        4244.975                                  
                
  22227408.020     -907347.522        7303.984                                  
                
  24824488.550      -76223.740         634.433                                  
                
  22246199.945      -89987.375        6643.375                                  
                
  21518329.614     -437573.823        5410.859                                  
                
  21235076.492     -145210.505        1163.016                                  
                
  20529772.414     -173167.517        3211.010                                  
                
 18  5 22 14 44 53.0000000  0 12R 1R10R11R12R19R20R21G 3G 8G 9G16G23
  20836633.007     -192158.831        2956.343                                  
                
  20919504.986     -276131.701        2213.424                                  
                
  20870687.322     -578055.788        4636.386                                  
                
  23827574.618     -736987.505        5918.104                                  
                
  23944817.403     -102517.111         791.625                                  
                
  21519998.017     -534488.508        4245.021                                  
                
  22226725.272     -910999.987        7304.952                                  
                
  24824428.135      -76541.302         635.783                                  
                
  22245568.007      -93309.200        6643.878                                  
                
  21517814.843     -440279.433        5411.521                                  
                
  21234965.802     -145792.182        1163.717                                  
                
  20529467.068     -174773.039        3211.422                                  
                
 18  5 22 14 44 53.5000000  0 12R 1R10R11R12R19R20R21G 3G 8G 9G16G23
  20836363.086     -193636.896        2956.598                                  
                
  20919303.317     -277238.339        2214.034                                  
                
  20870259.269     -580373.893        4636.624                                  
                
  23827026.602                        5918.546                                  
                
  23944749.384     -102913.093         793.115                                  
                
  21519607.051     -536610.864        4245.286                                  
                
  22226048.286     -914652.540        7305.857                                  
                
  24824367.667      -76859.096         636.682                                  
                
  22244936.042      -96631.146        6644.668                                  
                
  21517300.055     -442985.130        5412.181                                  
                
  21234855.085     -146374.001        1164.813                                  
                
  20529161.704     -176378.619        3212.111                                  
                
 18  5 22 14 44 54.0000000  0 12R 1R10R11R12R19R20R21G 3G 8G 9G16G23
  20836087.385     -195114.669        2955.130                                  
                
  20919095.848     -278344.841        2212.758                                  
                
  20869825.409     -582691.867        4635.555                                  
                
  23826472.546     -742905.234        5915.290                                  
                
  23944675.648     -103308.765         791.080                                  
                
  21519210.323     -538732.888        4243.559                                  
                
  22225364.858     -918304.900        7303.780                                  
                
  24824307.233      -77176.755         635.164                                  
                
  22244304.158      -99952.880        6643.178                                  
                
  21516785.311     -445690.541        5410.448                                  
                
  21234744.405     -146955.577        1162.930                                  
                
  20528856.403     -177983.889        3210.664                                  
                
 18  5 22 14 44 54.5000000  0 12R 1R10R11R12R19R20R21G 3G 8G 9G16G23
  20835812.363     -196591.7861       2955.243                                  
                
  20918889.139     -279451.436        2213.388                                  
                
  20869392.327     -585009.916        4636.492                                  
                
  23825918.821     -745864.327        5918.051                                  
                
  23944602.697     -103704.405         790.835                                  
                
  21518814.381     -540854.823        4243.789                                  
                
  22224684.299     -921957.335        7304.582                                  
                
  24824246.774      -77494.576         635.723                                  
                
  22243672.256     -103274.642        6643.476                                  
                
  21516270.576     -448395.968        5410.840                                  
                
  21234633.715     -147537.230        1163.327                                  
                
  20528551.102     -179589.100        3210.461                                  
                
 18  5 22 14 44 55.0000000  0 12R 1R10R11R12R19R20R21G 3G 8G 9G16G23
  20835536.295     -198069.144        2954.684                                  
                
  20918681.421     -280557.932        2213.298                                  
                
  20868958.235     -587327.846        4636.229                                  
                
  23825363.899     -748823.192        5919.868                                  
                
  23944528.764     -104099.828         790.382                                  
                
  21518417.475     -542976.489        4243.402                                  
                
  22224002.310     -925609.662        7305.339                                  
                
  24824186.314      -77812.369         635.912                                  
                
  22243040.380     -106596.288        6643.930                                  
                
  21515755.867     -451101.196        5410.878                                  
                
  21234523.043     -148118.771        1163.238                                  
                
  20528245.827     -181194.137        3210.256                                  
                
 18  5 22 14 44 55.5000000  0 12R 1R10R11R12R19R20R21G 3G 8G 9G16G23
  20835259.379     -199546.282        2954.911                                  
                
  20918473.024     -281664.356        2213.372                                  
                
  20868523.490     -589645.716        4636.426                                  
                
  23824808.413     -751781.994        5917.353                                  
                
  23944454.170     -104495.072         790.055                                  
                
  21518019.925     -545097.874        4242.943                                  
                
  22223321.384     -929261.839        7305.611                                  
                
  24824125.863      -78130.130         635.763                                  
                
  22242408.549     -109917.759        6642.983                                  
                
  21515241.195     -453806.230        5410.423                                  
                
  21234412.389     -148700.203        1163.489                                  
                
  20527940.598     -182798.951        3210.166                                  
                
 18  5 22 14 44 56.0000000  0 12R 1R10R11R12R19R20R21G 3G 8G 9G16G23
  20834982.892     -201023.165        2952.729                                  
                
  20918265.082     -282770.778        2212.448                                  
                
  20868089.201     -591963.553        4635.114                                  
                
  23824253.500     -754740.836        5918.036                                  
                
  23944380.023     -104890.246         789.968                                  
                
  21517622.866     -547219.070        4241.635                                  
                
  22222638.340     -932913.880        7302.751                                  
                
  24824065.403      -78447.946         635.331                                  
                
  22241776.718     -113239.227        6642.444                                  
                
  21514726.531     -456511.201        5409.771                                  
                
  21234301.744     -149281.598        1162.452                                  
                
  20527635.395     -184403.603        3208.803                                  
                
 18  5 22 14 44 56.5000000  0 12R 1R10R11R12R19R20R21G 3G 8G 9G16G23
  20834704.358     -202499.935        2953.459                                  
                
  20918055.103     -283877.246        2213.431                                  
                
  20867652.885     -594281.437        4636.271                                  
                
  23823696.433     -757699.686        5916.607                                  
                
  23944303.909     -105285.240         790.047                                  
                
  21517223.788     -549340.161        4242.657                                  
                
  22221953.412     -936566.066        7304.861                                  
                
  24824004.925      -78765.872         636.611                                  
                
  22241144.861     -116560.690        6643.719                                  
                
  21514211.877     -459216.138        5410.851                                  
                
  21234191.090     -149863.020        1163.641                                  
                
  20527330.174     -186008.217        3209.865                                  
                
 18  5 22 14 44 57.0000000  0 12R 1R10R11R12R19R20R21G 3G 8G 9G16G23
  20834428.237     -203976.546        2953.717                                  
                
  20917847.608     -284983.721        2213.293                                  
                
  20867219.069     -596599.300        4635.822                                  
                
  23823141.698     -760658.720        5919.528                                  
                
  23944230.334     -105680.192         790.368                                  
                
  21516827.248     -551461.038        4241.815                                  
                
  22221271.021     -940218.132        7304.636                                  
                
  24823944.439      -79083.827         636.045                                  
                
  22240513.012     -119882.076        6642.941                                  
                
  21513697.240     -461920.908        5409.405                                  
                
  21234080.454     -150444.374        1162.863                                  
                
  20527024.971     -187612.682        3209.146                                  
                
 18  5 22 14 44 57.5000000  0 12R 1R10R11R12R19R20R21G 3G 8G 9G16G23
  20834152.384     -205452.974        2951.448                                  
                
  20917640.416     -286090.227        2212.335                                  
                
  20866785.558     -598917.189        4634.925                                  
                
  23822586.963                        5917.701                                  
                
  23944157.080     -106075.016         789.357                                  
                
  21516431.047     -553581.771        4240.470                                  
                
  22220579.686     -943870.196        7303.359                                  
                
  24823883.934      -79401.868         635.318                                  
                
  22239881.146     -123203.455        6642.439                                  
                
  21513182.612     -464625.675        5408.636                                  
                
  21233969.809     -151025.742        1162.270                                  
                
  20526719.777     -189217.064        3208.668                                  
                
 18  5 22 14 44 58.0000000  0 12R 1R10R11R12R19R20R21G 3G 8G 9G16G23
  20833877.335     -206929.193        2952.356                                  
                
  20917434.011     -287196.691        2212.842                                  
                
  20866352.833     -601235.048        4635.684                                  
                
  23822033.050     -766576.571        5917.812                                  
                
  23944084.674     -106469.672         789.200                                  
                
  21516035.650     -555702.297        4240.619                                  
                
  22219900.565     -947522.158        7303.843                                  
                
  24823823.430      -79719.925         636.075                                  
                
  22239249.315     -126524.704        6642.216                                  
                
  21512668.011     -467330.272        5409.134                                  
                
  21233859.191     -151607.007        1162.481                                  
                
  20526414.637     -190821.229        3208.254                                  
                
 18  5 22 14 44 58.5000000  0 12R 1R10R11R12R19R20R21G 3G 8G 9G16G23
  20833602.188     -208405.055        2952.122                                  
                
  20917227.517     -288302.970        2213.015                                  
                
  20865920.045     -603552.703        4635.677                                  
                
  23821479.093     -769535.351        5918.126                                  
                
  23944012.233     -106864.014         789.212                                  
                
  21515640.218     -557822.434        4240.456                                  
                
  22219224.124     -951173.3641       7303.045                                  
                
  24823762.952      -80037.870         636.517                                  
                
  22238617.502     -129845.770        6642.659                                  
                
  21512153.463     -470034.606        5409.417                                  
                
  21233748.600     -152188.070        1162.535                                  
                
  20526109.523     -192425.106        3208.007                                  
                
 18  5 22 14 44 59.0000000  0 12R 1R10R11R12R19R20R21G 3G 8G 9G16G23
  20833324.879     -209880.763        2951.084                                  
                
  20917018.869     -289409.305        2212.681                                  
                
  20865485.113     -605870.412        4635.437                                  
                
  23820918.229     -772494.219        5918.205                                  
                
  23943937.666     -107258.311         788.154                                  
                
  21515242.659     -559942.451        4239.833                                  
                
  22218542.117     -954825.169        7303.024                                  
                
  24823702.456      -80355.882         636.021                                  
                
  22237985.725     -133166.771        6641.473                                  
                
  21511638.925     -472738.871        5408.847                                  
                
  21233638.017     -152769.145        1162.141                                  
                
  20525804.419     -194028.916        3207.843                                  
                
 18  5 22 14 44 59.5000000  0 12R 1R10R11R12R19R20R21G 3G 8G 9G16G23
  20833048.945     -211356.272        2951.081                                  
                
  20916811.571     -290515.612        2212.755                                  
                
  20865051.521     -608188.069        4635.203                                  
                
  23820357.552                        5918.537                                  
                
  23943864.483     -107652.481         788.945                                  
                
  21514846.484     -562062.243        4239.256                                  
                
  22217861.021     -958476.881        7302.998                                  
                
  24823641.961      -80673.922         635.780                                  
                
  22237353.939     -136487.756        6642.093                                  
                
  21511124.404     -475443.011        5408.410                                  
                
  21233527.435     -153350.162        1161.962                                  
                
  20525499.332     -195632.540        3207.276                                  
                
 18  5 22 14 45  0.0000000  0 12R 1R10R11R12R19R20R21G 3G 8G 9G16G23
  20832772.637     -212831.707        2951.479                                  
                
  20916603.879     -291622.031        2213.514                                  
                
  20864617.554     -610505.856        4636.333                                  
                
  23819802.692     -778412.063        5919.006                                  
                
  23943790.979     -108046.596         788.770                                  
                
  21514449.953     -564181.991        4239.967                                  
                
  22217179.577     -962128.743        7305.184                                  
                
  24823581.421      -80992.194         637.241                                  
                
  22236722.144     -139808.784        6642.644                                  
                
  21510609.866     -478147.228        5409.486                                  
                
  21233416.835     -153931.289        1163.156                                  
                
  20525194.236     -197236.189        3207.765                                  
                
 18  5 22 14 45  0.5000000  0 12R 1R10R11R12R19R20R21G 3G 8G 9G16G23
  20832497.695     -214306.943        2950.489                                  
                
  20916397.536     -292728.438        2212.733                                  
                
  20864184.945     -612823.599        4635.530                                  
                
  23819249.235     -781371.030        5917.000                                  
                
  23943718.824     -108440.610         788.088                                  
                
  21514054.806     -566301.532        4239.079                                  
                
  22216499.598     -965780.418        7302.654                                  
                
  24823520.880      -81310.443         636.648                                  
                
  22236090.349     -143129.706        6641.343                                  
                
  21510095.354     -480851.251        5407.997                                  
                
  21233306.261     -154512.305        1161.853                                  
                
  20524889.167     -198839.654        3206.552                                  
                
 18  5 22 14 45  1.0000000  0 12R 1R10R11R12R19R20R21G 3G 8G 9G16G23
  20832221.377     -215781.983        2949.446                                  
                
  20916189.747     -293834.840        2212.854                                  
                
  20863750.889     -615141.317        4635.535                                  
                
  23818694.223     -784330.033        5917.777                                  
                
  23943645.266     -108834.439         787.873                                  
                
  21513658.230     -568420.855        4238.191                                  
                
  22215818.065     -969432.147        7303.524                                  
                
  24823460.340      -81628.755         636.566                                  
                
  22235458.554     -146450.621        6641.221                                  
                
  21509580.851     -483555.236        5407.961                                  
                
  21233195.679     -155093.332        1162.028                                  
                
  20524584.116     -200443.024        3207.041                                  
                
 18  5 22 14 45  1.5000000  0 12R 1R10R11R12R19R20R21G 3G 8G 9G16G23
  20831944.336     -217256.658        2949.109                                  
                
  20915981.197     -294941.063        2212.239                                  
                
  20863316.091     -617458.837        4634.715                                  
                
  23818138.425     -787288.892        5920.233                                  
                
  23943570.958     -109227.996         786.700                                  
                
  21513260.948     -570539.836        4237.441                                  
                
  22215135.450     -973083.579        7302.127                                  
                
  24823399.818      -81946.923         636.368                                  
                
  22234826.803     -149771.267        6640.553                                  
                
  21509066.420     -486258.888        5407.175                                  
                
  21233085.141     -155674.097        1161.304                                  
                
  20524279.119     -202046.043        3206.229                                  
                
 18  5 22 14 45  2.0000000  0 12R 1R10R11R12R19R20R21G 3G 8G 9G16G23
  20831668.179     -218731.154        2948.369                                  
                
  20915773.514     -296047.303        2212.366                                  
                
  20862882.159     -619776.397        4634.856                                  
                
  23817583.297     -790247.746        5917.165                                  
                
  23943497.552     -109621.409         786.106                                  
                
  21512864.560     -572658.640        4237.134                                  
                
  22214453.810     -976735.008        7302.377                                  
                
  24823339.286      -82265.154         636.256                                  
                
  22234195.044     -153091.876        6639.901                                  
                
  21508551.998     -488962.458        5406.643                                  
                
  21232974.612     -156254.848        1161.070                                  
                
  20523974.130     -203648.915        3205.082                                  
                
 18  5 22 14 45  2.5000000  0 12R 1R10R11R12R19R20R21G 3G 8G 9G16G23
  20831389.208     -220205.471        2948.559                                  
                
  20915562.973     -297153.497        2212.471                                  
                
  20862445.378     -622093.910        4635.250                                  
                
  23817025.507     -793206.6461       5918.365                                  
                
  23943434.948                         787.965                                  
                
  21512465.348     -574777.245        4237.329                                  
                
  22213769.140     -980386.312        7302.542                                  
                
  24823278.755      -82583.431         637.050                                  
                
  22233563.285     -156412.453        6641.218                                  
                
  21508037.602     -491665.923        5407.138                                  
                
  21232864.092     -156835.548        1161.483                                  
                
  20523669.151     -205251.698        3205.662                                  
                
 18  5 22 14 45  3.0000000  0 12R 1R10R11R12R19R20R21G 3G 8G 9G16G23
  20831113.560     -221679.753        2948.376                                  
                
  20915355.710     -298259.891        2212.275                                  
                
  20862011.893     -624411.573        4635.025                                  
                
  23816467.350                        5916.144                                  
                
  23943361.971                         788.348                                  
                
  21512069.460     -576895.805        4236.450                                  
                
  22213087.785     -984037.757        7302.515                                  
                
  24823218.179      -82901.921         636.458                                  
                
  22232931.507     -159733.106        6640.287                                  
                
  21507523.189     -494369.452        5406.545                                  
                
  21232753.545     -157416.375        1161.141                                  
                
  20523364.135     -206854.504        3205.050                                  
                
 18  5 22 14 45  3.5000000  0 12R 1R10R11R12R19R20R21G 3G 8G 9G16G23
  20830837.466     -223153.817        2947.944                                  
                
  20915147.991     -299366.241        2212.624                                  
                
  20861577.944     -626729.236        4635.154                                  
                
  23815912.410                        5919.404                                  
                
  23943288.583                         785.595                                  
                
  21511673.143     -579014.163        4235.938                                  
                
  22212405.805     -987689.234        7303.699                                  
                
  24823157.594      -83220.459         637.083                                  
                
  22232299.712     -163053.722        6640.750                                  
                
  21507008.775     -497072.881        5406.605                                  
                
  21232643.008     -157997.162        1161.288                                  
                
  20523059.147     -208457.145        3204.522                                  
                
 18  5 22 14 45  4.0000000  0 11R 1R10R11R12R19R20R21G 3G 8G 9G16
  20830561.488     -224627.638        2946.989                                  
                
  20914940.389     -300472.551        2212.938                                  
                
  20861144.120     -629046.784        4635.149                                  
                
  23815357.710                        5918.780                                  
                
  23943216.088                         786.077                                  
                
  21511276.968     -581132.323        4235.944                                  
                
  22211723.950     -991340.454        7302.450                                  
                
  24823097.027      -83538.960         637.037                                  
                
  22231667.953     -166374.211        6640.884                                  
                
  21506494.397     -499776.180        5406.964                                  
                
  21232532.488     -158577.855        1161.587                                  
                
 18  5 22 14 45  4.5000000  0 11R 1R10R11R12R19R20R21G 3G 8G 9G16
  20830286.493     -226101.437        2946.502                                  
                
  20914733.707     -301579.010        2212.532                                  
                
  20860711.216     -631364.541        4635.207                                  
                
  23814803.521                        5918.356                                  
                
  23943144.281                         786.270                                  
                
  21510881.741     -583250.470        4235.824                                  
                
  22211042.944     -994991.970        7303.431                                  
                
  24823036.415      -83857.692         637.223                                  
                
  22231036.158     -169694.817        6640.856                                  
                
  21505980.011     -502479.479        5406.217                                  
                
  21232421.950     -159158.657        1161.065                                  
                
 18  5 22 14 45  5.0000000  0 11R 1R10R11R12R19R20R21G 3G 8G 9G16
  20830010.568     -227575.082        2947.396                                  
                
  20914526.060     -302685.521        2213.693                                  
                
  20860277.356     -633682.298        4636.108                                  
                
  23814248.401                        5917.620                                  
                
  23943071.626                         786.075                                  
                
  21510485.612     -585368.422        4236.229                                  
                
  22210360.883     -998643.360        7303.632                                  
                
  24822975.786      -84176.488         638.399                                  
                
  22230404.363     -173015.370        6641.608                                  
                
  21505465.624     -505182.706        5407.095                                  
                
  21232311.412     -159739.468        1162.293                                  
                
 18  5 22 14 45  5.5000000  0 11R 1R10R11R12R19R20R21G 3G 8G 9G16
  20829726.174     -229048.546        2946.647                                  
                
  20914309.899     -303792.027        2212.789                                  
                
  20859834.973     -636000.048        4635.297                                  
                
  23813685.063     -810961.417        5918.133                                  
                
  23942990.331                         784.800                                  
                
  21510080.986     -587486.205        4234.984                                  
                
  22209673.623    -1002295.206        7301.193                                  
                
  24822915.147      -84495.342         637.524                                  
                
  22229772.595     -176335.856        6640.320                                  
                
  21504951.255     -507885.892        5405.680                                  
                
  21232200.883     -160320.245        1161.082                                  
                
 18  5 22 14 45  6.0000000  0 11R 1R10R11R12R19R20R21G 3G 8G 9G16
  20829450.535     -230521.837        2946.351                                  
                
  20914102.466     -304898.569        2213.407                                  
                
  20859401.336     -638317.815        4635.774                                  
                
  23813130.989     -813920.691        5918.121                                  
                
  23942917.997                         784.711                                  
                
  21509685.124     -589603.836        4235.236                                  
                
  22208990.740    -1005946.604        7302.197                                  
                
  24822854.500      -84814.253         637.931                                  
                
  22229140.818     -179656.353        6641.022                                  
                
  21504436.905     -510588.963        5406.398                                  
                
  21232090.346     -160901.011        1161.784                                  
                
 18  5 22 14 45  6.5000000  0 11R 1R10R11R12R19R20R21G 3G 8G 9G16
  20829175.325     -231995.137        2946.449                                  
                
  20913895.435     -306005.263        2213.602                                  
                
  20858968.093     -640635.727        4635.818                                  
                
  23812575.843     -816880.198        5919.561                                  
                
  23942846.101                         786.677                                  
                
  21509289.692     -591721.447        4235.137                                  
                
  22208308.447    -1009598.061        7303.121                                  
                
  24822793.817      -85133.394         638.338                                  
                
  22228509.040     -182976.943        6641.825                                  
                
  21503922.545     -513292.080        5406.617                                  
                
  21231979.799     -161481.876        1162.123                                  
                
 18  5 22 14 45  7.0000000  0 11R 1R10R11R12R19R20R21G 3G 8G 9G16
  20828899.910     -233468.181        2945.648                                  
                
  20913688.182     -307111.909        2212.950                                  
                
  20858534.626     -642953.603        4635.372                                  
                
  23812022.359     -819839.653        5918.611                                  
                
  23942774.133                         787.314                                  
                
  21508894.072     -593838.833        4234.356                                  
                
  22207634.106    -1013249.411        7302.101                                  
                
  24822733.124      -85452.551         638.078                                  
                
  22227877.272     -186297.414        6640.294                                  
                
  21503408.194     -515995.084        5405.708                                  
                
  21231869.270     -162062.669        1161.145                                  
                
 18  5 22 14 45  7.5000000  0 12R 1R10R11R12R19R20R21G 3G 8G 9G16G23
  20828623.852     -234941.012        2945.643                                  
                
  20913480.258     -308218.538        2213.380                                  
                
  20858100.507     -645271.437        4635.342                                  
                
  23811468.634     -822799.085        5918.666                                  
                
  23942701.451                         783.100                                  
                
  21508497.826     -595955.987        4234.063                                  
                
  22206946.524    -1016900.711        7302.230                                  
                
  24822672.432      -85771.730         638.979                                  
                
  22227245.522     -189617.835        6641.134                                  
                
  21502893.870     -518697.949        5406.182                                  
                
  21231758.750     -162643.402        1161.822                                  
                
  20520618.909      -11076.864        3204.310                                  
                
 18  5 22 14 45  8.0000000  0 12R 1R10R11R12R19R20R21G 3G 8G 9G16G23
  20828348.016     -236413.529        2945.243                                  
                
  20913272.530     -309325.008        2213.407                                  
                
  20857666.584     -647589.122        4635.765                                  
                
  23810914.962     -825758.413        5919.459                                  
                
  23942628.331                         785.446                                  
                
  21508101.813     -598072.808        4233.800                                  
                
  22206260.255    -1020551.842        7302.520                                  
                
  24822611.767      -86090.794         638.797                                  
                
  22226613.807     -192938.023        6641.166                                  
                
  21502379.590     -521400.560        5405.734                                  
                
  21231648.266     -163223.950        1161.921                                  
                
  20520313.920      -12678.405        3204.144                                  
                
 18  5 22 14 45  8.5000000  0 12R 1R10R11R12R19R20R21G 3G 8G 9G16G23
  20828072.351     -237885.833        2945.203                                  
                
  20913064.919     -310431.461        2213.194                                  
                
  20857232.787     -649906.748        4635.553                                  
                
  23810361.112     -828717.7061       5918.993                                  
                
  23942555.024                         785.573                                  
                
  21507705.942     -600189.431        4233.140                                  
                
  22205579.285    -1024202.4171       7302.761                                  
                
  24822551.084      -86409.921         638.959                                  
                
  22225982.101     -196258.147        6640.188                                  
                
  21501865.320     -524103.077        5405.465                                  
                
  21231537.791     -163804.448        1161.455                                  
                
  20520008.503      -14279.799        3203.055                                  
                
 18  5 22 14 45  9.0000000  0 12R 1R10R11R12R19R20R21G 3G 8G 9G16G23
  20827796.721     -239357.970        2943.833                                  
                
  20912857.308     -311537.954        2212.499                                  
                
  20856798.999     -652224.405        4634.733                                  
                
  23809807.306     -831677.069        5918.454                                  
                
  23942481.653                         783.082                                  
                
  21507310.108     -602305.933        4232.456                                  
                
  22204899.377    -1027853.488        7301.646                                  
                
  24822490.392      -86729.115         638.004                                  
                
  22225350.405     -199578.287        6639.429                                  
                
  21501351.049     -526805.532        5404.198                                  
                
  21231427.315     -164384.951        1160.740                                  
                
  20519703.282      -15881.109        3202.420                                  
                
 18  5 22 14 45  9.5000000  0 12R 1R10R11R12R19R20R21G 3G 8G 9G16G23
  20827521.413     -240830.058        2943.734                                  
                
  20912649.947     -312644.571        2213.368                                  
                
  20856365.469     -654542.176        4635.674                                  
                
  23809253.777     -834636.556        5918.568                                  
                
  23942408.346                         782.070                                  
                
  21506914.559     -604422.348        4232.458                                  
                
  22204217.763    -1031504.617        7302.236                                  
                
  24822429.673      -87048.487         638.971                                  
                
  22224718.690     -202898.484        6640.208                                  
                
  21500836.770     -529507.976        5405.063                                  
                
  21231316.831     -164965.517        1161.159                                  
                
  20519398.168      -17482.423        3202.843                                  
                
 18  5 22 14 45 10.0000000  0 12R 1R10R11R12R19R20R21G 3G 8G 9G16G23
  20827246.204     -242302.003        2944.069                                  
                
  20912442.639     -313751.232        2213.307                                  
                
  20855931.994     -656859.981        4635.800                                  
                
  23808700.123     -837596.126        5919.301                                  
                
  23942335.520                         779.880                                  
                
  21506519.100     -606538.632        4232.395                                  
                
  22203536.212    -1035155.753        7302.146                                  
                
  24822368.936      -87367.954         639.132                                  
                
  22224086.984     -206218.656        6640.347                                  
                
  21500322.499     -532210.395        5404.814                                  
                
  21231206.338     -165546.103        1161.043                                  
                
  20519093.019      -19083.646        3203.119                                  
                
 18  5 22 14 45 10.5000000  0 12R 1R10R11R12R19R20R21G 3G 8G 9G16G23
  20826970.958     -243773.716        2943.584                                  
                
  20912235.216     -314857.826        2213.720                                  
                
  20855498.411     -659177.714        4635.855                                  
                
  23808146.309     -840555.632        5918.935                                  
                
  23942263.115                         782.200                                  
                
  21506123.569     -608654.662        4232.410                                  
                
  22202854.428    -1038806.797        7302.231                                  
                
  24822308.199      -87687.382         639.106                                  
                
  22223455.288     -209538.702        6640.499                                  
                
  21499808.256     -534912.593        5404.921                                  
                
  21231095.872     -166126.571        1161.465                                  
                
  20518788.165      -20684.561        3201.420                                  
                
 18  5 22 14 45 11.0000000  0 12R 1R10R11R12R19R20R21G 3G 8G 9G16G23
  20826695.695     -245245.208        2942.691                                  
                
  20912027.765     -315964.412        2213.542                                  
                
  20855064.783     -661495.451        4635.852                                  
                
  23807592.450     -843515.150        5919.226                                  
                
  23942190.585                         780.649                                  
                
  21505728.038     -610770.493        4232.023                                  
                
  22202172.555    -1042457.768        7302.611                                  
                
  24822247.453      -88006.902         639.474                                  
                
  22222823.609     -212858.690        6639.962                                  
                
  21499294.021     -537614.743        5404.061                                  
                
  21230985.406     -166707.018        1161.204                                  
                
  20518483.346      -22285.494        3202.078                                  
                
 18  5 22 14 45 11.5000000  0 12R 1R10R11R12R19R20R21G 3G 8G 9G16G23
  20826420.315     -246716.437        2942.291                                  
                
  20911820.145     -317070.897        2213.099                                  
                
  20854631.004     -663813.090        4635.286                                  
                
  23807038.447     -846474.572        5918.507                                  
                
  23942117.992                         782.421                                  
                
  21505332.391     -612886.029        4230.828                                  
                
  22201490.352    -1046108.572        7301.261                                  
                
  24822186.725      -88326.310         638.586                                  
                
  22222191.966     -216178.529        6639.134                                  
                
  21498779.822     -540316.677        5403.269                                  
                
  21230874.975     -167287.289        1160.215                                  
                
  20518178.599      -23886.090        3200.908                                  
                
 18  5 22 14 45 12.0000000  0 12R 1R10R11R12R19R20R21G 3G 8G 9G16G23
  20826145.016     -248187.455        2942.213                                  
                
  20911612.543     -318177.380        2213.275                                  
                
  20854197.233     -666130.702        4635.807                                  
                
  23806484.463     -849434.013        5919.163                                  
                
  23942045.211                         785.089                                  
                
  21504936.780     -615001.385        4230.840                                  
                
  22200808.175    -1049759.326        7301.529                                  
                
  24822125.980      -88645.815         638.965                                  
                
  22221560.322     -219498.339        6639.971                                  
                
  21498265.641     -543018.526        5403.968                                  
                
  21230764.544     -167867.579        1161.055                                  
                
  20517873.887      -25486.634        3201.602                                  
                
 18  5 22 14 45 12.5000000  0 12R 1R10R11R12R19R20R21G 3G 8G 9G16G23
  20825869.905     -249658.270        2941.586                                  
                
  20911405.074     -319283.852        2213.366                                  
                
  20853763.606     -668448.275        4635.556                                  
                
  23805930.595     -852393.456        5919.301                                  
                
  23941972.761                         785.143                                  
                
  21504541.339     -617116.543        4230.557                                  
                
  22200125.971    -1053410.042        7302.080                                  
                
  24822065.234      -88965.373         639.757                                  
                
  22220928.688     -222818.063        6640.077                                  
                
  21497751.469     -545720.240        5403.596                                  
                
  21230654.132     -168447.791        1160.952                                  
                
  20517569.193      -27086.953        3200.959                                  
                
 18  5 22 14 45 13.0000000  0 12R 1R10R11R12R19R20R21G 3G 8G 9G16G23
  20825594.856     -251128.692        2940.470                                  
                
  20911197.642     -320390.097        2212.551                                  
                
  20853330.005     -670765.611        4634.662                                  
                
  23805376.816     -855352.690        5918.542                                  
                
  23941900.347                         783.104                                  
                
  21504145.969     -619231.295        4229.233                                  
                
  22199443.723    -1057060.504        7301.408                                  
                
  24822004.524      -89284.723         638.898                                  
                
  22220297.108     -226137.492        6638.881                                  
                
  21497237.350     -548421.677        5403.195                                  
                
  21230543.764     -169027.740        1159.809                                  
                
  20517264.687      -28686.977        3200.200                                  
                
 18  5 22 14 45 13.5000000  0 12R 1R10R11R12R19R20R21G 3G 8G 9G16G23
  20825319.726     -252599.056        2940.298                                  
                
  20910990.102     -321496.516        2213.369                                  
                
  20852896.315     -673083.083        4635.532                                  
                
  23804822.983     -858312.102        5919.300                                  
                
  23941828.237                         781.315                                  
                
  21503750.527     -621346.038        4229.848                                  
                
  22198761.457    -1060711.073        7302.200                                  
                
  24821943.769      -89604.305         639.900                                  
                
  22219665.491     -229457.039        6639.608                                  
                
  21496723.231     -551123.153        5403.605                                  
                
  21230433.369     -169607.833        1160.773                                  
                
  20516960.235      -30287.009        3200.475                                  
                
 18  5 22 14 45 14.0000000  0 12R 1R10R11R12R19R20R21G 3G 8G 9G16G23
  20825044.651     -254069.128        2940.470                                  
                
  20910782.598     -322602.716        2212.692                                  
                
  20852462.660     -675400.327        4634.874                                  
                
  23804269.133     -861271.380        5919.664                                  
                
  23941756.376                         782.869                                  
                
  21503355.148     -623460.379        4228.617                                  
                
  22198079.155    -1064361.318        7300.800                                  
                
  24821883.041      -89923.708         639.037                                  
                
  22219033.911     -232776.341        6638.753                                  
                
  21496209.158     -553824.299        5402.187                                  
                
  21230323.037     -170187.667        1160.035                                  
                
  20516655.917      -31886.738        3200.208                                  
                
 18  5 22 14 45 14.5000000  0 12R 1R10R11R12R19R20R21G 3G 8G 9G16G23
  20824769.655     -255539.156        2939.509                                  
                
  20910575.103     -323709.141        2212.599                                  
                
  20852029.015     -677717.801        4635.075                                  
                
  23803715.300     -864230.770        5918.446                                  
                
  23941684.829                         778.141                                  
                
  21502959.823     -625574.770        4228.753                                  
                
  22197396.871    -1068011.824        7300.723                                  
                
  24821822.269      -90243.390         639.402                                  
                
  22218402.285     -236095.796        6638.922                                  
                
  21495695.066     -556525.574        5402.337                                  
                
  21230212.660     -170767.683        1160.086                                  
                
  20516351.643      -33486.512        3200.167                                  
                
 18  5 22 14 45 15.0000000  0 12R 1R10R11R12R19R20R21G 3G 8G 9G16G23
  20824494.669     -257009.076        2940.057                                  
                
  20910367.590     -324815.644        2213.171                                  
                
  20851595.361     -680035.364        4635.083                                  
                
  23803161.423     -867190.298        5918.536                                  
                
  23941613.603                         776.506                                  
                
  21502564.515     -627689.025        4228.108                                  
                
  22196714.534    -1071662.348        7301.226                                  
                
  24821761.461      -90563.193         639.379                                  
                
  22217770.669     -239415.256        6639.450                                  
                
  21495180.956     -559226.884        5403.142                                  
                
  21230102.274     -171347.722        1159.829                                  
                
  20516047.342      -35086.335        3200.144                                  
                
 18  5 22 14 45 15.5000000  0 12R 1R10R11R12R19R20R21G 3G 8G 9G16G23
  20824219.763     -258478.661        2937.996                                  
                
  20910160.140     -325922.032        2212.472                                  
                
  20851161.751     -682352.807        4634.550                                  
                
  23802607.618     -870149.754        5917.601                                  
                
  23941542.020                         781.145                                  
                
  21502169.297     -629803.010        4227.250                                  
                
  22196028.274                        7298.843                                  
                
  24821700.670      -90882.938         639.234                                  
                
  22217139.070     -242734.557        6638.706                                  
                
  21494666.900     -561927.924        5401.234                                  
                
  21229991.915     -171927.648        1159.489                                  
                
  20515742.988      -36685.817        3199.202                                  
                
 18  5 22 14 45 16.0000000  0 12R 1R10R11R12R19R20R21G 3G 8G 9G16G23
  20823944.884     -259948.220        2938.616                                  
                
  20909952.716     -327028.460        2212.381                                  
                
  20850728.168     -684670.298        4634.451                                  
                
  23802053.874     -873109.328        5918.842                                  
                
  23941470.329                         779.224                                  
                
  21501774.133     -631916.873        4227.188                                  
                
  22195346.151    -1078963.090        7300.155                                  
                
  24821639.853      -91202.831         639.525                                  
                
  22216507.481     -246053.853        6638.035                                  
                
  21494152.862     -564628.972        5401.674                                  
                
  21229881.565     -172507.585        1158.924                                  
                
  20515438.581      -38285.312        3199.056                                  
                
 18  5 22 14 45 16.5000000  0 12R 1R10R11R12R19R20R21G 3G 8G 9G16G23
  20823669.942     -261417.567        2938.390                                  
                
  20909745.167     -328134.884        2212.723                                  
                
  20850294.469     -686987.744        4634.665                                  
                
  23801500.024     -876068.887        5919.513                                  
                
  23941398.415                         779.182                                  
                
  21501378.897     -634030.484        4226.876                                  
                
  22194663.599    -1082613.416        7300.694                                  
                
  24821579.036      -91522.712         639.485                                  
                
  22215875.891     -249373.088        6638.233                                  
                
  21493638.850     -567329.828        5401.861                                  
                
  21229771.223     -173087.442        1159.934                                  
                
  20515134.057      -39884.555        3199.653                                  
                
 18  5 22 14 45 17.0000000  0 12R 1R10R11R12R19R20R21G 3G 8G 9G16G23
  20823395.090     -262886.498        2936.849                                  
                
  20909537.654     -329241.178        2212.035                                  
                
  20849860.797     -689305.079        4634.003                                  
                
  23800946.254     -879028.301        5918.107                                  
                
  23941327.681                         779.855                                  
                
  21500983.705     -636143.842        4225.926                                  
                
  22193982.771    -1086263.511        7299.273                                  
                
  24821518.227      -91842.551         639.318                                  
                
  22215244.338     -252692.145        6637.667                                  
                
  21493124.884     -570030.497        5400.890                                  
                
  21229660.909     -173667.178        1158.635                                  
                
  20514829.515      -41483.528        3197.587                                  
                
 18  5 22 14 45 17.5000000  0 12R 1R10R11R12R19R20R21G 3G 8G 9G16G23
  20823120.398     -264354.862        2935.507                                  
                
  20909330.266     -330347.025        2210.608                                  
                
  20849427.258     -691621.924        4632.657                                  
                
  23800392.600     -881987.309        5916.741                                  
                
  23941256.687                         779.570                                  
                
  21500588.684     -638256.545        4224.107                                  
                
  22193300.291                        7298.367                                  
                
  24821457.500      -92161.970         637.878                                  
                
  22214612.873     -256010.724        6636.293                                  
                
  21492611.015     -572730.584        5399.076                                  
                
  21229550.693     -174246.407        1157.178                                  
                
  20514525.080      -43081.913        3194.627                                  
                
 18  5 22 14 45 18.0000000  0 12R 1R10R11R12R19R20R21G 3G 8G 9G16G23
  20822845.787     -265822.882        2935.600                                  
                
  20909122.887     -331452.779        2211.958                                  
                
  20848993.738     -693938.651        4633.973                                  
                
  23799838.982     -884946.235        5918.396                                  
                
  23941185.390                         779.449                                  
                
  21500193.716     -640368.958        4224.891                                  
                
  22192617.605    -1093563.195        7298.948                                  
                
  24821396.781      -92481.365         639.651                                  
                
  22213981.435     -259329.134        6637.606                                  
                
  21492097.192     -575430.514        5400.488                                  
                
  21229440.495     -174825.516        1158.943                                  
                
  20514220.592      -44680.157        3196.643                                  
                
 18  5 22 14 45 18.5000000  0 12R 1R10R11R12R19R20R21G 3G 8G 9G16G23
  20822568.835                        2936.072                                  
                
  20908915.383     -332558.902        2212.270                                  
                
  20848560.084     -696255.747        4633.938                                  
                
  23799285.275     -887905.515        5918.428                                  
                
  23941113.797                         780.215                                  
                
  21499798.641     -642481.562        4225.066                                  
                
  22191934.516                        7299.854                                  
                
  24821335.990      -92801.139         640.028                                  
                
  22213349.926     -262647.849        6637.898                                  
                
  21491583.314     -578130.695        5400.891                                  
                
  21229330.243     -175404.928        1159.265                                  
                
  20513915.988      -46278.601        3196.719                                  
                
 18  5 22 14 45 19.0000000  0 12R 1R10R11R12R19R20R21G 3G 8G 9G16G23
  20822294.027                        2937.577                                  
                
  20908707.862     -333665.085        2212.995                                  
                
  20848126.420     -698572.905        4635.063                                  
                
  23798731.603     -890864.898        5919.815                                  
                
  23941041.517                         778.448                                  
                
  21499403.592     -644594.052        4225.666                                  
                
  22191251.330                        7296.880                                  
                
  24821275.164      -93121.043         640.284                                  
                
  22212718.417     -265966.581        6637.953                                  
                
  21491069.446     -580830.824        5400.573                                  
                
  21229219.982     -175984.359        1159.506                                  
                
  20513611.348      -47876.942        3197.711                                  
                
 18  5 22 14 45 19.5000000  0 12R 1R10R11R12R19R20R21G 3G 8G 9G16G23
  20822018.934     -270227.282        2936.735                                  
                
  20908500.313     -334771.230        2212.268                                  
                
  20847692.730     -700890.028        4634.622                                  
                
  23798177.914     -893824.290        5919.139                                  
                
  23940970.238                         779.301                                  
                
  21499008.544     -646706.288        4224.250                                  
                
  22190568.251                        7298.575                                  
                
  24821214.329      -93440.986         639.672                                  
                
  22212086.926     -269285.254        6637.616                                  
                
  21490555.586     -583530.887        5400.137                                  
                
  21229109.730     -176563.762        1158.682                                  
                
  20513306.699      -49475.155        3196.261                                  
                
 18  5 22 14 45 20.0000000  0 12R 1R10R11R12R19R20R21G 3G 8G 9G16G23
  20821743.777     -271694.997        2936.175                                  
                
  20908292.773     -335877.371        2211.779                                  
                
  20847259.040     -703207.142        4633.953                                  
                
  23797624.269     -896783.655        5918.342                                  
                
  23940898.672                         781.060                                  
                
  21498613.540     -648818.353        4223.521                                  
                
  22189885.199                        7298.903                                  
                
  24821153.485      -93760.961         639.761                                  
                
  22211455.452     -272603.822        6636.960                                  
                
  21490041.771     -586230.740        5399.192                                  
                
  21228999.505     -177143.073        1158.081                                  
                
  20513002.059      -51073.173        3195.297                                  
                
 18  5 22 14 45 20.5000000  0 12R 1R10R11R12R19R20R21G 3G 8G 9G16G23
  20821468.836     -273162.577        2935.897                                  
                
  20908085.207     -336983.534        2212.210                                  
                
  20846825.332     -705524.270        4634.070                                  
                
  23797070.615     -899743.075        5918.582                                  
                
  23940826.928                         774.410                                  
                
  21498218.537     -650930.257        4223.582                                  
                
  22189202.271                        7298.989                                  
                
  24821092.623      -94081.010         639.608                                  
                
  22210823.970     -275922.406        6636.982                                  
                
  21489527.948     -588930.604        5399.498                                  
                
  21228889.271     -177722.416        1158.346                                  
                
  20512697.508      -52671.141        3195.319                                  
                
 18  5 22 14 45 21.0000000  0 12R 1R10R11R12R19R20R21G 3G 8G 9G16G23
  20821194.225     -274630.073        2935.580                                  
                
  20907877.604     -338089.841        2212.919                                  
                
  20846391.597     -707841.532        4634.789                                  
                
  23796516.952     -902702.655        5919.613                                  
                
  23940754.791                         777.973                                  
                
  21497823.542     -653042.115        4223.959                                  
                
  22188519.657    -1115461.407        7299.772                                  
                
  24821031.725      -94401.252         641.012                                  
                
  22210192.470     -279241.055        6637.691                                  
                
  21489014.133     -591630.433        5399.795                                  
                
  21228779.019     -178301.837        1159.107                                  
                
  20512392.993      -54269.077        3195.786                                  
                
 18  5 22 14 45 21.5000000  0 12R 1R10R11R12R19R20R21G 3G 8G 9G16G23
  20820919.488     -276097.419        2933.808                                  
                
  20907670.118     -339196.179        2212.633                                  
                
  20845957.970     -710158.815        4634.503                                  
                
  23795963.414     -905662.298        5919.607                                  
                
  23940682.680                         777.176                                  
                
  21497428.699     -655153.786        4223.220                                  
                
  22187837.963    -1119111.160        7299.783                                  
                
  24820970.801      -94721.593         640.461                                  
                
  22209560.979     -282559.669        6637.046                                  
                
  21488500.318     -594330.227        5399.145                                  
                
  21228668.776     -178881.263        1158.733                                  
                
  20512088.532      -55866.953        3195.811                                  
                
 18  5 22 14 45 22.0000000  0 12R 1R10R11R12R19R20R21G 3G 8G 9G16G23
  20820634.308     -277564.582        2934.465                                  
                
  20907462.632     -340302.491        2212.927                                  
                
  20845524.351     -712476.046        4634.651                                  
                
  23795409.904     -908621.920        5919.730                                  
                
  23940610.079                         775.559                                  
                
  21497033.883     -657265.268        4223.104                                  
                
  22187161.415    -1122760.839        7299.532                                  
                
  24820909.877      -95041.932         640.832                                  
                
  22208929.496     -285878.192        6637.132                                  
                
  21487986.539     -597029.888        5399.112                                  
                
  21228558.542     -179460.601        1158.703                                  
                
  20511784.133      -57464.638        3195.344                                  
                
 18  5 22 14 45 22.5000000  0 12R 1R10R11R12R19R20R21G 3G 8G 9G16G23
  20820358.142     -279031.484        2933.731                                  
                
  20907255.110     -341408.733        2212.395                                  
                
  20845090.697     -714793.188        4633.977                                  
                
  23794856.366     -911581.518        5919.540                                  
                
  23940536.557                         777.045                                  
                
  21496639.067     -659376.505        4221.894                                  
                
  22186488.235    -1126410.428        7299.008                                  
                
  24820848.952      -95362.288         640.590                                  
                
  22208298.041     -289196.609        6636.631                                  
                
  21487472.778     -599729.427        5398.671                                  
                
  21228448.326     -180039.866        1158.358                                  
                
  20511479.832      -59062.183        3195.976                                  
                
 18  5 22 14 45 23.0000000  0 12R 1R10R11R12R19R20R21G 3G 8G 9G16G23
  20820087.998     -280498.005        2933.168                                  
                
  20907047.624     -342514.761        2212.262                                  
                
  20844657.087     -717110.119        4633.836                                  
                
  23794302.864     -914540.887        5918.492                                  
                
  23940462.570                         773.396                                  
                
  21496244.313     -661487.347        4221.347                                  
                
  22185810.811    -1130059.792        7298.788                                  
                
  24820788.063      -95682.428         640.708                                  
                
  22207666.630     -292514.766        6636.438                                  
                
  21486959.079     -602428.623        5398.219                                  
                
  21228338.163     -180618.858        1157.983                                  
                
  20511175.639      -60659.309        3194.564                                  
                
 18  5 22 14 45 23.5000000  0 12R 1R10R11R12R19R20R21G 3G 8G 9G16G23
  20819815.504     -281964.117        2932.355                                  
                
  20906840.164     -343620.624        2212.147                                  
                
  20844223.486     -719426.878        4633.979                                  
                
  23793749.362     -917500.123        5918.632                                  
                
  23940388.136                         772.447                                  
                
  21495849.622     -663597.844        4221.232                                  
                
  22185135.058    -1133708.944        7298.704                                  
                
  24820727.193      -96002.505         640.691                                  
                
  22207035.273     -295832.681        6636.132                                  
                
  21486445.443     -605127.544        5397.944                                  
                
  21228228.028     -181197.685        1158.245                                  
                
  20510871.499      -62256.192        3194.258                                  
                
 18  5 22 14 45 24.0000000  0 12R 1R10R11R12R19R20R21G 3G 8G 9G16G23
  20819541.251     -283430.249        2932.153                                  
                
  20906632.643     -344726.678        2212.672                                  
                
  20843789.841     -721743.821        4634.404                                  
                
  23793195.816     -920459.599        5920.082                                  
                
  23940312.872                         773.163                                  
                
  21495454.914     -665708.344        4221.364                                  
                
  22184453.534    -1137358.213        7298.700                                  
                
  24820666.277      -96322.796         641.170                                  
                
  22206403.871     -299150.758        6636.408                                  
                
  21485931.780     -607826.598        5398.223                                  
                
  21228117.874     -181776.646        1158.170                                  
                
  20510567.351      -63853.113        3193.988                                  
                
 18  5 22 14 45 24.5000000  0 12R 1R10R11R12R19R20R21G 3G 8G 9G16G23
  20819266.684                        2931.684                                  
                
  20906425.130     -345832.720        2211.625                                  
                
  20843356.186     -724060.757        4633.584                                  
                
  23792642.233     -923419.027        5918.319                                  
                
  23940237.313                         773.275                                  
                
  21495060.240     -667818.638        4220.162                                  
                
  22183771.777    -1141007.4781       7297.896                                  
                
  24820605.353      -96643.124         640.109                                  
                
  22205772.469     -302468.807        6635.936                                  
                
  21485418.135     -610525.535        5397.562                                  
                
  21228007.721     -182355.571        1157.319                                  
                
  20510263.283      -65449.794        3192.263                                  
                
 18  5 22 14 45 25.0000000  0 12R 1R10R11R12R19R20R21G 3G 8G 9G16G23
  20818992.091                        2933.632                                  
                
  20906217.590     -346938.891        2212.774                                  
                
  20842922.523     -726377.791        4634.621                                  
                
  23792088.624     -926378.624        5920.188                                  
                
  23940163.264     -127587.237         776.762                                  
                
  21494665.576     -669928.870        4221.070                                  
                
  22183089.645    -1144656.811        7298.587                                  
                
  24820544.392      -96963.658         641.519                                  
                
  22205141.076     -305786.825        6636.359                                  
                
  21484904.508     -613224.416        5398.460                                  
                
  21227897.567     -182934.540        1158.438                                  
                
  20509952.004      -67046.473        3192.856                                  
                
 18  5 22 14 45 25.5000000  0 12R 1R10R11R12R19R20R21G 3G 8G 9G16G23
  20818718.096                        2930.963                                  
                
  20906010.122     -348044.971        2212.123                                  
                
  20842488.922     -728694.719        4633.705                                  
                
  23791535.042     -929338.123        5918.605                                  
                
  23940090.313     -127974.711         773.667                                  
                
  21494271.019     -672038.834        4219.817                                  
                
  22182407.477    -1148306.001        7298.350                                  
                
  24820483.432      -97284.147         640.657                                  
                
  22204509.701     -309104.771        6635.461                                  
                
  21484390.907     -615923.166        5397.017                                  
                
  21227787.422     -183513.430        1157.625                                  
                
  20509647.999      -68643.185        3192.842                                  
                
 18  5 22 14 45 26.0000000  0 12R 1R10R11R12R19R20R21G 3G 8G 9G16G23
  20818443.914                        2930.979                                  
                
  20905802.635     -349151.184        2212.492                                  
                
  20842055.304     -731011.766        4634.193                                  
                
  23790981.450     -932297.787        5919.389                                  
                
  23940018.712     -128362.201         773.996                                  
                
  21493876.471     -674148.709        4219.551                                  
                
  22181725.202    -1151955.216        7297.929                                  
                
  24820422.436      -97604.834         642.137                                  
                
  22203878.326     -312422.765        6636.361                                  
                
  21483877.316     -618621.933        5397.614                                  
                
  21227677.260     -184092.377        1158.284                                  
                
  20509343.207      -70239.689        3193.054                                  
                
 18  5 22 14 45 26.5000000  0 12R 1R10R11R12R19R20R21G 3G 8G 9G16G23
  20818169.196                        2932.610                                  
                
  20905595.087     -350257.332        2212.061                                  
                
  20841621.640     -733328.741        4633.711                                  
                
  23790427.770     -935257.420        5918.803                                  
                
  23939946.075                         771.830                                  
                
  21493481.905     -676258.387        4218.882                                  
                
  22181042.963    -1155604.386        7297.914                                  
                
  24820361.458      -97925.458         641.315                                  
                
  22203246.977     -315740.633        6635.512                                  
                
  21483363.742     -621320.599        5397.634                                  
                
  21227567.124     -184671.244        1157.628                                  
                
  20509038.718                        3190.415                                  
                
 18  5 22 14 45 27.0000000  0 12R 1R10R11R12R19R20R21G 3G 8G 9G16G23
  20817894.817                        2932.164                                  
                
  20905387.547     -351363.514        2212.301                                  
                
  20841187.977     -735645.751        4633.725                                  
                
  23789874.107     -938217.090        5919.122                                  
                
  23939873.312     -129136.193         773.425                                  
                
  21493087.384     -678367.888        4218.686                                  
                
  22180360.849    -1159253.496        7298.486                                  
                
  24820300.454      -98246.158         641.261                                  
                
  22202615.629     -319058.519        6635.408                                  
                
  21482850.205     -624019.097        5396.982                                  
                
  21227456.997     -185250.076        1157.243                                  
                
  20508734.168      -73432.242        3191.727                                  
                
 18  5 22 14 45 27.5000000  0 12R 1R10R11R12R19R20R21G 3G 8G 9G16G23
  20817620.456                        2930.391                                  
                
  20905180.061     -352469.547        2212.017                                  
                
  20840754.367     -737962.624        4633.954                                  
                
  23789320.480     -941176.653        5919.896                                  
                
  23939800.076     -129523.170         774.084                                  
                
  21492692.943     -680477.082        4218.407                                  
                
  22179678.815    -1162902.434        7297.730                                  
                
  24820239.467      -98566.795         641.743                                  
                
  22201984.325     -322376.182        6635.521                                  
                
  21482336.702     -626717.415        5397.023                                  
                
  21227346.888     -185828.757        1158.109                                  
                
  20508430.019      -75028.254        3191.947                                  
                
 18  5 22 14 45 28.0000000  0 12R 1R10R11R12R19R20R21G 3G 8G 9G16G23
  20817345.889                        2928.943                                  
                
  20904972.548     -353575.658        2212.188                                  
                
  20840320.740     -740279.513        4633.958                                  
                
  23788766.835     -944136.256        5919.479                                  
                
  23939726.339     -129910.105         773.837                                  
                
  21492298.520     -682586.138        4218.126                                  
                
  22178996.754    -1166551.386        7297.767                                  
                
  24820178.462      -98887.530         641.940                                  
                
  22201353.013     -325693.880        6635.978                                  
                
  21481823.209     -629415.699        5397.260                                  
                
  21227236.788     -186407.454        1157.790                                  
                
  20508129.703      -76624.224        3192.599                                  
                
 18  5 22 14 45 28.5000000  0 12R 1R10R11R12R19R20R21G 3G 8G 9G16G23
  20817071.510                        2927.570                                  
                
  20904765.080     -354681.725        2211.999                                  
                
  20839887.166     -742596.358        4633.607                                  
                
  23788213.208     -947095.851        5919.330                                  
                
  23939632.214     -130296.920         774.010                                  
                
  21491904.178     -684694.979        4217.300                                  
                
  22178314.810    -1170200.282        7297.937                                  
                
  24820117.457      -99208.260         640.953                                  
                
  22200721.727     -329011.460        6635.284                                  
                
  21481309.752     -632113.793        5395.352                                  
                
  21227126.688     -186986.067        1156.877                                  
                
  20507820.408      -78219.932        3190.696                                  
                
 18  5 22 14 45 29.0000000  0 12R 1R10R11R12R19R20R21G 3G 8G 9G16G23
  20816797.543                        2924.374                                  
                
  20904557.602     -355787.824        2212.087                                  
                
  20839453.574     -744913.233        4633.451                                  
                
  23787659.590     -950055.504        5918.788                                  
                
  23939554.109     -130683.539         773.313                                  
                
  21491509.862     -686803.657        4216.968                                  
                
  22177632.838    -1173849.134        7297.495                                  
                
  24820056.425      -99529.150         641.981                                  
                
  22200090.441     -332329.011        6634.783                                  
                
  21480796.294     -634811.902        5395.916                                  
                
  21227016.588     -187564.710        1156.968                                  
                
  20507516.832      -79815.574        3190.713                                  
                
 18  5 22 14 45 29.5000000  0 12R 1R10R11R12R19R20R21G 3G 8G 9G16G23
  20816523.074                        2927.254                                  
                
  20904350.116     -356893.817        2212.449                                  
                
  20839019.973     -747230.017        4633.965                                  
                
  23787105.936     -953015.106        5920.187                                  
                
  23939478.889     -131069.976         773.280                                  
                
  21491115.555     -688912.084        4217.362                                  
                
  22176950.921    -1177497.876        7297.927                                  
                
  24819995.411      -99849.922         641.574                                  
                
  22199459.173     -335646.446        6635.719                                  
                
  21480282.882     -637509.754        5396.280                                  
                
  21226906.515     -188143.211        1157.531                                  
                
  20507213.255      -81411.007        3192.343                                  
                
 18  5 22 14 45 30.0000000  0 12R 1R10R11R12R19R20R21G 3G 8G 9G16G23
  20816248.311                        2927.176                                  
                
  20904142.603     -357999.884        2211.904                                  
                
  20838586.354     -749546.880        4633.769                                  
                
  23786552.274     -955974.738        5919.243                                  
                
  23939407.565     -131456.351         773.231                                  
                
  21490721.284     -691020.359        4216.369                                  
                
  22176269.084    -1181146.599        7297.361                                  
                
  24819934.362     -100170.895         642.233                                  
                
  22198827.914     -338963.867        6635.018                                  
                
  21479769.478     -640207.586        5395.533                                  
                
  21226796.433     -188721.740        1157.290                                  
                
  20506910.679      -83006.304        3190.713                                  
                
 18  5 22 14 45 30.5000000  0 12R 1R10R11R12R19R20R21G 3G 8G 9G16G23
  20815974.066                        2929.033                                  
                
  20903935.153     -359105.795        2211.859                                  
                
  20838152.807     -751863.558        4633.421                                  
                
  23785998.664     -958934.230        5918.985                                  
                
  23939337.081     -131842.367         775.816                                  
                
  21490327.094     -693128.303        4215.717                                  
                
  22175587.345    -1184795.104        7296.715                                  
                
  24819873.339     -100491.717         641.703                                  
                
  22198196.691     -342281.068        6634.420                                  
                
  21479256.136     -642905.152        5394.959                                  
                
  21226686.387     -189300.069        1156.689                                  
                
  20506606.789      -84601.268        3190.129                                  
                
 18  5 22 14 45 31.0000000  0 12R 1R10R11R12R19R20R21G 3G 8G 9G16G23
  20815699.804                        2931.178                                  
                
  20903727.711     -360211.684        2211.728                                  
                
  20837719.260     -754180.214        4633.207                                  
                
  23785445.055     -961893.745        5918.589                                  
                
  23939265.319                         770.927                                  
                
  21489932.957     -695236.041        4215.269                                  
                
  22174905.650    -1188443.590        7296.692                                  
                
  24819812.290     -100812.578         642.233                                  
                
  22197565.486     -345598.188        6633.952                                  
                
  21478742.822     -645602.617        5395.016                                  
                
  21226576.358     -189878.346        1156.299                                  
                
  20506302.167      -86196.239        3191.861                                  
                
 18  5 22 14 45 31.5000000  0 12R 1R10R11R12R19R20R21G 3G 8G 9G16G23
  20815424.969                        2934.124                                  
                
  20903520.189     -361317.872        2212.260                                  
                
  20837285.650     -756497.143        4633.893                                  
                
  23784891.357     -964853.575        5919.916                                  
                
  23939193.190                         772.444                                  
                
  21489538.784     -697343.885        4215.396                                  
                
  22174223.929    -1192092.333        7297.353                                  
                
  24819751.187     -101133.751         642.503                                  
                
  22196934.245     -348915.556        6634.872                                  
                
  21478229.472     -648300.267        5395.544                                  
                
  21226466.285     -190456.886        1157.135                                  
                
  20505998.849      -87791.270        3190.482                                  
                
 18  5 22 14 45 32.0000000  0 12R 1R10R11R12R19R20R21G 3G 8G 9G16G23
  20815151.082                        2934.505                                  
                
  20903312.721     -362423.842        2211.952                                  
                
  20836852.094     -758813.847        4633.365                                  
                
  23784337.703     -967813.194        5919.851                                  
                
  23939120.553                         771.072                                  
                
  21489144.691     -699451.342        4214.652                                  
                
  22173542.217    -1195740.823        7296.969                                  
                
  24819690.119     -101454.759         642.240                                  
                
  22196303.048     -352232.657        6634.542                                  
                
  21477716.211     -650997.586        5394.889                                  
                
  21226356.256     -191035.149        1156.891                                  
                
  20505695.612                        3191.407                                  
                
 18  5 22 14 45 32.5000000  0 12R 1R10R11R12R19R20R21G 3G 8G 9G16G23
  20814873.719                        2930.717                                  
                
  20903105.235     -363529.837        2212.091                                  
                
  20836418.538     -761130.536        4633.451                                  
                
  23783784.031     -970772.832        5919.534                                  
                
  23939048.487                         769.330                                  
                
  21488750.635     -701558.620        4214.524                                  
                
  22172860.469    -1199389.262        7296.886                                  
                
  24819629.025     -101775.901         642.653                                  
                
  22195671.870     -355549.704        6633.981                                  
                
  21477202.959     -653694.844        5394.108                                  
                
  21226246.246     -191613.390        1156.752                                  
                
  20505392.089      -90981.683        3189.393                                  
                
 18  5 22 14 45 33.0000000  0 12R 1R10R11R12R19R20R21G 3G 8G 9G16G23
  20814600.627                        2926.129                                  
                
  20902897.722     -364635.963        2212.329                                  
                
  20835984.955     -763447.361        4633.770                                  
                
  23783230.315     -973732.628        5919.243                                  
                
  23938976.859     -133771.023         770.371                                  
                
  21488356.578     -703665.847        4214.298                                  
                
  22172178.677    -1203037.791        7296.422                                  
                
  24819567.895     -102097.155         641.839                                  
                
  22195040.664     -358866.887        6634.146                                  
                
  21476689.716     -656392.091        5394.062                                  
                
  21226136.208     -192191.758        1156.664                                  
                
  20505087.949                        3189.199                                  
                
 18  5 22 14 45 33.5000000  0 12R 1R10R11R12R19R20R21G 3G 8G 9G16G23
  20814327.436                        2922.284                                  
                
  20902690.218     -365742.111        2212.147                                  
                
  20835551.390     -765764.153        4633.401                                  
                
  23782676.572     -976692.493        5919.715                                  
                
  23938905.177     -134156.580         770.601                                  
                
  21487962.557     -705772.890        4213.657                                  
                
  22171496.911    -1206686.267        7296.779                                  
                
  24819506.756     -102418.470         641.951                                  
                
  22194409.477     -362183.956        6633.958                                  
                
  21476176.473     -659089.354        5394.543                                  
                
  21226026.180     -192770.087        1156.532                                  
                
  20504783.765      -94170.758        3190.825                                  
                
 18  5 22 14 45 34.0000000  0 12R 1R10R11R12R19R20R21G 3G 8G 9G16G23
  20814054.603                        2923.358                                  
                
  20902482.723     -366848.189        2212.067                                  
                
  20835117.834     -768080.892        4633.372                                  
                
  23782122.856     -979652.247        5919.297                                  
                
  23938840.509     -134542.008         770.797                                  
                
  21487568.581     -707879.707        4213.555                                  
                
  22170815.181    -1210334.649        7296.482                                  
                
  24819445.608     -102739.868         642.416                                  
                
  22193778.307     -365500.895        6633.533                                  
                
  21475663.275     -661786.383        5393.608                                  
                
  21225916.169     -193348.299        1156.090                                  
                
  20504479.732      -95764.995        3188.140                                  
                
 18  5 22 14 45 34.5000000  0 12R 1R10R11R12R19R20R21G 3G 8G 9G16G23
  20813782.502                        2924.393                                  
                
  20902275.299     -367954.253        2212.270                                  
                
  20834684.358     -770397.649        4633.612                                  
                
  23781569.184     -982612.061        5919.717                                  
                
  23938768.685     -134927.084         770.236                                  
                
  21487174.721     -709986.289        4213.132                                  
                
  22170133.531    -1213982.919        7296.673                                  
                
  24819384.478     -103061.199         643.077                                  
                
  22193147.137     -368817.835        6633.905                                  
                
  21475150.103     -664483.280        5393.930                                  
                
  21225806.176     -193926.466        1156.437                                  
                
  20504168.999                        3186.268                                  
                
 18  5 22 14 45 35.0000000  0 12R 1R10R11R12R19R20R21G 3G 8G 9G16G23
  20813510.080                        2923.540                                  
                
  20902067.885     -369060.344        2212.107                                  
                
  20834250.901     -772714.354        4633.292                                  
                
  23781015.512     -985571.952        5920.740                                  
                
  23938695.547     -135312.250         770.129                                  
                
  21486780.906     -712092.719        4212.708                                  
                
  22169451.890    -1217631.262        7296.752                                  
                
  24819323.322     -103382.640         642.834                                  
                
  22192515.977     -372134.731        6633.814                                  
                
  21474636.940     -667180.126        5394.230                                  
                
  21225696.184     -194504.646        1156.458                                  
                
  20503864.234      -98952.647        3187.878                                  
                
 18  5 22 14 45 35.5000000  0 12R 1R10R11R12R19R20R21G 3G 8G 9G16G23
  20813237.917                        2923.215                                  
                
  20901860.434     -370166.456        2212.033                                  
                
  20833817.389     -775031.145        4633.581                                  
                
  23780461.840     -988531.821        5920.077                                  
                
  23938626.867     -135697.237         769.228                                  
                
  21486387.081     -714199.009        4212.559                                  
                
  22168770.205    -1221279.529        7296.602                                  
                
  24819262.138     -103704.175         643.115                                  
                
  22191884.825     -375451.570        6633.837                                  
                
  21474123.805     -669876.880        5393.394                                  
                
  21225586.200     -195082.797        1156.392                                  
                
  20503560.264     -100546.557        3187.798                                  
                
 18  5 22 14 45 36.0000000  0 12R 1R10R11R12R19R20R21G 3G 8G 9G16G23
  20812966.353                        2925.063                                  
                
  20901653.019     -371272.397        2211.582                                  
                
  20833383.922     -777347.761        4633.390                                  
                
  23779908.205     -991491.510        5919.547                                  
                
  23938555.749     -136082.010         769.387                                  
                
  21485993.346     -716304.904        4211.333                                  
                
  22168088.538    -1224927.599        7296.323                                  
                
  24819200.990     -104025.563         642.612                                  
                
  22191253.709     -378768.190        6633.088                                  
                
  21473610.722     -672573.377        5392.836                                  
                
  21225476.261     -195660.733        1155.502                                  
                
  20503255.936     -102140.204        3187.241                                  
                
 18  5 22 14 45 36.5000000  0 12R 1R10R11R12R19R20R21G 3G 8G 9G16G23
  20812693.403                        2922.098                                  
                
  20901445.676     -372378.191        2211.515                                  
                
  20832950.536     -779664.170        4632.821                                  
                
  23779354.667     -994451.052        5918.581                                  
                
  23938483.701     -136466.4391        768.456                                  
                
  21485599.719     -718410.471        4210.870                                  
                
  22167406.959    -1228575.383        7295.452                                  
                
  24819139.843     -104346.890         642.797                                  
                
  22190622.638     -382084.614        6633.120                                  
                
  21473097.694     -675269.613        5392.758                                  
                
  21225366.357     -196238.469        1155.400                                  
                
  20502952.404     -103733.544        3186.790                                  
                
 18  5 22 14 45 37.0000000  0 12R 1R10R11R12R19R20R21G 3G 8G 9G16G23
  20812421.526                        2919.686                                  
                
  20901238.333     -373483.999        2211.762                                  
                
  20832517.159     -781980.575        4632.947                                  
                
  23778801.111     -997410.701        5919.418                                  
                
  23938411.858     -136850.810         768.204                                  
                
  21485206.109     -720515.879        4210.645                                  
                
  22166725.337    -1232223.262        7295.738                                  
                
  24819078.686     -104668.228         643.182                                  
                
  22189991.566     -385400.999        6633.257                                  
                
  21472584.683     -677965.754        5392.368                                  
                
  21225256.454     -196816.242        1155.588                                  
                
  20502650.373     -105326.752        3188.683                                  
                
 18  5 22 14 45 37.5000000  0 13R 1R10R11R12R19R20R21G 3G 8G 9G16G23
                                G26
  20812149.640                        2921.331                                  
                
  20901031.026     -374589.850        2211.942                                  
                
  20832083.817     -784297.019        4632.946                                  
                
  23778247.574    -1000370.430        5919.522                                  
                
  23938340.052     -137235.145         768.700                                  
                
  21484812.579     -722621.144        4210.540                                  
                
  22166043.759    -1235871.108        7295.905                                  
                
  24819017.493     -104989.743         643.373                                  
                
  22189360.495     -388717.376        6632.668                                  
                
  21472071.681     -680661.894        5392.363                                  
                
  21225146.541     -197394.022        1156.300                                  
                
  20502347.752                        3183.483                                  
                
  23449627.313       -3095.7581        547.573                                  
                
 18  5 22 14 45 38.0000000  0 13R 1R10R11R12R19R20R21G 3G 8G 9G16G23
                                G26
  20811876.994                        2923.158                                  
                
  20900823.736     -375695.629        2211.834                                  
                
  20831650.484     -786613.410        4633.053                                  
                
  23777694.063    -1003330.090        5919.676                                  
                
  23938268.459     -137619.251         769.405                                  
                
  21484419.094     -724726.165        4209.957                                  
                
  22165362.216    -1239518.826        7295.756                                  
                
  24818956.319     -105311.177         643.509                                  
                
  22188729.450     -392033.644        6633.379                                  
                
  21471558.715     -683357.829        5391.972                                  
                
  21225036.665     -197971.616        1156.003                                  
                
  20502045.408     -108511.760        3187.397                                  
                
  23449575.457       -3369.380         547.921                                  
                
 18  5 22 14 45 38.5000000  0 13R 1R10R11R12R19R20R21G 3G 8G 9G16G23
                                G26
  20811604.885                        2919.000                                  
                
  20900616.339     -376801.665        2212.308                                  
                
  20831217.053     -788930.019        4633.227                                  
                
  23777164.773    -1006289.469        5919.792                                  
                
  23938196.992     -138003.446         768.339                                  
                
  21484025.547     -726831.223        4210.125                                  
                
  22164680.575    -1243166.772        7295.936                                  
                
  24818895.091     -105632.912         643.785                                  
                
  22188098.361     -395350.075        6633.241                                  
                
  21471045.731     -686053.888        5391.925                                  
                
  21224926.744     -198549.480        1155.769                                  
                
  20501742.662     -110104.891        3186.900                                  
                
  23449523.467       -3643.429         548.772                                  
                
 18  5 22 14 45 39.0000000  0 13R 1R10R11R12R19R20R21G 3G 8G 9G16G23
                                G26
  20811333.696                        2921.284                                  
                
  20900408.898     -377907.843        2212.286                                  
                
  20830783.569     -791246.786        4633.556                                  
                
  23776610.744                        5918.946                                  
                
  23938125.552     -138387.702         769.236                                  
                
  21483631.982     -728936.269        4209.924                                  
                
  22163998.899    -1246814.775        7296.121                                  
                
  24818833.818     -105954.855         644.360                                  
                
  22187467.263     -398666.596        6633.076                                  
                
  21470532.730     -688750.037        5392.075                                  
                
  21224816.795     -199127.437        1155.999                                  
                
  20501439.908                        3185.887                                  
                
  23449471.397       -3917.577         548.992                                  
                
 18  5 22 14 45 39.5000000  0 13R 1R10R11R12R19R20R21G 3G 8G 9G16G23
                                G26
  20811061.381                        2921.086                                  
                
  20900201.447     -379013.885        2212.208                                  
                
  20830350.075     -793563.438        4633.276                                  
                
  23776057.144    -1012209.089        5922.130                                  
                
  23938054.156     -138771.672         767.876                                  
                
  21483238.434     -731041.030        4209.488                                  
                
  22163317.214    -1250462.613        7295.408                                  
                
  24818772.554     -106276.757         644.053                                  
                
  22186836.183     -401982.959        6633.028                                  
                
  21470019.772     -691445.954        5391.622                                  
                
  21224706.874     -199705.261        1155.665                                  
                
  20501136.563     -113290.200        3184.852                                  
                
  23449419.326       -4191.639         548.275                                  
                
 18  5 22 14 45 40.0000000  0 13R 1R10R11R12R19R20R21G 3G 8G 9G16G23
                                G26
  20810788.842                        2921.796                                  
                
  20899993.997     -380119.999        2211.646                                  
                
  20829916.599     -795880.090        4632.837                                  
                
  23775503.437    -1015169.071        5919.309                                  
                
  23937985.289     -139155.611         765.735                                  
                
  21482844.932     -733145.627        4208.533                                  
                
  22162635.537    -1254110.485        7295.579                                  
                
  24818711.272     -106598.731         643.622                                  
                
  22186205.111     -405299.284        6632.084                                  
                
  21469506.824     -694141.805        5391.077                                  
                
  21224596.962     -200283.054        1154.868                                  
                
  20500833.058     -114882.938        3183.813                                  
                
  23449367.319       -4465.728         548.162                                  
                
 18  5 22 14 45 40.5000000  0 13R 1R10R11R12R19R20R21G 3G 8G 9G16G23
                                G26
  20810516.608                        2924.803                                  
                
  20899786.591     -381225.947        2211.194                                  
                
  20829483.150     -798196.609        4632.187                                  
                
  23774949.810    -1018128.933        5919.298                                  
                
  23937913.938     -139539.333         766.362                                  
                
  21482451.509     -735249.872        4207.002                                  
                
  22161953.932    -1257758.104        7294.180                                  
                
  24818650.008     -106920.626         643.767                                  
                
  22185574.076     -408615.396        6631.128                                  
                
  21468993.930     -696837.412        5390.487                                  
                
  21224487.076     -200860.689        1155.037                                  
                
  20500529.928     -116475.372        3184.338                                  
                
  23449315.329       -4739.760         547.829                                  
                
 18  5 22 14 45 41.0000000  0 13R 1R10R11R12R19R20R21G 3G 8G 9G16G23
                                G26
  20810243.757                        2921.806                                  
                
  20899579.194     -382331.892        2212.158                                  
                
  20829049.693     -800513.157        4633.353                                  
                
  23774396.165    -1021088.851        5920.383                                  
                
  23937847.295     -139922.973         767.057                                  
                
  21482058.105     -737353.979        4208.256                                  
                
  22161272.309    -1261405.744        7295.457                                  
                
  24818588.735     -107242.521         643.670                                  
                
  22184943.031     -411931.506        6632.475                                  
                
  21468481.053     -699532.921        5391.393                                  
                
  21224377.200     -201438.253        1155.468                                  
                
  20500227.780     -118067.684        3184.642                                  
                
  23449263.437       -5013.786         548.497                                  
                
 18  5 22 14 45 41.5000000  0 13R 1R10R11R12R19R20R21G 3G 8G 9G16G23
                                G26
  20809969.610                        2916.912                                  
                
  20899371.788     -383437.853        2212.025                                  
                
  20828616.253     -802829.650        4633.237                                  
                
  23773840.688    -1024048.798        5920.088                                  
                
  23937762.007     -140306.397         766.263                                  
                
  21481664.745     -739457.911        4207.885                                  
                
  22160590.713    -1265053.313        7295.589                                  
                
  24818527.435     -107564.556         644.260                                  
                
  22184311.996     -415247.551        6632.319                                  
                
  21467968.203     -702228.346        5390.963                                  
                
  21224267.323     -202015.833        1155.363                                  
                
  20499930.752     -119659.902        3184.421                                  
                
  23449211.563       -5287.848         548.639                                  
                
 18  5 22 14 45 42.0000000  0 13R 1R10R11R12R19R20R21G 3G 8G 9G16G23
                                G26
  20809695.222                        2917.697                                  
                
  20899164.383     -384543.693        2211.682                                  
                
  20828182.813     -805146.033        4632.974                                  
                
  23773303.930    -1027008.674        5919.906                                  
                
  23937684.830     -140689.608         765.875                                  
                
  21481271.421     -741561.521        4207.065                                  
                
  22159909.091    -1268700.710        7294.611                                  
                
  24818466.154     -107886.505         643.978                                  
                
  22183680.996     -418563.471        6632.288                                  
                
  21467455.389     -704923.574        5390.540                                  
                
  21224157.473     -202593.261        1154.509                                  
                
  20499630.383     -121251.852        3184.106                                  
                
  23449159.752       -5561.806         547.802                                  
                
 18  5 22 14 45 42.5000000  0 13R 1R10R11R12R19R20R21G 3G 8G 9G16G23
                                G26
  20809421.442                        2917.766                                  
                
  20898957.102     -385649.242        2211.312                                  
                
  20827749.489     -807462.104        4632.239                                  
                
  23772751.750    -1029968.234        5919.071                                  
                
  23937614.936     -141072.3851        765.155                                  
                
  21480878.249     -743664.648        4206.091                                  
                
  22159227.584    -1272347.823        7294.908                                  
                
  24818404.917     -108208.207         643.958                                  
                
  22183050.067     -421878.967        6630.466                                  
                
  21466942.646     -707618.421        5389.974                                  
                
  21224047.686     -203170.361        1154.166                                  
                
  20499328.200     -122843.374        3183.087                                  
                
  23449107.985       -5835.523         547.633                                  
                
 18  5 22 14 45 43.0000000  0 13R 1R10R11R12R19R20R21G 3G 8G 9G16G23
                                G26
  20809147.814     -339022.843        2915.474                                  
                
  20898749.804     -386754.917        2210.979                                  
                
  20827316.147     -809778.320        4632.380                                  
                
  23772194.951    -1032927.964        5918.994                                  
                
  23937543.719     -141455.196         767.199                                  
                
  21480485.086     -745767.728        4205.718                                  
                
  22158546.077    -1275994.991        7294.132                                  
                
  24818343.644     -108530.079         643.358                                  
                
  22182419.112     -425194.584        6630.082                                  
                
  21466429.904     -710313.249        5389.161                                  
                
  21223937.872     -203747.564        1153.812                                  
                
  20499026.187     -124434.9071       3182.405                                  
                
  23449056.201       -6109.390         547.666                                  
                
 18  5 22 14 45 43.5000000  0 13R 1R10R11R12R19R20R21G 3G 8G 9G16G23
                                G26
  20808873.926     -340481.312        2917.163                                  
                
  20898542.478     -387860.539        2211.821                                  
                
  20826882.788     -812094.471        4632.989                                  
                
  23771640.699    -1035887.681        5919.818                                  
                
  23937472.430     -141837.760         765.644                                  
                
  21480091.941     -747870.567        4206.136                                  
                
  22157864.562    -1279642.096        7294.842                                  
                
  24818282.371     -108851.976         644.098                                  
                
  22181788.184     -428510.128        6631.438                                  
                
  21465917.179     -713007.983        5390.203                                  
                
  21223828.076     -204324.676        1154.720                                  
                
  20498724.129     -126026.253        3183.146                                  
                
  23449004.372       -6383.209         548.506                                  
                
 18  5 22 14 45 44.0000000  0 13R 1R10R11R12R19R20R21G 3G 8G 9G16G23
                                G26
  20808600.101     -341939.717        2915.774                                  
                
  20898335.117     -388966.307        2211.529                                  
                
  20826449.392     -814410.731        4632.463                                  
                
  23771086.581    -1038847.498        5919.570                                  
                
  23937401.401     -142220.440         764.633                                  
                
  21479698.795     -749973.346        4205.516                                  
                
  22157183.028    -1283289.247        7294.230                                  
                
  24818221.053     -109174.028         643.905                                  
                
  22181157.255     -431825.702        6631.065                                  
                
  21465404.454     -715702.695        5389.087                                  
                
  21223718.270     -204901.857        1154.137                                  
                
  20498422.098     -127617.583        3182.980                                  
                
  23448952.507       -6657.182         547.844                                  
                
 18  5 22 14 45 44.5000000  0 13R 1R10R11R12R19R20R21G 3G 8G 9G16G23
                                G26
  20808313.339                        2918.068                                  
                
  20898127.729     -390072.153        2211.597                                  
                
  20826015.952     -816727.100        4632.959                                  
                
  23770532.525    -1041807.4341       5919.800                                  
                
  23937330.514                         764.894                                  
                
  21479305.641     -752076.039        4205.272                                  
                
  22156501.468    -1286936.447        7294.756                                  
                
  24818159.709     -109496.203         644.010                                  
                
  22180526.309     -435141.338        6631.442                                  
                
  21464891.720     -718397.489        5390.248                                  
                
  21223608.439     -205479.163        1155.007                                  
                
  20498119.807     -129208.890        3182.699                                  
                
  23448900.580       -6931.293         548.749                                  
                
 18  5 22 14 45 45.0000000  0 13R 1R10R11R12R19R20R21G 3G 8G 9G16G23
                                G26
  20808039.943                        2917.206                                  
                
  20897920.359     -391177.852        2211.114                                  
                
  20825582.566     -819043.233        4631.949                                  
                
  23769978.246    -1044767.271        5919.222                                  
                
  23937259.798                         764.413                                  
                
  21478912.558     -754178.372        4204.232                                  
                
  22155819.934    -1290583.503        7293.601                                  
                
  24818098.382     -109818.352         644.091                                  
                
  22179895.390     -438456.781        6630.938                                  
                
  21464379.049     -721091.922        5388.658                                  
                
  21223498.651     -206056.203        1154.142                                  
                
  20497817.848     -130799.800        3181.478                                  
                
  23448848.679       -7205.224         547.947                                  
                
 18  5 22 14 45 45.5000000  0 13R 1R10R11R12R19R20R21G 3G 8G 9G16G23
                                G26
  20807767.012                        2916.791                                  
                
  20897712.980     -392283.397        2210.806                                  
                
  20825149.153     -821359.271        4631.875                                  
                
  23769424.118    -1047726.999        5919.138                                  
                
  23937189.474                         761.891                                  
                
  21478519.493     -756280.406        4203.735                                  
                
  22155138.330    -1294230.406        7293.830                                  
                
  24818037.083     -110140.376         643.586                                  
                
  22179264.497     -441772.022        6630.288                                  
                
  21463866.423     -723786.181        5388.183                                  
                
  21223388.891     -206633.106        1153.651                                  
                
  20497515.790     -132390.574        3180.891                                  
                
  23448796.770       -7479.100         547.517                                  
                
 18  5 22 14 45 46.0000000  0 13R 1R10R11R12R19R20R21G 3G 8G 9G16G23
                                G26
  20807494.661                        2915.716                                  
                
  20897505.610     -393388.931        2210.834                                  
                
  20824715.758     -823675.256        4631.881                                  
                
  23768870.071    -1050686.680        5919.123                                  
                
  23937119.526                         765.676                                  
                
  21478126.473     -758382.220        4203.412                                  
                
  22154456.734    -1297877.129        7293.347                                  
                
  24817975.765     -110462.479         644.243                                  
                
  22178633.622     -445087.194        6630.083                                  
                
  21463353.805     -726480.320        5388.110                                  
                
  21223279.139     -207209.953        1153.558                                  
                
  20497213.776     -133981.170        3180.645                                  
                
  23448744.851       -7752.956         547.655                                  
                
