     2.10           OBSERVATION DATA    M (MIXED)           RINEX VERSION / TYPE
CONVBIN 2.4.3                           20180518 185550 UTC PGM / RUN BY / DATE 
log: 2018_05_18_1448.nvs                                    COMMENT             
format: NVS BINR                                            COMMENT             
                                                            MARKER NAME         
                                                            MARKER NUMBER       
                                                            OBSERVER / AGENCY   
                                                            REC # / TYPE / VERS 
                                                            ANT # / TYPE        
   654586.6419 -5210210.4123  3608306.1747                  APPROX POSITION XYZ 
        0.0000        0.0000        0.0000                  ANTENNA: DELTA H/E/N
     1     1                                                WAVELENGTH FACT L1/2
     8    C1    L1    D1    S1    C2    L2    D2    S2      # / TYPES OF OBSERV 
  2018     5    18    18    48   48.5000000     GPS         TIME OF FIRST OBS   
  2018     5    18    18    55   20.5000000     GPS         TIME OF LAST OBS    
                                                            END OF HEADER       
 18  5 18 18 48 48.5000000  0 12R 9R18R19R20G 7G 8G11G13G17G18G19G28
  20912662.937                        6658.522          30.000                  
                                                
  20155489.030      -34582.389         802.484          45.000                  
                                                
  19369127.677                        4797.411          28.000                  
                                                
  23240040.183     -295274.080        7610.151          31.000                  
                                                
  20464441.542                        1805.653          32.000                  
                                                
  23021969.809      -22268.048         593.072          28.000                  
                                                
  20512727.376     -121820.915        3050.126          33.000                  
                                                
  24060454.828                        4064.441          23.000                  
                                                
  22962783.584     -226474.415        5812.844          43.000                  
                                                
  21141724.096     -121076.212        2868.149          36.000                  
                                                
  25047809.158     -285510.075        6834.032          43.000                  
                                                
  21628345.677                        4793.498          30.000                  
                                                
 18  5 18 18 48 49.0000000  0 12R 9R18R19R20G 7G 8G11G13G17G18G19G28
  20912042.185                        6655.161          24.000                  
                                                
  20155413.605      -34984.400         804.266          45.000                  
                                                
  19368677.324                        4799.105          26.000                  
                                                
  23239328.210     -299079.537        7610.922          32.000                  
                                                
  20464268.837      -55270.210        1804.428          30.000                  
                                                
  23021912.199      -22565.336         596.462          30.000                  
                                                
  20512437.594     -123346.556        3051.486          34.000                  
                                                
  24060071.377                        4063.031          26.000                  
                                                
  22962230.538     -229381.720        5814.921          44.000                  
                                                
  21141451.379     -122510.770        2869.238          37.000                  
                                                
  25047158.779     -288927.972        6835.720          43.000                  
                                                
  21627889.285     -198221.304        4793.271          29.000                  
                                                
 18  5 18 18 48 49.5000000  0 12R 9R18R19R20G 7G 8G11G13G17G18G19G28
  20911421.004                        6658.874          24.000                  
                                                
  20155338.019      -35387.122         808.361          45.000                  
                                                
  19368227.007     -198072.591        4805.436          26.000                  
                                                
  23238616.147     -302885.805        7617.245          32.000                  
                                                
  20464096.080      -56173.462        1812.463          30.000                  
                                                
  23021853.660                         597.828          30.000                  
                                                
  20512147.580     -124872.933        3058.153          34.000                  
                                                
  24059687.568                        4064.558          26.000                  
                                                
  22961677.367     -232289.748        5817.960          44.000                  
                                                
  21141178.466     -123946.033        2875.547          37.000                  
                                                
  25046508.239     -292346.645        6840.189          43.000                  
                                                
  21627433.160     -200619.437        4802.212          29.000                  
                                                
 18  5 18 18 48 50.0000000  0 12R 9R18R19R20G 7G 8G11G13G17G18G19G28
  20910797.750                        6653.898          25.000                  
                                                
  20155262.755      -35788.379         801.256          44.000                  
                                                
  19367777.726                        4795.785          29.000                  
                                                
  23237904.299     -306690.632        7608.183          33.000                  
                                                
  20463923.072      -57075.664        1801.978          32.000                  
                                                
  23021796.211                         592.856          29.000                  
                                                
  20511858.012     -126397.768        3048.694          33.000                  
                                                
  24059303.545                        4061.946          27.000                  
                                                
  22961124.446     -235196.480        5811.776          43.000                  
                                                
  21140905.910     -125379.647        2863.613          36.000                  
                                                
  25045857.950     -295764.036        6833.494          43.000                  
                                                
  21626977.375     -203017.167        4797.703          30.000                  
                                                
 18  5 18 18 48 50.5000000  0 12R 9R18R19R20G 7G 8G11G13G17G18G19G28
  20910175.283                        6648.584          25.000                  
                                                
  20155187.383      -36189.978         804.664          44.000                  
                                                
  19367328.659     -202871.497        4800.355          29.000                  
                                                
  23237192.290     -310495.879        7611.191          33.000                  
                                                
  20463750.832      -57977.679        1805.532          32.000                  
                                                
  23021739.763      -23457.557         596.168          29.000                  
                                                
  20511568.320     -127922.939        3052.183          33.000                  
                                                
  24058919.594                        4064.502          27.000                  
                                                
  22960571.453     -238103.540        5815.827          43.000                  
                                                
  21140633.246     -126813.719        2870.029          36.000                  
                                                
  25045207.607     -299181.810        6837.460          43.000                  
                                                
  21626521.876     -205414.211        4795.497          30.000                  
                                                
 18  5 18 18 48 51.0000000  0 12R 9R18R19R20G 7G 8G11G13G17G18G19G28
  20909552.369                        6655.455          21.000                  
                                                
  20155111.851      -36592.468         804.145          44.000                  
                                                
  19366879.539                        4799.189          30.000                  
                                                
  23236480.048     -314302.128        7612.109          33.000                  
                                                
  20463572.678      -58880.485        1803.476          33.000                  
                                                
  23021682.761      -23755.689         595.423          31.000                  
                                                
  20511278.359     -129448.917        3050.994          35.000                  
                                                
  24058535.302                        4067.026          27.000                  
                                                
  22960018.299     -241011.506        5814.839          46.000                  
                                                
  21140360.422     -128248.566        2868.994          35.000                  
                                                
  25044557.067     -302600.525        6836.437          44.000                  
                                                
  21626066.358     -207812.337        4794.404          32.000                  
                                                
 18  5 18 18 48 51.5000000  0 12R 9R18R19R20G 7G 8G11G13G17G18G19G28
  20908927.596     -302601.898        6661.141          21.000                  
                                                
  20155036.319      -36995.077         806.593          44.000                  
                                                
  19366430.133                        4798.206          30.000                  
                                                
  23235767.789     -318108.533        7614.340          33.000                  
                                                
  20463396.954      -59783.631        1808.871          33.000                  
                                                
  23021625.151      -24054.049         598.264          31.000                  
                                                
  20510988.345     -130975.077        3054.455          35.000                  
                                                
  24058151.351                        4062.483          27.000                  
                                                
  22959465.110     -243919.691        5817.742          46.000                  
                                                
  21140087.705     -129683.455        2871.568          35.000                  
                                                
  25043906.474     -306019.503        6839.588          44.000                  
                                                
  21625615.684     -210210.616        4797.798          32.000                  
                                                
 18  5 18 18 48 52.0000000  0 12R 9R18R19R20G 7G 8G11G13G17G18G19G28
  20908303.038                        6660.522          28.000                  
                                                
  20154960.929      -37396.934         801.706          43.000                  
                                                
  19365980.906     -210069.652        4795.614          29.000                  
                                                
  23235055.691     -321914.242        7609.081          34.000                  
                                                
  20463229.021      -60685.745        1801.677          32.000                  
                                                
  23021564.879      -24351.815         594.629          33.000                  
                                                
  20510698.527     -132500.277        3047.720          33.000                  
                                                
  24057767.649                        4063.337          24.000                  
                                                
  22958912.046     -246827.124        5811.480          46.000                  
                                                
  21139820.509                        2867.281          31.000                  
                                                
  25043256.023     -309437.769        6834.476          44.000                  
                                                
  21625162.365     -212608.391        4794.010          33.000                  
                                                
 18  5 18 18 48 52.5000000  0 12R 9R18R19R20G 7G 8G11G13G17G18G19G28
  20907679.391                        6659.362          28.000                  
                                                
  20154885.826      -37797.923         805.865          43.000                  
                                                
  19365532.608     -212468.083        4799.562          29.000                  
                                                
  23234343.860     -325719.175        7614.276          34.000                  
                                                
  20463062.053      -61587.101        1806.757          32.000                  
                                                
  23021505.322      -24648.844         598.198          33.000                  
                                                
  20510408.763     -134024.763        3052.932          33.000                  
                                                
  24057383.394                        4062.265          24.000                  
                                                
  22958359.125     -249733.833        5817.717          46.000                  
                                                
  21139549.025     -132551.869        2871.417          31.000                  
                                                
  25042605.698     -312855.331        6839.238          44.000                  
                                                
  21624709.796     -215005.402        4798.386          33.000                  
                                                
 18  5 18 18 48 53.0000000  0 12R 9R18R19R20G 7G 8G11G13G17G18G19G28
  20907056.459                        6655.635          22.000                  
                                                
  20154810.633      -38199.429         805.152          41.000                  
                                                
  19365087.616                        4797.849          30.000                  
                                                
  23233632.012     -329524.646        7613.337          35.000                  
                                                
  20462892.279      -62488.942        1806.435          36.000                  
                                                
  23021447.694      -24946.464         597.621          34.000                  
                                                
  20510118.910     -135549.634        3051.686          35.000                  
                                                
  24056998.388                        4063.172          27.000                  
                                                
  22957806.114     -252641.048        5816.738          46.000                  
                                                
  21139276.416     -133985.514        2869.476          36.000                  
                                                
  25041955.266     -316273.464        6838.838          44.000                  
                                                
  21624254.118     -217403.000        4797.563          36.000                  
                                                
 18  5 18 18 48 53.5000000  0 12R 9R18R19R20G 7G 8G11G13G17G18G19G28
  20906434.135                        6656.135          22.000                  
                                                
  20154735.655      -38599.987         799.346          41.000                  
                                                
  19364639.532                        4793.072          30.000                  
                                                
  23232920.414     -333329.264        7607.310          35.000                  
                                                
  20462721.219      -63389.829        1799.973          37.000                  
                                                
  23021390.996      -25243.296         591.777          35.000                  
                                                
  20509829.199     -137073.578        3045.617          35.000                  
                                                
  24056612.095     -181600.584        4061.709          27.000                  
                                                
  22957253.247     -255547.408        5810.809          46.000                  
                                                
  21139001.840     -135418.231        2863.248          36.000                  
                                                
  25041304.994     -319690.764        6832.857          44.000                  
                                                
  21623798.333     -219799.775        4791.782          36.000                  
                                                
 18  5 18 18 48 54.0000000  0 12R 9R18R19R20G 7G 8G11G13G17G18G19G28
  20905811.757                        6654.137          18.000                  
                                                
  20154660.819      -38999.914         800.815          41.000                  
                                                
  19364191.681                        4791.541          28.000                  
                                                
  23232208.923     -337133.254        7608.945          35.000                  
                                                
  20462550.624      -64290.073        1801.403          36.000                  
                                                
  23021334.226      -25539.596         593.757          33.000                  
                                                
  20509539.578     -138596.874        3047.589          35.000                  
                                                
  24056225.624     -183630.850        4061.912          30.000                  
                                                
  22956700.486     -258453.173        5812.642          46.000                  
                                                
  21138724.549     -136850.220        2864.776          39.000                  
                                                
  25040654.830     -323107.500        6834.527          45.000                  
                                                
  21623342.512     -222196.048        4792.990          35.000                  
                                                
 18  5 18 18 48 54.5000000  0 12R 9R18R19R20G 7G 8G11G13G17G18G19G28
  20905188.414                        6656.861          18.000                  
                                                
  20154585.876      -39400.379         802.470          41.000                  
                                                
  19363743.776                        4793.846          28.000                  
                                                
  23231497.325     -340937.840        7610.397          35.000                  
                                                
  20462379.921      -65190.794        1802.920          36.000                  
                                                
  23021277.438      -25836.476         594.909          33.000                  
                                                
  20509249.850     -140120.588        3047.824          35.000                  
                                                
  24055838.670     -185661.665        4062.942          30.000                  
                                                
  22956147.619     -261359.529        5813.685          46.000                  
                                                
  21138450.688     -138282.689        2866.055          39.000                  
                                                
  25040004.558     -326524.881        6835.837          45.000                  
                                                
  21622886.655     -224592.957        4794.434          35.000                  
                                                
 18  5 18 18 48 55.0000000  0 12R 9R18R19R20G 7G 8G11G13G17G18G19G28
  20904564.731                        6657.231          17.000                  
                                                
  20154510.791      -39801.357         801.438          39.000                  
                                                
  19363295.514                        4798.935          23.000                  
                                                
  23230785.548     -344743.000        7609.201          36.000                  
                                                
  20462209.147      -66091.4911       1802.157          37.000                  
                                                
  23021220.507      -26133.4941        595.547          34.000                  
                                                
  20508959.925     -141644.781        3048.662          36.000                  
                                                
  24055447.982     -187692.9341       4062.477          33.000                  
                                                
  22955594.644     -264266.415        5813.916          47.000                  
                                                
  21138177.167     -139715.5821       2865.224          41.000                  
                                                
  25039354.179     -329942.784        6835.893          45.000                  
                                                
  21622430.745     -226990.4771       4795.250          36.000                  
                                                
 18  5 18 18 48 55.5000000  0 12R 9R18R19R20G 7G 8G11G13G17G18G19G28
  20903941.210                        6657.366          17.000                  
                                                
  20154435.777      -40201.804         800.704          39.000                  
                                                
  19362846.197                        4796.540          23.000                  
                                                
  23230073.861     -348547.689        7608.792          36.000                  
                                                
  20462038.212      -66992.148        1801.096          37.000                  
                                                
  23021163.791      -26430.488         593.324          34.000                  
                                                
  20508670.072     -143168.443        3047.108          36.000                  
                                                
  24055054.506     -189723.600        4060.222          33.000                  
                                                
  22955041.741     -267172.818        5812.425          47.000                  
                                                
  21137904.539     -141147.902        2864.566          41.000                  
                                                
  25038703.872     -333360.290        6834.598          45.000                  
                                                
  21621974.656     -229387.527        4794.493          36.000                  
                                                
 18  5 18 18 48 56.0000000  0 12R 9R18R19R20G 7G 8G11G13G17G18G19G28
  20903316.866                        6659.801          26.000                  
                                                
  20154360.780      -40602.222         799.945          40.000                  
                                                
  19362396.094                        4797.632          26.000                  
                                                
  23229362.173     -352352.433        7608.773          35.000                  
                                                
  20461867.205      -67892.774        1801.199          36.000                  
                                                
  23021107.164      -26727.700         593.986          37.000                  
                                                
  20508380.182     -144692.021        3046.772          34.000                  
                                                
  24054663.174     -191754.304        4060.387          35.000                  
                                                
  22954488.820     -270079.270        5812.449          45.000                  
                                                
  21137631.751     -142580.161        2863.813          42.000                  
                                                
  25038053.547     -336777.860        6834.634          45.000                  
                                                
  21621518.102     -231784.660        4793.660          34.000                  
                                                
 18  5 18 18 48 56.5000000  0 12R 9R18R19R20G 7G 8G11G13G17G18G19G28
  20902692.022                        6656.631          26.000                  
                                                
  20154285.784      -41002.278         800.532          40.000                  
                                                
  19361946.420                        4793.887          26.000                  
                                                
  23228650.539     -356156.845        7608.939          35.000                  
                                                
  20461696.127      -68792.946        1800.871          36.000                  
                                                
  23021050.644      -27024.547         593.629          37.000                  
                                                
  20508090.293     -146215.196        3047.091          34.000                  
                                                
  24054273.505     -193784.608        4061.114          35.000                  
                                                
  22953935.952     -272985.412        5812.982          45.000                  
                                                
  21137359.034     -144011.968        2864.167          42.000                  
                                                
  25037403.275     -340195.114        6835.071          45.000                  
                                                
  21621061.692     -234181.565        4795.060          34.000                  
                                                
 18  5 18 18 48 57.0000000  0 12R 9R18R19R20G 7G 8G11G13G17G18G19G28
  20902067.643                        6655.780          27.000                  
                                                
  20154210.770      -41402.436         799.954          39.000                  
                                                
  19361496.746                        4793.506          24.000                  
                                                
  23227938.834     -359961.435        7608.295          35.000                  
                                                
  20461524.977      -69693.272        1800.261          35.000                  
                                                
  23020994.035      -27321.796         594.656          35.000                  
                                                
  20507800.368     -147738.461        3046.088          34.000                  
                                                
  24053885.121     -195815.004        4060.303          35.000                  
                                                
  22953383.049     -275891.697        5812.196          45.000                  
                                                
  21137086.263     -145443.874        2863.029          42.000                  
                                                
  25036752.968     -343612.612        6834.458          44.000                  
                                                
  21620605.371     -236578.685        4793.685          35.000                  
                                                
 18  5 18 18 48 57.5000000  0 12R 9R18R19R20G 7G 8G11G13G17G18G19G28
  20901443.460                        6653.460          27.000                  
                                                
  20154135.756      -41802.530         800.304          39.000                  
                                                
  19361047.823                        4791.382          24.000                  
                                                
  23227227.146     -363766.062        7608.537          35.000                  
                                                
  20461353.899      -70593.442        1798.950          35.000                  
                                                
  23020937.319      -27618.967         592.626          35.000                  
                                                
  20507506.923                        3045.569          34.000                  
                                                
  24053498.525     -197845.317        4061.361          35.000                  
                                                
  22952830.128     -278797.987        5812.871          45.000                  
                                                
  21136813.510     -146875.699        2863.175          42.000                  
                                                
  25036102.643     -347030.144        6834.987          44.000                  
                                                
  21620149.067     -238975.905        4795.456          35.000                  
                                                
 18  5 18 18 48 58.0000000  0 12R 9R18R19R20G 7G 8G11G13G17G18G19G28
  20900819.885                        6655.422          16.000                  
                                                
  20154060.777      -42202.499         800.259          40.000                  
                                                
  19360598.953                        4797.335          24.000                  
                                                
  23226515.477     -367570.568        7609.125          35.000                  
                                                
  20461182.804      -71493.612        1800.561          32.000                  
                                                
  23020880.603      -27916.281         595.469          33.000                  
                                                
  20507216.427     -150784.620        3046.529          33.000                  
                                                
  24053112.197     -199875.461        4060.262          35.000                  
                                                
  22952277.224     -281704.221        5812.890          45.000                  
                                                
  21136540.811     -148307.286        2863.551          40.000                  
                                                
  25035452.335     -350447.665        6835.716          45.000                  
                                                
  21619692.710     -241373.086        4795.081          35.000                  
                                                
 18  5 18 18 48 58.5000000  0 12R 9R18R19R20G 7G 8G11G13G17G18G19G28
  20900195.934                        6653.807          16.000                  
                                                
  20153985.763      -42602.568         799.191          40.000                  
                                                
  19360150.101                        4799.947          24.000                  
                                                
  23225803.754     -371375.275        7608.923          35.000                  
                                                
  20461011.690      -72393.868        1801.763          32.000                  
                                                
  23020823.833      -28213.688         594.298          33.000                  
                                                
  20506926.430     -152307.711        3045.872          33.000                  
                                                
  24052725.958     -201905.666        4059.265          35.000                  
                                                
  22951724.303     -284610.580        5812.230          45.000                  
                                                
  21136268.148     -149738.964        2863.324          40.000                  
                                                
  25034801.992     -353865.303        6834.514          45.000                  
                                                
  21619236.335     -243770.427        4794.215          35.000                  
                                                
 18  5 18 18 48 59.0000000  0 12R 9R18R19R20G 7G 8G11G13G17G18G19G28
  20899572.198                        6658.904          23.000                  
                                                
  20153910.731      -43002.669         800.275          40.000                  
                                                
  19359701.320                        4796.419          21.000                  
                                                
  23225092.066     -375180.014        7609.391          35.000                  
                                                
  20460843.846                        1796.139          28.000                  
                                                
  23020767.224      -28511.197         595.159          34.000                  
                                                
  20506638.828     -153830.798        3046.614          33.000                  
                                                
  24052340.023     -203935.943        4060.870          33.000                  
                                                
  22951171.364     -287517.072        5813.006          45.000                  
                                                
  21135995.574     -151170.595        2863.045          40.000                  
                                                
  25034151.631     -357283.083        6835.285          44.000                  
                                                
  21618779.871     -246167.974        4795.200          36.000                  
                                                
 18  5 18 18 48 59.5000000  0 12R 9R18R19R20G 7G 8G11G13G17G18G19G28
  20898948.229                        6656.965          23.000                  
                                                
  20153835.771      -43402.511         799.746          40.000                  
                                                
  19359252.683                        4795.405          21.000                  
                                                
  23224380.432     -378984.659        7610.118          35.000                  
                                                
  20460673.233      -74191.285        1799.491          28.000                  
                                                
  23020710.579      -28808.650         594.932          34.000                  
                                                
  20506356.301     -155353.578        3045.871          33.000                  
                                                
  24051954.284     -205965.928        4060.252          33.000                  
                                                
  22950618.443     -290423.379        5812.999          45.000                  
                                                
  21135723.107     -152601.950        2862.781          40.000                  
                                                
  25033501.288     -360700.739        6835.386          44.000                  
                                                
  21618323.461     -248565.359        4795.425          36.000                  
                                                
 18  5 18 18 49  0.0000000  0 12R 9R18R19R20G 7G 8G11G13G17G18G19G28
  20898324.011     -359187.043        6656.934          29.000                  
                                                
  20153760.774      -43802.467         799.614          40.000                  
                                                
  19358804.295                        4793.566          17.000                  
                                                
  23223668.745     -382789.421        7609.588          35.000                  
                                                
  20460503.513      -75091.277        1799.771          32.000                  
                                                
  23020653.863      -29106.269         595.188          36.000                  
                                                
  20506067.270                        3046.052          30.000                  
                                                
  24051568.617     -207996.042        4060.664          33.000                  
                                                
  22950065.522     -293329.814        5812.753          45.000                  
                                                
  21135450.640     -154033.347        2862.437          40.000                  
                                                
  25032850.909     -364118.573        6835.681          46.000                  
                                                
  21617867.050     -250962.943        4795.463          35.000                  
                                                
 18  5 18 18 49  0.5000000  0 12R 9R18R19R20G 7G 8G11G13G17G18G19G28
  20897699.685     -362516.066        6657.904          29.000                  
                                                
  20153685.814      -44202.471         800.168          40.000                  
                                                
  19358355.461                        4787.281          17.000                  
                                                
  23222957.129     -386594.263        7610.282          35.000                  
                                                
  20460337.813      -75991.227        1800.060          32.000                  
                                                
  23020597.021      -29404.040         595.699          36.000                  
                                                
  20505778.203                        3043.509          30.000                  
                                                
  24051182.932     -210026.059        4060.449          33.000                  
                                                
  22949512.583     -296236.297        5813.252          45.000                  
                                                
  21135178.227     -155464.732        2862.935          40.000                  
                                                
  25032200.530     -367536.507        6836.221          46.000                  
                                                
  21617410.586     -253360.651        4795.641          35.000                  
                                                
 18  5 18 18 49  1.0000000  0 12R 9R18R19R20G 7G 8G11G13G17G18G19G28
  20897072.786     -365844.795        6657.538          34.000                  
                                                
  20153610.889      -44602.093         799.066          40.000                  
                                                
  19357906.627                        4790.174          23.000                  
                                                
  23222245.531     -390398.841        7609.287          35.000                  
                                                
  20460170.023      -76890.2891       1798.844          33.000                  
                                                
  23020540.126      -29701.609         595.041          34.000                  
                                                
  20505489.225                        3044.246          29.000                  
                                                
  24050797.390     -212055.780        4059.460          32.000                  
                                                
  22948959.697     -299142.513        5812.431          45.000                  
                                                
  21134905.885     -156895.693        2861.738          40.000                  
                                                
  25031550.187     -370954.196        6835.292          46.000                  
                                                
  21616954.139     -255758.161        4794.717          35.000                  
                                                
 18  5 18 18 49  1.5000000  0 13R 9R18R19R20G 1G 7G 8G11G13G17G18G19
                                G28
  20896436.845     -369173.702        6658.605          34.000                  
                                                
  20153536.036      -45001.804         799.360          40.000                  
                                                
  19357459.133                        4789.083          23.000                  
                                                
  23221534.004     -394203.524        7609.818          35.000                  
                                                
  20864511.311     -216263.6201       4582.510          33.000                  
                                                
  20459994.674      -77790.019        1800.156          33.000                  
                                                
  23020483.178      -29999.414         596.522          34.000                  
                                                
  20505200.265     -161443.217        3043.658          29.000                  
                                                
  24050411.919     -214085.539        4060.767          32.000                  
                                                
  22948406.758     -302048.891        5813.446          45.000                  
                                                
  21134633.561     -158326.693        2862.438          40.000                  
                                                
  25030899.826     -374372.064        6836.365          46.000                  
                                                
  21616497.711     -258155.902        4796.490          35.000                  
                                                
 18  5 18 18 49  2.0000000  0 13R 9R18R19R20G 1G 7G 8G11G13G17G18G19
                                G28
  20895805.372     -372502.387        6657.094          33.000                  
                                                
  20153461.182      -45401.247         798.089          39.000                  
                                                
  19357010.907                        4783.821          13.000                  
                                                
  23220822.513     -398007.985        7608.316          34.000                  
                                                
  20864074.914     -218554.568        4580.747          33.000                  
                                                
  20459822.667      -78689.287        1796.549          33.000                  
                                                
  23020426.354      -30296.884         593.864          34.000                  
                                                
  20504910.983     -162965.449        3043.693          30.000                  
                                                
  24050035.008                        4059.182          30.000                  
                                                
  22947853.873     -304954.981        5811.038          44.000                  
                                                
  21134361.255     -159757.313        2859.848          41.000                  
                                                
  25030249.483     -377789.695        6834.166          46.000                  
                                                
  21616041.336     -260553.356        4794.248          36.000                  
                                                
 18  5 18 18 49  2.5000000  0 13R 9R18R19R20G 1G 7G 8G11G13G17G18G19
                                G28
  20895181.618     -375830.7841       6657.206          33.000                  
                                                
  20153386.329      -45800.852         797.564          39.000                  
                                                
  19356563.341                        4786.698          13.000                  
                                                
  23220110.987     -401812.697        7609.475          34.000                  
                                                
  20863638.552     -220845.756        4581.554          33.000                  
                                                
  20459651.142                        1798.534          33.000                  
                                                
  23020369.441      -30594.759         595.536          35.000                  
                                                
  20504620.915     -164487.857        3044.257          30.000                  
                                                
  24049649.573     -218144.554        4058.974          30.000                  
                                                
  22947300.916     -307861.356        5812.091          44.000                  
                                                
  21134088.895     -161188.162        2861.323          41.000                  
                                                
  25029599.104     -381207.653        6835.323          46.000                  
                                                
  21615584.818     -262951.184        4794.730          36.000                  
                                                
 18  5 18 18 49  3.0000000  0 13R 9R18R19R20G 1G 7G 8G11G13G17G18G19
                                G28
  20894558.096     -379159.087        6656.228          35.000                  
                                                
  20153311.565      -46199.836         797.647          38.000                  
                                                
  19356114.972                        4788.922          23.000                  
                                                
  23219399.585     -405616.799        7607.803          34.000                  
                                                
  20863202.316     -223136.155        4580.886          33.000                  
                                                
  20459479.939                        1795.811          28.000                  
                                                
  23020312.636      -30892.023         593.985          34.000                  
                                                
  20504329.275     -166009.486        3043.789          32.000                  
                                                
  24049263.799     -220173.428        4057.373          31.000                  
                                                
  22946748.084     -310767.106        5811.482          44.000                  
                                                
  21133816.643     -162618.211        2860.066          41.000                  
                                                
  25028948.815     -384625.014        6834.563          46.000                  
                                                
  21615128.408     -265348.430        4793.834          36.000                  
                                                
 18  5 18 18 49  3.5000000  0 13R 9R18R19R20G 1G 7G 8G11G13G17G18G19
                                G28
  20893934.485     -382487.889        6658.444          35.000                  
                                                
  20153236.729      -46599.207         799.612          38.000                  
                                                
  19355667.120                        4786.330          23.000                  
                                                
  23218688.076     -409421.432        7610.815          34.000                  
                                                
  20862766.026     -225426.969        4582.439          33.000                  
                                                
  20459308.897                        1797.956          28.000                  
                                                
  23020255.723      -31189.908         596.432          34.000                  
                                                
  20504039.404     -167531.461        3044.286          32.000                  
                                                
  24048877.471     -222202.738        4059.063          31.000                  
                                                
  22946195.163     -313673.323        5813.390          44.000                  
                                                
  21133544.319     -164048.649        2861.750          41.000                  
                                                
  25028298.436     -388042.865        6836.266          46.000                  
                                                
  21614671.908     -267746.229        4796.331          36.000                  
                                                
 18  5 18 18 49  4.0000000  0 13R 9R18R19R20G 1G 7G 8G11G13G17G18G19
                                G28
  20893310.803     -385817.512        6659.500          34.000                  
                                                
  20153161.680      -46999.303         800.584          38.000                  
                                                
  19355219.323                        4790.438          26.000                  
                                                
  23217976.371     -413226.793        7611.317          35.000                  
                                                
  20862329.593     -227718.409        4582.628          33.000                  
                                                
  20459137.372                        1799.412          29.000                  
                                                
  23020198.649      -31488.589         597.348          32.000                  
                                                
  20503748.907     -169054.187        3045.447          33.000                  
                                                
  24048481.404     -224232.716        4058.846          31.000                  
                                                
  22945642.099     -316580.301        5813.843          43.000                  
                                                
  21133271.834     -165479.796        2862.512          40.000                  
                                                
  25027647.914     -391461.553        6837.805          46.000                  
                                                
  21614215.283     -270144.812        4797.224          37.000                  
                                                
 18  5 18 18 49  4.5000000  0 13R 9R18R19R20G 1G 7G 8G11G13G17G18G19
                                G28
  20892687.424     -389145.571        6656.624          34.000                  
                                                
  20153086.951      -47397.739         797.218          38.000                  
                                                
  19354771.668                        4787.625          26.000                  
                                                
  23217264.970     -417030.535        7607.957          35.000                  
                                                
  20861893.660     -230008.207        4580.369          33.000                  
                                                
  20458965.115                        1793.763          29.000                  
                                                
  23020141.987      -31785.742         594.661          32.000                  
                                                
  20503458.893     -170575.204        3042.001          33.000                  
                                                
  24048096.898     -226261.089        4057.301          31.000                  
                                                
  22945089.320     -319485.659        5810.811          43.000                  
                                                
  21132999.653     -166909.203        2859.082          40.000                  
                                                
  25026997.678     -394878.653        6834.331          46.000                  
                                                
  21613758.997     -272541.854        4793.951          37.000                  
                                                
 18  5 18 18 49  5.0000000  0 13R 9R18R19R20G 1G 7G 8G11G13G17G18G19
                                G28
  20892063.849     -392474.068        6656.411          34.000                  
                                                
  20153012.152      -47796.591         797.138          37.000                  
                                                
  19354323.566                        4788.815          27.000                  
                                                
  23216553.514     -420834.771        7607.980          36.000                  
                                                
  20861457.727     -232298.320        4580.102          32.000                  
                                                
  20458792.304      -84082.337        1797.670          30.000                  
                                                
  23020086.021                         593.680          32.000                  
                                                
  20503168.843     -172096.616        3042.911          31.000                  
                                                
  24047714.251     -228289.774        4056.597          30.000                  
                                                
  22944536.471     -322391.517        5811.087          44.000                  
                                                
  21132727.329     -168339.009        2859.251          39.000                  
                                                
  25026347.335     -398296.275        6834.941          46.000                  
                                                
  21613302.569     -274939.501        4795.000          37.000                  
                                                
 18  5 18 18 49  5.5000000  0 13R 9R18R19R20G 1G 7G 8G11G13G17G18G19
                                G28
  20891439.916     -395803.568        6654.145          34.000                  
                                                
  20152937.155      -48196.358         794.095          37.000                  
                                                
  19353874.857     -274770.698        4786.062          27.000                  
                                                
  23215841.827     -424640.014        7605.157          36.000                  
                                                
  20861021.509     -234589.319        4575.659          32.000                  
                                                
  20458619.653      -84981.914        1797.621          30.000                  
                                                
  23020029.787      -32381.569         590.886          32.000                  
                                                
  20502876.005                        3044.930          31.000                  
                                                
  24047331.336     -230319.427        4054.131          30.000                  
                                                
  22943983.424     -325298.359        5808.555          44.000                  
                                                
  21132454.827     -169769.619        2855.965          39.000                  
                                                
  25025696.831     -401714.873        6831.816          46.000                  
                                                
  21612845.944     -277338.135        4792.047          37.000                  
                                                
 18  5 18 18 49  6.0000000  0 13R 9R18R19R20G 1G 7G 8G11G13G17G18G19
                                G28
  20890816.252     -399131.862        6655.249          33.000                  
                                                
  20152862.356      -48594.867         795.177          37.000                  
                                                
  19353426.631     -277164.790        4786.271          31.000                  
                                                
  23215130.354     -428444.034        7606.388          35.000                  
                                                
  20860585.487     -236879.083        4577.308          32.000                  
                                                
  20458448.325      -85880.111        1796.114          31.000                  
                                                
  23019973.267                         599.740          30.000                  
                                                
  20502586.259     -175140.886        3042.872          29.000                  
                                                
  24046946.669     -232347.706        4053.957          32.000                  
                                                
  22943430.610     -328203.960        5809.360          43.000                  
                                                
  21132182.539     -171198.921        2856.431          37.000                  
                                                
  25025046.524     -405132.323        6833.352          45.000                  
                                                
  21612389.587     -279735.577        4792.476          36.000                  
                                                
 18  5 18 18 49  6.5000000  0 13R 9R18R19R20G 1G 7G 8G11G13G17G18G19
                                G28
  20890192.891     -402459.584        6654.340          33.000                  
                                                
  20152787.699      -48992.813         794.437          37.000                  
                                                
  19352958.355     -279558.248        4784.123          31.000                  
                                                
  23214419.006     -432247.578        7605.586          35.000                  
                                                
  20860149.715     -239168.184        4576.249          32.000                  
                                                
  20458277.229      -86777.789        1793.688          31.000                  
                                                
  23019916.479      -32977.265         592.576          30.000                  
                                                
  20502296.799                        3038.438          29.000                  
                                                
  24046560.948     -234375.512        4054.860          32.000                  
                                                
  22942877.886     -331109.088        5809.000          43.000                  
                                                
  21131910.358     -172627.661        2856.656          37.000                  
                                                
  25024396.324     -408549.300        6832.026          45.000                  
                                                
  21611933.355     -282132.581        4792.220          36.000                  
                                                
 18  5 18 18 49  7.0000000  0 13R 9R18R19R20G 1G 7G 8G11G13G17G18G19
                                G28
  20889569.583     -405787.291        6656.111          33.000                  
                                                
  20152713.060      -49390.633         795.926          37.000                  
                                                
  19352513.399     -281951.572        4786.944          31.000                  
                                                
  23213707.676     -436051.035        7607.418          36.000                  
                                                
  20859713.997     -241457.180        4578.438          32.000                  
                                                
  20458105.597      -87674.8891       1795.874          34.000                  
                                                
  23019859.924      -33273.9221        594.751          32.000                  
                                                
  20502007.481     -178181.539        3040.483          30.000                  
                                                
  24046175.406     -236403.1001       4055.124          32.000                  
                                                
  22942325.161     -334014.147        5810.015          43.000                  
                                                
  21131638.194     -174056.225        2857.349          38.000                  
                                                
  25023746.124     -411966.275        6834.329          45.000                  
                                                
  21611477.087     -284529.648        4794.432          38.000                  
                                                
 18  5 18 18 49  7.5000000  0 14R 9R18R19R20G 1G 7G 8G11G13G17G18G19
                                G28G30
  20888946.240     -409115.801        6659.503          33.000                  
                                                
  20152638.385      -49789.202         798.936          37.000                  
                                                
  19352069.979     -284345.565        4791.499          31.000                  
                                                
  23212996.310     -439855.270        7610.566          36.000                  
                                                
  20859278.171     -243746.797        4580.851          32.000                  
                                                
  20457933.125      -88573.138        1798.820          34.000                  
                                                
  23019804.280      -33571.286         599.264          32.000                  
                                                
  20501717.985     -179702.501        3043.883          30.000                  
                                                
  24045789.543     -238431.425        4058.493          32.000                  
                                                
  22941772.312     -336919.966        5813.664          43.000                  
                                                
  21131365.978     -175485.431        2860.000          38.000                  
                                                
  25023095.763     -415384.017        6837.773          45.000                  
                                                
  21611020.713     -286927.488        4798.032          38.000                  
                                                
  20212217.298     -214375.1281       3661.297          31.000                  
                                                
 18  5 18 18 49  8.0000000  0 14R 9R18R19R20G 1G 7G 8G11G13G17G18G19
                                G28G30
  20888323.005     -412443.711        6654.750          32.000                  
                                                
  20152563.818      -50187.175         795.353          36.000                  
                                                
  19351623.414     -286738.757        4785.399          32.000                  
                                                
  23212285.034     -443658.964        7607.174          37.000                  
                                                
  20858842.453     -246035.816        4577.840          31.000                  
                                                
  20457760.671      -89470.722        1794.652          35.000                  
                                                
  23019746.223      -33868.676         593.944          30.000                  
                                                
  20501426.631     -181222.790        3039.902          31.000                  
                                                
  24045403.876     -240459.039        4054.286          32.000                  
                                                
  22941219.551     -339825.224        5809.940          43.000                  
                                                
  21131093.886     -176913.970        2856.296          38.000                  
                                                
  25022445.527     -418801.232        6833.636          46.000                  
                                                
  21610564.427     -289324.812        4794.458          38.000                  
                                                
  20211868.888     -216203.891        3655.911          31.000                  
                                                
 18  5 18 18 49  8.5000000  0 14R 9R18R19R20G 1G 7G 8G11G13G17G18G19
                                G28G30
  20887699.805     -415771.571        6658.656          32.000                  
                                                
  20152489.215      -50584.918         798.630          36.000                  
                                                
  19351177.082     -289131.773        4788.597          32.000                  
                                                
  23211573.739     -447462.518        7610.257          37.000                  
                                                
  20858406.753     -248324.486        4579.303          31.000                  
                                                
  20457593.524      -90368.104        1797.588          35.000                  
                                                
  23019688.346      -34166.012         597.416          30.000                  
                                                
  20501137.367                        3039.586          31.000                  
                                                
  24045017.994     -242486.482        4057.385          32.000                  
                                                
  22940666.809     -342730.352        5813.288          43.000                  
                                                
  21130821.884     -178342.278        2859.445          38.000                  
                                                
  25021795.291     -422218.374        6837.342          46.000                  
                                                
  21610108.195     -291722.078        4797.301          38.000                  
                                                
  20211518.494     -218033.023        3660.126          31.000                  
                                                
 18  5 18 18 49  9.0000000  0 14R 9R18R19R20G 1G 7G 8G11G13G17G18G19
                                G28G30
  20887076.622     -419099.850        6657.444          34.000                  
                                                
  20152414.558      -50983.068         798.004          37.000                  
                                                
  19350733.090     -291525.121        4787.547          33.000                  
                                                
  23210862.356     -451266.513        7609.413          37.000                  
                                                
  20857970.873     -250613.608        4578.714          30.000                  
                                                
  20457422.143      -91265.893        1796.732          36.000                  
                                                
  23019632.898      -34463.831         596.391          32.000                  
                                                
  20500848.103                        3041.320          30.000                  
                                                
  24044631.255     -244514.319        4056.458          31.000                  
                                                
  22940113.977     -345635.923        5812.685          42.000                  
                                                
  21130549.828     -179770.900        2857.916          38.000                  
                                                
  25021144.966     -425635.983        6836.513          45.000                  
                                                
  21609651.910     -294119.843        4797.132          39.000                  
                                                
  20211170.138     -219861.983        3657.921          30.000                  
                                                
 18  5 18 18 49  9.5000000  0 14R 9R18R19R20G 1G 7G 8G11G13G17G18G19
                                G28G30
  20886453.583     -422427.428        6654.636          34.000                  
                                                
  20152340.008      -51380.428         794.418          37.000                  
                                                
  19350286.668     -293917.616        4785.057          33.000                  
                                                
  23210151.079     -455069.828        7607.188          37.000                  
                                                
  20857526.828                        4574.310          30.000                  
                                                
  20457251.565      -92162.862        1793.551          36.000                  
                                                
  23019581.900      -34760.999         594.215          32.000                  
                                                
  20500558.893     -185782.932        3038.921          30.000                  
                                                
  24044245.123     -246541.311        4052.523          31.000                  
                                                
  22939561.288     -348540.782        5809.598          42.000                  
                                                
  21130277.915     -181198.756        2855.307          38.000                  
                                                
  25020494.784     -429052.927        6833.917          45.000                  
                                                
  21609195.749     -296516.927        4794.154          39.000                  
                                                
  20210822.407     -221690.179        3657.108          30.000                  
                                                
 18  5 18 18 49 10.0000000  0 14R 9R18R19R20G 1G 7G 8G11G13G17G18G19
                                G28G30
  20885830.383     -425755.915        6658.009          34.000                  
                                                
  20152265.298      -51778.657         797.533          35.000                  
                                                
  19349840.693     -296310.859        4787.025          34.000                  
                                                
  23209439.642     -458873.980        7609.312          37.000                  
                                                
  20857089.949                        4578.375          29.000                  
                                                
  20457080.826      -93060.645        1796.853          35.000                  
                                                
  23019524.094      -35059.133         597.385          32.000                  
                                                
  20500269.826                        3039.836          29.000                  
                                                
  24043862.315     -248569.129        4055.520          31.000                  
                                                
  22939008.438     -351446.520        5812.883          41.000                  
                                                
  21130005.788     -182627.400        2859.082          37.000                  
                                                
  25019844.405     -432470.766        6837.062          44.000                  
                                                
  21608739.428     -298914.985        4797.949          40.000                  
                                                
  20210472.996     -223519.115        3658.771          31.000                  
                                                
 18  5 18 18 49 10.5000000  0 14R 9R18R19R20G 1G 7G 8G11G13G17G18G19
                                G28G30
  20885207.183     -429084.675        6658.211          34.000                  
                                                
  20152190.570      -52177.089         797.699          35.000                  
                                                
  19349394.414     -298704.2501       4786.809          34.000                  
                                                
  23208728.187     -462678.444        7609.143          37.000                  
                                                
  20856652.729     -257479.773        4578.597          29.000                  
                                                
  20456910.320      -93958.589        1796.225          35.000                  
                                                
  23019469.254      -35357.539         596.886          32.000                  
                                                
  20499980.437                        3041.957          29.000                  
                                                
  24043476.415     -250597.250        4058.410          31.000                  
                                                
  22938455.517     -354352.498        5812.696          41.000                  
                                                
  21129733.643     -184056.147        2858.467          37.000                  
                                                
  25019193.990     -435888.911        6836.913          44.000                  
                                                
  21608283.035     -301313.314        4797.312          40.000                  
                                                
  20210125.300                        3660.302          31.000                  
                                                
 18  5 18 18 49 11.0000000  0 14R 9R18R19R20G 1G 7G 8G11G13G17G18G19
                                G28G30
  20884584.269     -432412.123        6655.111          34.000                  
                                                
  20152116.109      -52574.118         794.982          35.000                  
                                                
  19348948.725     -301096.209        4784.078          35.000                  
                                                
  23208017.018     -466481.599        7606.092          37.000                  
                                                
  20856215.492                        4575.155          30.000                  
                                                
  20456740.171      -94855.192        1793.414          36.000                  
                                                
  23019411.465      -35654.734         594.665          32.000                  
                                                
  20499691.441                        3037.188          29.000                  
                                                
  24043090.677     -252623.852        4054.091          30.000                  
                                                
  22937902.846     -357257.193        5810.188          41.000                  
                                                
  21129461.801     -185483.471        2854.918          37.000                  
                                                
  25018543.790     -439305.781        6834.229          44.000                  
                                                
  21607826.893     -303710.423        4794.818          39.000                  
                                                
  20209778.248     -227176.103        3656.133          31.000                  
                                                
 18  5 18 18 49 11.5000000  0 14R 9R18R19R20G 1G 7G 8G11G13G17G18G19
                                G28G30
  20883961.158     -435740.376        6655.196          34.000                  
                                                
  20152041.488      -52971.905         794.392          35.000                  
                                                
  19348502.321     -303488.860        4783.938          35.000                  
                                                
  23207305.688     -470285.593        7607.392          37.000                  
                                                
  20855778.505     -262056.770        4576.885          30.000                  
                                                
  20456569.683      -95752.544        1794.266          36.000                  
                                                
  23019354.499      -35952.783         595.172          32.000                  
                                                
  20499402.571     -191862.551        3038.727          29.000                  
                                                
  24042705.028     -254651.228        4054.223          31.000                  
                                                
  22937349.996     -360162.708        5810.120          41.000                  
                                                
  21129189.817     -186911.548        2855.148          37.000                  
                                                
  25017893.447     -442723.498        6834.499          44.000                  
                                                
  21607370.571     -306108.396        4795.144          39.000                  
                                                
  20209430.892     -229004.592        3655.528          31.000                  
                                                
 18  5 18 18 49 12.0000000  0 14R 9R18R19R20G 1G 7G 8G11G13G17G18G19
                                G28G30
  20883338.280     -439067.560        6650.948          34.000                  
                                                
  20151967.100      -53368.563         790.718          35.000                  
                                                
  19348056.007     -305880.288        4779.980          34.000                  
                                                
  23206594.590     -474088.432        7602.691          37.000                  
                                                
  20855342.126     -264344.091        4571.609          30.000                  
                                                
  20456399.355      -96648.640        1788.890          36.000                  
                                                
  23019295.960                         592.330          32.000                  
                                                
  20499113.754                        3038.604          30.000                  
                                                
  24042320.808     -256677.415        4048.731          31.000                  
                                                
  22936797.379     -363067.068        5805.450          41.000                  
                                                
  21128918.082     -188338.412        2850.315          37.000                  
                                                
  25017243.300     -446140.138        6830.243          44.000                  
                                                
  21606914.465     -308505.324        4790.920          40.000                  
                                                
  20209084.215     -230831.863        3651.521          31.000                  
                                                
 18  5 18 18 49 12.5000000  0 14R 9R18R19R20G 1G 7G 8G11G13G17G18G19
                                G28G30
  20882715.473     -442394.312        6654.980          34.000                  
                                                
  20151892.800      -53764.711         791.819          35.000                  
                                                
  19347609.621     -308271.197        4782.717          34.000                  
                                                
  23205883.546     -477890.915        7606.144          37.000                  
                                                
  20854907.104                        4573.965          30.000                  
                                                
  20456231.101                        1790.271          36.000                  
                                                
  23019239.547      -36545.955         591.210          32.000                  
                                                
  20498824.383                        3039.795          30.000                  
                                                
  24041934.873                        4052.162          31.000                  
                                                
  22936244.833     -365970.995        5808.205          41.000                  
                                                
  21128646.438     -189764.851        2853.303          37.000                  
                                                
  25016593.225     -449556.419        6832.924          44.000                  
                                                
  21606458.411     -310901.921        4794.356          40.000                  
                                                
  20208738.664     -232658.691        3653.830          31.000                  
                                                
 18  5 18 18 49 13.0000000  0 14R 9R18R19R20G 1G 7G 8G11G13G17G18G19
                                G28G30
  20882092.523     -445721.938        6653.707          36.000                  
                                                
  20151818.340      -54161.618         791.785          36.000                  
                                                
  19347163.181     -310662.758        4782.208          34.000                  
                                                
  23205172.359     -481694.146        7605.522          36.000                  
                                                
  20854472.887     -268918.464        4573.019          30.000                  
                                                
  20456061.363                        1794.020          30.000                  
                                                
  23019182.992      -36843.376         593.915          31.000                  
                                                
  20498534.690                        3035.115          28.000                  
                                                
  24041549.331     -260729.056        4050.395          30.000                  
                                                
  22935692.091     -368875.883        5808.104          39.000                  
                                                
  21128374.685     -191191.870        2853.139          33.000                  
                                                
  25015942.990     -452973.558        6833.133          45.000                  
                                                
  21606002.197     -313299.341        4793.378          38.000                  
                                                
  20208391.326     -234486.226        3653.497          31.000                  
                                                
 18  5 18 18 49 13.5000000  0 14R 9R18R19R20G 1G 7G 8G11G13G17G18G19
                                G28G30
  20881469.752     -449048.949        6654.118          36.000                  
                                                
  20151744.023      -54557.962         792.305          36.000                  
                                                
  19346716.759     -313053.612        4781.618          34.000                  
                                                
  23204461.314     -485496.810        7605.107          36.000                  
                                                
  20854038.670     -271205.365        4573.359          30.000                  
                                                
  20455892.143      -99337.506        1791.389          30.000                  
                                                
  23019126.365      -37140.366         594.460          31.000                  
                                                
  20498244.730                        3036.837          28.000                  
                                                
  24041163.753     -262754.817        4051.252          30.000                  
                                                
  22935139.473     -371780.107        5808.315          39.000                  
                                                
  21128103.076     -192618.192        2852.459          34.000                  
                                                
  25015292.843     -456390.117        6832.996          45.000                  
                                                
  21605546.091     -315696.238        4793.601          38.000                  
                                                
  20208043.595     -236313.120        3654.072          31.000                  
                                                
 18  5 18 18 49 14.0000000  0 14R 9R18R19R20G 1G 7G 8G11G13G17G18G19
                                G28G30
  20880846.999     -452376.017        6654.052          34.000                  
                                                
  20151669.688      -54954.293         792.982          36.000                  
                                                
  19346270.284     -315444.477        4782.778          35.000                  
                                                
  23203750.234     -489299.601        7606.483          38.000                  
                                                
  20853608.688     -273492.241        4574.354          31.000                  
                                                
  20455722.959     -100233.237        1792.528          32.000                  
                                                
  23019061.858      -37437.427         595.365          33.000                  
                                                
  20497954.233                        3036.764          29.000                  
                                                
  24040779.033     -264780.577        4051.328          30.000                  
                                                
  22934586.784     -374684.422        5809.410          37.000                  
                                                
  21127831.539     -194044.459        2852.220          35.000                  
                                                
  25014642.679     -459806.818        6834.322          45.000                  
                                                
  21605089.930     -318093.325        4795.083          38.000                  
                                                
  20207693.148     -238139.939        3653.795          32.000                  
                                                
 18  5 18 18 49 14.5000000  0 14R 9R18R19R20G 1G 7G 8G11G13G17G18G19
                                G28G30
  20880224.209     -455703.297        6655.066          34.000                  
                                                
  20151595.370      -55350.776         793.042          36.000                  
                                                
  19345823.790     -317835.321        4781.945          35.000                  
                                                
  23203039.137     -493102.495        7605.582          37.000                  
                                                
  20853173.202                        4573.393          31.000                  
                                                
  20455554.276     -101129.077        1792.078          32.000                  
                                                
  23019003.587      -37734.676         594.438          33.000                  
                                                
  20497663.700     -200973.885        3035.250          29.000                  
                                                
  24040392.722     -266806.468        4050.139          30.000                  
                                                
  22934034.042     -377588.873        5809.457          37.000                  
                                                
  21127559.965     -195470.873        2852.815          35.000                  
                                                
  25013992.478     -463223.691        6833.980          45.000                  
                                                
  21604633.698     -320490.578        4794.629          38.000                  
                                                
  20207344.594     -239966.875        3653.958          32.000                  
                                                
 18  5 18 18 49 15.0000000  0 14R 9R18R19R20G 1G 7G 8G11G13G17G18G19
                                G28G30
  20879601.403     -459030.619        6654.694          34.000                  
                                                
  20151521.071      -55747.104         792.606          35.000                  
                                                
  19345377.297     -320226.084        4781.503          36.000                  
                                                
  23202328.003     -496905.492        7606.350          37.000                  
                                                
  20852739.306                        4573.697          28.000                  
                                                
  20455384.216     -102024.835        1791.813          34.000                  
                                                
  23018943.475      -38032.135         594.648          32.000                  
                                                
  20497374.008     -202492.122        3036.441          31.000                  
                                                
  24040007.306     -268832.291        4051.722          31.000                  
                                                
  22933481.281     -380493.278        5809.224          38.000                  
                                                
  21127288.445     -196897.145        2852.381          34.000                  
                                                
  25013342.260     -466640.617        6833.947          46.000                  
                                                
  21604177.449     -322887.912        4794.768          39.000                  
                                                
  20206995.773     -241793.768        3653.661          33.000                  
                                                
 18  5 18 18 49 15.5000000  0 14R 9R18R19R20G 1G 7G 8G11G13G17G18G19
                                G28G30
  20878978.560     -462357.920        6654.842          34.000                  
                                                
  20151435.067      -56143.866         790.506          35.000                  
                                                
  19344930.750     -322616.678        4780.870          36.000                  
                                                
  23201616.834     -500708.432        7605.915          37.000                  
                                                
  20852305.410                        4574.382          28.000                  
                                                
  20455214.746     -102920.469        1792.641          34.000                  
                                                
  23018884.740      -38329.697         594.029          32.000                  
                                                
  20497085.066     -204010.270        3035.886          31.000                  
                                                
  24039621.746                        4051.255          31.000                  
                                                
  22932928.521     -383397.675        5808.024          38.000                  
                                                
  21127017.033     -198323.286        2851.764          34.000                  
                                                
  25012692.042     -470057.535        6833.429          46.000                  
                                                
  21603721.199     -325285.263        4794.741          39.000                  
                                                
  20206647.095     -243620.435        3652.232          33.000                  
                                                
 18  5 18 18 49 16.0000000  0 14R 9R18R19R20G 1G 7G 8G11G13G17G18G19
                                G28G30
  20878362.811     -465685.746        6654.709          33.000                  
                                                
  20151361.107      -56540.057         792.459          34.000                  
                                                
  19344484.203     -325007.169        4781.208          35.000                  
                                                
  23200905.665     -504511.344        7606.577          36.000                  
                                                
  20851871.533                        4572.726          25.000                  
                                                
  20455044.347                        1792.315          30.000                  
                                                
  23018827.416                         600.727          29.000                  
                                                
  20496796.946                        3036.719          31.000                  
                                                
  24039236.025                        4051.591          28.000                  
                                                
  22932375.779     -386302.037        5809.088          36.000                  
                                                
  21126745.727     -199749.398        2853.027          35.000                  
                                                
  25012041.824     -473474.486        6834.132          44.000                  
                                                
  21603264.967     -327682.611        4794.845          38.000                  
                                                
  20206298.417     -245447.109        3653.131          33.000                  
                                                
 18  5 18 18 49 16.5000000  0 14R 9R18R19R20G 1G 7G 8G11G13G17G18G19
                                G28G30
  20877739.665     -469013.114        6655.555          33.000                  
                                                
  20151286.808      -56936.248         792.949          34.000                  
                                                
  19344037.657     -327397.525        4780.563          35.000                  
                                                
  23200194.495     -508314.304        7606.452          36.000                  
                                                
  20851437.512                        4571.665          25.000                  
                                                
  20454874.020     -104712.601        1791.681          30.000                  
                                                
  23018771.236      -38927.566         595.096          29.000                  
                                                
  20496508.111                        3039.325          31.000                  
                                                
  24038850.036                        4048.869          28.000                  
                                                
  22931823.054     -389206.408        5809.077          36.000                  
                                                
  21126474.458     -201175.350        2852.197          35.000                  
                                                
  25011391.589     -476891.517        6834.129          44.000                  
                                                
  21602808.699     -330080.103        4794.710          38.000                  
                                                
  20205944.181                        3656.035          33.000                  
                                                
 18  5 18 18 49 17.0000000  0 14R 9R18R19R20G 1G 7G 8G11G13G17G18G19
                                G28G30
  20877117.394     -472340.372        6654.406          35.000                  
                                                
  20151190.440      -57332.433         792.172          37.000                  
                                                
  19343591.074     -329787.712        4779.656          34.000                  
                                                
  23199483.308     -512117.282        7606.359          36.000                  
                                                
  20851003.259     -287211.363        4572.894          29.000                  
                                                
  20454704.050     -105607.977        1790.665          32.000                  
                                                
  23018716.324      -39225.556         595.979          30.000                  
                                                
  20496219.061                        3033.190          28.000                  
                                                
  24038463.261     -276934.872        4049.439          27.000                  
                                                
  22931270.347     -392110.837        5808.875          41.000                  
                                                
  21126209.460                        2851.911          32.000                  
                                                
  25010741.353     -480308.550        6834.044          44.000                  
                                                
  21602352.449     -332477.644        4794.882          38.000                  
                                                
  20205596.021                        3653.285          27.000                  
                                                
 18  5 18 18 49 17.5000000  0 14R 9R18R19R20G 1G 7G 8G11G13G17G18G19
                                G28G30
  20876506.327     -475667.690        6654.366          35.000                  
                                                
  20151110.798      -57728.450         791.938          37.000                  
                                                
  19343144.456     -332177.862        4780.247          34.000                  
                                                
  23198772.121     -515920.170        7605.874          36.000                  
                                                
  20850568.917     -289497.672        4573.249          29.000                  
                                                
  20454532.221     -106503.348        1790.702          32.000                  
                                                
  23018661.377      -39523.235         595.597          30.000                  
                                                
  20495930.298     -210080.529        3034.799          28.000                  
                                                
  24038073.037     -278960.275        4051.040          27.000                  
                                                
  22930717.676     -395015.207        5808.837          41.000                  
                                                
  21125941.371     -204026.841        2851.730          32.000                  
                                                
  25010091.117     -483725.592        6834.182          44.000                  
                                                
  21601896.218     -334875.226        4795.477          38.000                  
                                                
  20205247.772                        3654.151          27.000                  
                                                
 18  5 18 18 49 18.0000000  0 14R 9R18R19R20G 1G 7G 8G11G13G17G18G19
                                G28G30
  20875879.732     -478994.784        6654.658          37.000                  
                                                
  20151037.660      -58124.166         791.748          38.000                  
                                                
  19342697.837     -334567.518        4779.465          34.000                  
                                                
  23198060.952     -519722.811        7605.498          36.000                  
                                                
  20850134.610                        4572.231          30.000                  
                                                
  20454361.644     -107398.328        1789.986          34.000                  
                                                
  23018609.754      -39820.761         595.281          34.000                  
                                                
  20495641.427     -211597.921        3033.972          29.000                  
                                                
  24037681.599                        4051.671          28.000                  
                                                
  22930165.059     -397919.300        5808.365          41.000                  
                                                
  21125673.139     -205452.126        2850.959          33.000                  
                                                
  25009440.917     -487142.404        6833.884          44.000                  
                                                
  21601440.004     -337272.517        4795.107          38.000                  
                                                
  20204899.183                        3654.912          27.000                  
                                                
 18  5 18 18 49 18.5000000  0 14R 9R18R19R20G 1G 7G 8G11G13G17G18G19
                                G28G30
  20875259.980     -482321.3751       6654.069          37.000                  
                                                
  20150967.131      -58519.4551        791.238          38.000                  
                                                
  19342251.147     -336957.138        4779.350          34.000                  
                                                
  23197349.747     -523525.557        7605.423          36.000                  
                                                
  20849700.214     -294069.525        4571.576          30.000                  
                                                
  20454190.476     -108293.276        1789.248          34.000                  
                                                
  23018568.869      -40118.216         594.121          34.000                  
                                                
  20495353.397                        3033.331          29.000                  
                                                
  24037289.356                        4049.921          28.000                  
                                                
  22929612.441     -400823.479        5807.988          41.000                  
                                                
  21125412.591     -206877.321        2849.369          33.000                  
                                                
  25008790.717     -490559.283        6833.410          44.000                  
                                                
  21600983.790     -339669.966        4794.536          38.000                  
                                                
  20204550.415                        3654.305          27.000                  
                                                
 18  5 18 18 49 19.0000000  0 14R 9R18R19R20G 1G 7G 8G11G13G17G18G19
                                G28G30
  20874637.120     -485647.997        6653.875          34.000                  
                                                
  20150896.566      -58914.635         790.956          36.000                  
                                                
  19341804.565     -339346.172        4778.140          34.000                  
                                                
  23196638.631     -527327.780        7604.749          36.000                  
                                                
  20849265.943                        4569.525          29.000                  
                                                
  20454018.683     -109187.6571       1788.767          32.000                  
                                                
  23018513.261      -40415.3511        593.302          34.000                  
                                                
  20495065.277                        3035.059          28.000                  
                                                
  24036897.148                        4048.066          28.000                  
                                                
  22929059.895     -403727.221        5808.208          41.000                  
                                                
  21125145.485     -208301.9711       2848.939          33.000                  
                                                
  25008140.588     -493975.750        6833.208          43.000                  
                                                
  21600527.629     -342067.016        4794.828          38.000                  
                                                
  20204201.880                        3651.024          27.000                  
                                                
 18  5 18 18 49 19.5000000  0 14R 9R18R19R20G 1G 7G 8G11G13G17G18G19
                                G28G30
  20874012.973     -488974.604        6653.960          34.000                  
                                                
  20150823.822      -59309.808         791.027          36.000                  
                                                
  19341358.036     -341735.119        4777.863          34.000                  
                                                
  23195927.605     -531130.107        7605.304          36.000                  
                                                
  20848831.994     -298640.142        4571.514          30.000                  
                                                
  20453843.388                        1787.300          32.000                  
                                                
  23018457.938                         595.457          34.000                  
                                                
  20494776.942                        3033.302          28.000                  
                                                
  24036505.031                        4049.412          28.000                  
                                                
  22928507.332     -406631.027        5808.015          41.000                  
                                                
  21124872.732     -209726.756        2850.253          33.000                  
                                                
  25007490.441     -497392.302        6833.643          43.000                  
                                                
  21600071.469     -344464.161        4795.507          38.000                  
                                                
  20203853.934                        3651.047          27.000                  
                                                
 18  5 18 18 49 20.0000000  0 14R 9R18R19R20G 1G 7G 8G11G13G17G18G19
                                G28G30
  20873384.734     -492301.656        6654.966          32.000                  
                                                
  20150751.559      -59705.267         790.814          38.000                  
                                                
  19340911.453     -344124.203        4777.789          35.000                  
                                                
  23195216.525     -534932.606        7604.286          34.000                  
                                                
  20848397.330     -300925.579        4571.012          33.000                  
                                                
  20453672.543     -110976.085        1788.289          28.000                  
                                                
  23018402.687                         594.604          27.000                  
                                                
  20494488.214                        3036.947          25.000                  
                                                
  24036114.056                        4047.658          29.000                  
                                                
  22927954.732     -409535.031        5808.123          43.000                  
                                                
  21124607.181     -211151.506        2850.527          33.000                  
                                                
  25006840.223     -500809.168        6833.627          44.000                  
                                                
  21599615.237     -346861.621        4795.484          38.000                  
                                                
  20203506.989                        3650.743          28.000                  
                                                
 18  5 18 18 49 20.5000000  0 14R 9R18R19R20G 1G 7G 8G11G13G17G18G19
                                G28G30
  20872760.604     -495628.535        6654.803          32.000                  
                                                
  20150678.582      -60100.659         791.221          38.000                  
                                                
  19340464.942     -346513.212        4777.842          35.000                  
                                                
  23194505.445     -538735.197        7604.489          34.000                  
                                                
  20847964.060     -303210.984        4570.660          33.000                  
                                                
  20453502.912     -111870.087        1790.678          28.000                  
                                                
  23018346.990                         594.356          27.000                  
                                                
  20494199.522                        3035.070          25.000                  
                                                
  24035724.387                        4047.896          29.000                  
                                                
  22927402.061     -412439.149        5808.097          43.000                  
                                                
  21124338.288     -212576.186        2851.451          33.000                  
                                                
  25006190.005     -504226.047        6834.228          44.000                  
                                                
  21599159.041     -349259.083        4795.856          38.000                  
                                                
  20203160.670                        3650.389          28.000                  
                                                
 18  5 18 18 49 21.0000000  0 14R 9R18R19R20G 1G 7G 8G11G13G17G18G19
                                G28G30
  20872135.332     -498955.541        6654.654          34.000                  
                                                
  20150605.569      -60495.964         790.307          37.000                  
                                                
  19340018.449     -348902.109        4778.041          39.000                  
                                                
  23193794.365     -542537.793        7605.842          36.000                  
                                                
  20847530.003     -305496.259        4570.830          35.000                  
                                                
  20453333.871     -112764.595        1790.003          33.000                  
                                                
  23018289.844      -41605.671         596.026          30.000                  
                                                
  20493910.134     -220701.538        3034.739          30.000                  
                                                
  24035334.842                        4048.912          27.000                  
                                                
  22926849.372     -415343.285        5808.291          38.000                  
                                                
  21124069.073     -214000.830        2848.635          30.000                  
                                                
  25005539.769     -507643.009        6834.183          42.000                  
                                                
  21598702.827     -351656.663        4795.491          40.000                  
                                                
  20202813.868     -263709.917        3649.904          29.000                  
                                                
 18  5 18 18 49 21.5000000  0 14R 9R18R19R20G 1G 7G 8G11G13G17G18G19
                                G28G30
  20871454.861                        6652.816          34.000                  
                                                
  20150532.306      -60891.149         789.168          37.000                  
                                                
  19339572.080     -351290.776        4776.073          39.000                  
                                                
  23193083.357     -546340.294        7603.561          36.000                  
                                                
  20847096.983     -307781.371        4569.627          35.000                  
                                                
  20453165.080     -113658.917        1787.785          33.000                  
                                                
  23018232.539      -41903.280         594.324          30.000                  
                                                
  20493620.816     -222218.065        3032.227          30.000                  
                                                
  24034944.582                        4049.362          26.000                  
                                                
  22926296.719     -418247.214        5806.885          38.000                  
                                                
  21123798.590     -215425.151        2848.367          30.000                  
                                                
  25004889.569     -511059.871        6832.592          42.000                  
                                                
  21598246.648     -354054.175        4794.060          40.000                  
                                                
  20202466.351     -265535.201        3649.307          29.000                  
                                                
 18  5 18 18 49 22.0000000  0 14R 9R18R19R20G 1G 7G 8G11G13G17G18G19
                                G28G30
  20870830.125                        6652.518          31.000                  
                                                
  20150459.151      -61286.089         788.970          35.000                  
                                                
  19339125.802     -353679.121        4777.379          38.000                  
                                                
  23192372.331     -550142.710        7605.410          32.000                  
                                                
  20846662.194     -310066.179        4569.905          34.000                  
                                                
  20453005.903     -114552.958        1789.939          32.000                  
                                                
  23018172.784      -42200.829         595.131          36.000                  
                                                
  20493328.997     -223734.438        3032.555          31.000                  
                                                
  24034555.127                        4046.838          27.000                  
                                                
  22925744.066     -421150.930        5807.913          39.000                  
                                                
  21123527.570                        2848.482          33.000                  
                                                
  25004239.369     -514476.644        6834.322          43.000                  
                                                
  21597790.470     -356451.593        4795.598          41.000                  
                                                
  20202118.084     -267360.163        3650.480          33.000                  
                                                
 18  5 18 18 49 22.5000000  0 14R 9R18R19R20G 1G 7G 8G11G13G17G18G19
                                G28G30
  20870205.888     -508935.301        6652.516          31.000                  
                                                
  20150385.923      -61680.838         789.668          35.000                  
                                                
  19338679.666     -356067.088        4775.716          38.000                  
                                                
  23191661.465     -553944.718        7603.581          32.000                  
                                                
  20846227.298     -312350.754        4568.844          34.000                  
                                                
  20452834.610     -115446.598        1787.534          33.000                  
                                                
  23018111.154      -42498.335         594.944          36.000                  
                                                
  20493039.716     -225250.473        3033.137          31.000                  
                                                
  24034166.047                        4049.151          27.000                  
                                                
  22925191.449     -424054.435        5806.707          39.000                  
                                                
  21123256.890     -218273.027        2846.228          33.000                  
                                                
  25003589.205     -517893.206        6832.771          43.000                  
                                                
  21597334.310     -358848.910        4794.528          41.000                  
                                                
  20201771.693     -269184.859        3649.512          33.000                  
                                                
 18  5 18 18 49 23.0000000  0 14R 9R18R19R20G 1G 7G 8G11G13G17G18G19
                                G28G30
  20869581.884                        6653.017          31.000                  
                                                
  20150312.696      -62075.539         789.676          38.000                  
                                                
  19338233.530     -358454.966        4776.040          37.000                  
                                                
  23190950.564     -557746.812        7604.129          31.000                  
                                                
  20845792.848     -314635.104        4568.811          35.000                  
                                                
  20452664.730     -116340.201        1787.593          34.000                  
                                                
  23018048.362      -42795.811         595.477          32.000                  
                                                
  20492750.559                        3032.055          30.000                  
                                                
  24033777.342     -301229.200        4045.748          29.000                  
                                                
  22924638.831     -426957.890        5807.233          41.000                  
                                                
  21122986.353     -219696.658        2847.399          34.000                  
                                                
  25002939.040     -521309.747        6833.486          42.000                  
                                                
  21596878.185     -361246.159        4794.851          40.000                  
                                                
  20201423.479     -271009.464        3649.411          34.000                  
                                                
 18  5 18 18 49 23.5000000  0 14R 9R18R19R20G 1G 7G 8G11G13G17G18G19
                                G28G30
  20868958.059     -515588.476        6652.859          31.000                  
                                                
  20150239.451      -62470.091         789.283          38.000                  
                                                
  19337787.394     -360842.743        4775.684          37.000                  
                                                
  23190239.645     -561548.956        7604.384          31.000                  
                                                
  20845358.417     -316919.395        4568.738          35.000                  
                                                
  20452495.921     -117233.801        1787.357          34.000                  
                                                
  23017989.502                         596.874          32.000                  
                                                
  20492462.332                        3031.909          30.000                  
                                                
  24033389.477                        4046.051          29.000                  
                                                
  22924086.178     -429861.457        5807.315          41.000                  
                                                
  21122714.815     -221120.229        2847.105          34.000                  
                                                
  25002288.858     -524726.380        6833.371          42.000                  
                                                
  21596422.025     -363643.526        4794.940          40.000                  
                                                
  20201076.016     -272834.016        3649.167          34.000                  
                                                
 18  5 18 18 49 24.0000000  0 14R 9R18R19R20G 1G 7G 8G11G13G17G18G19
                                G28G30
  20868334.555     -518914.633        6652.541          29.000                  
                                                
  20150166.313      -62864.220         789.222          34.000                  
                                                
  19337341.347     -363230.010        4774.531          36.000                  
                                                
  23189526.867     -565351.201        7603.815          31.000                  
                                                
  20844926.755     -319203.744        4568.392          34.000                  
                                                
  20452324.503     -118126.964        1787.421          34.000                  
                                                
  23017931.964                         595.890          29.000                  
                                                
  20492174.623                        3031.316          28.000                  
                                                
  24033002.166     -305275.941        4046.071          30.000                  
                                                
  22923533.632     -432764.640        5807.050          43.000                  
                                                
  21122436.059     -222543.375        2847.346          34.000                  
                                                
  25001638.747     -528142.696        6833.327          41.000                  
                                                
  21595965.936     -366040.590        4794.679          40.000                  
                                                
  20200729.589     -274658.598        3649.128          32.000                  
                                                
 18  5 18 18 49 24.5000000  0 14R 9R18R19R20G 1G 7G 8G11G13G17G18G19
                                G28G30
  20867711.462                        6654.000          29.000                  
                                                
  20150093.122      -63258.584         788.653          34.000                  
                                                
  19336895.301     -365617.433        4774.397          36.000                  
                                                
  23188816.467     -569153.177        7601.443          30.000                  
                                                
  20844492.180     -321487.728        4566.562          34.000                  
                                                
  20452151.585     -119020.274        1786.220          34.000                  
                                                
  23017874.247                         595.926          29.000                  
                                                
  20491886.913                        3031.063          28.000                  
                                                
  24032615.123     -307299.206        4045.079          30.000                  
                                                
  22922981.033     -435667.983        5805.117          43.000                  
                                                
  21122158.660     -223966.599        2845.409          34.000                  
                                                
  25000988.583     -531559.246        6832.300          41.000                  
                                                
  21595509.793     -368437.922        4794.088          40.000                  
                                                
  20200382.341     -276482.742        3645.735          32.000                  
                                                
 18  5 18 18 49 25.0000000  0 14R 9R18R19R20G 1G 7G 8G11G13G17G18G19
                                G28G30
  20867088.441     -525567.096        6649.673          30.000                  
                                                
  20150020.109      -63652.310         786.473          33.000                  
                                                
  19336449.362     -368004.136        4772.421          35.000                  
                                                
  23188116.072     -572954.695        7600.668          31.000                  
                                                
  20844057.802     -323770.5461       4564.341          35.000                  
                                                
  20451978.702     -119912.9071       1783.239          33.000                  
                                                
  23017817.977                         593.083          27.000                  
                                                
  20491598.829                        3031.952          27.000                  
                                                
  24032216.948     -309321.8941       4042.284          32.000                  
                                                
  22922428.540     -438570.872        5803.744          43.000                  
                                                
  21121884.746     -225389.1781       2843.041          36.000                  
                                                
  25000338.508     -534975.286        6829.750          41.000                  
                                                
  21595053.722     -370834.806        4791.918          40.000                  
                                                
  20200036.343     -278306.4171       3645.578          32.000                  
                                                
 18  5 18 18 49 25.5000000  0 14R 9R18R19R20G 1G 7G 8G11G13G17G18G19
                                G28G30
  20866465.705     -528893.077        6653.678          30.000                  
                                                
  20149947.114      -64045.893         788.508          33.000                  
                                                
  19336003.404     -370390.662        4775.296          35.000                  
                                                
  23187404.170     -576756.123        7604.291          31.000                  
                                                
  20843625.139     -326053.749        4567.600          35.000                  
                                                
  20451808.303     -120805.408        1785.394          33.000                  
                                                
  23017762.208      -44284.539         595.136          27.000                  
                                                
  20491309.851                        3030.908          27.000                  
                                                
  24031826.045     -311344.477        4046.806          32.000                  
                                                
  22921876.048     -441473.688        5807.078          43.000                  
                                                
  21121613.029     -226811.555        2845.965          36.000                  
                                                
  24999688.451     -538391.293        6833.261          41.000                  
                                                
  21594597.651     -373231.661        4795.088          40.000                  
                                                
  20199682.625     -280129.883        3648.736          32.000                  
                                                
 18  5 18 18 49 26.0000000  0 14R 9R18R19R20G 1G 7G 8G11G13G17G18G19
                                G28G30
  20865848.956     -532218.227        6651.527          33.000                  
                                                
  20149874.315      -64438.713         787.863          36.000                  
                                                
  19335557.572     -372776.322        4772.099          35.000                  
                                                
  23186687.015     -580556.921        7603.266          31.000                  
                                                
  20843192.048     -328336.173        4566.529          38.000                  
                                                
  20451637.743     -121697.143        1783.898          33.000                  
                                                
  23017705.831      -44580.845         593.735          33.000                  
                                                
  20491019.730                        3027.784          25.000                  
                                                
  24031438.823     -313366.181        4044.766          30.000                  
                                                
  22921323.699     -444375.763        5805.327          44.000                  
                                                
  21121340.795     -228233.172        2843.770          36.000                  
                                                
  24999038.501     -541806.662        6832.063          41.000                  
                                                
  21594141.687     -375627.864        4793.547          41.000                  
                                                
  20199331.696     -281952.527        3646.319          32.000                  
                                                
 18  5 18 18 49 26.5000000  0 14R 9R18R19R20G 1G 7G 8G11G13G17G18G19
                                G28G30
  20865218.376     -535543.212        6650.437          33.000                  
                                                
  20149801.445      -64831.323         785.970          36.000                  
                                                
  19335111.776     -375161.751        4771.293          35.000                  
                                                
  23185977.936     -584357.434        7601.869          31.000                  
                                                
  20842757.241     -330618.301        4565.085          38.000                  
                                                
  20451467.183     -122588.822        1784.273          33.000                  
                                                
  23017645.345      -44877.159         593.824          33.000                  
                                                
  20490729.483                        3028.123          26.000                  
                                                
  24031052.709     -315387.694        4043.200          30.000                  
                                                
  22920771.385     -447277.722        5804.644          44.000                  
                                                
  21121069.168     -229654.590        2843.780          37.000                  
                                                
  24998388.586     -545221.935        6831.338          41.000                  
                                                
  21593685.741     -378024.010        4793.461          41.000                  
                                                
  20198980.248     -283774.999        3645.704          32.000                  
                                                
 18  5 18 18 49 27.0000000  0 14R 9R18R19R20G 1G 7G 8G11G13G17G18G19
                                G28G30
  20864593.299     -538868.823        6649.214          35.000                  
                                                
  20149728.522      -65224.422         784.230          37.000                  
                                                
  19334665.872     -377547.624        4769.716          35.000                  
                                                
  23185266.964     -588158.521        7600.460          32.000                  
                                                
  20842321.219     -332900.875        4563.198          38.000                  
                                                
  20451296.570     -123480.769        1782.196          34.000                  
                                                
  23017590.576      -45173.991         591.680          35.000                  
                                                
  20490439.487                        3030.624          26.000                  
                                                
  24030667.167     -317409.702        4042.072          31.000                  
                                                
  22920218.964     -450180.204        5803.125          44.000                  
                                                
  21120797.273     -231076.385        2841.653          37.000                  
                                                
  24997738.565     -548637.742        6829.708          43.000                  
                                                
  21593229.706     -380420.697        4791.503          40.000                  
                                                
  20198633.106     -285597.835        3643.537          32.000                  
                                                
 18  5 18 18 49 27.5000000  0 14R 9R18R19R20G 1G 7G 8G11G13G17G18G19
                                G28G30
  20863972.976     -542194.161        6650.469          35.000                  
                                                
  20149655.616      -65617.183         784.292          37.000                  
                                                
  19334220.076     -379933.033        4770.090          35.000                  
                                                
  23184554.365     -591959.335        7600.547          32.000                  
                                                
  20841886.894     -335183.080        4563.730          37.000                  
                                                
  20451126.421     -124372.383        1783.049          34.000                  
                                                
  23017532.520      -45470.679         592.649          35.000                  
                                                
  20490150.044                        3026.667          26.000                  
                                                
  24030285.824     -319431.305        4042.439          31.000                  
                                                
  22919666.597     -453082.403        5804.105          44.000                  
                                                
  21120525.503     -232497.783        2842.750          37.000                  
                                                
  24997088.597     -552053.318        6831.220          43.000                  
                                                
  21592773.688     -382817.167        4792.386          40.000                  
                                                
  20198286.251     -287420.397        3644.581          32.000                  
                                                
 18  5 18 18 49 28.0000000  0 14R 9R18R19R20G 1G 7G 8G11G13G17G18G19
                                G28G30
  20863353.046     -545519.324        6651.440          35.000                  
                                                
  20149582.693      -66009.806         786.942          36.000                  
                                                
  19333774.262     -382318.272        4772.294          34.000                  
                                                
  23183842.088     -595760.051        7603.548          32.000                  
                                                
  20841452.606     -337465.091        4565.783          37.000                  
                                                
  20450956.469     -125263.819        1784.944          36.000                  
                                                
  23017473.748      -45767.251         594.611          34.000                  
                                                
  20489861.388                        3024.739          28.000                  
                                                
  24029902.820     -321452.731        4044.100          31.000                  
                                                
  22919114.247     -455984.466        5806.054          43.000                  
                                                
  21120253.947     -233918.930        2844.251          36.000                  
                                                
  24996438.629     -555468.805        6833.303          43.000                  
                                                
  21592317.689     -385213.583        4794.924          40.000                  
                                                
  20197939.592     -289242.671        3646.726          33.000                  
                                                
 18  5 18 18 49 28.5000000  0 14R 9R18R19R20G 1G 7G 8G11G13G17G18G19
                                G28G30
  20862732.437     -548844.1571       6650.520          35.000                  
                                                
  20149509.734      -66402.509         784.806          36.000                  
                                                
  19333328.465     -384703.380        4769.907          34.000                  
                                                
  23183129.882     -599560.837        7601.660          32.000                  
                                                
  20841018.138     -339747.053        4563.286          37.000                  
                                                
  20450786.534     -126155.250        1782.604          36.000                  
                                                
  23017417.443      -46064.011         593.751          34.000                  
                                                
  20489572.839                        3028.982          28.000                  
                                                
  24029517.063     -323474.158        4037.654          31.000                  
                                                
  22918561.898     -458886.598        5803.854          43.000                  
                                                
  21119982.856     -235340.059        2841.958          36.000                  
                                                
  24995788.661     -558884.377        6831.076          43.000                  
                                                
  21591861.671     -387610.115        4792.782          40.000                  
                                                
  20197593.379     -291064.924        3644.856          33.000                  
                                                
 18  5 18 18 49 29.0000000  0 14R 9R18R19R20G 1G 7G 8G11G13G17G18G19
                                G28G30
  20862111.721     -552169.929        6650.623          35.000                  
                                                
  20149436.703      -66795.557         785.021          35.000                  
                                                
  19332882.562     -387088.930        4770.039          34.000                  
                                                
  23182418.731     -603362.097        7601.169          31.000                  
                                                
  20840583.564     -342029.400        4563.353          35.000                  
                                                
  20450616.618     -127047.125        1782.195          33.000                  
                                                
  23017361.209      -46361.178         592.563          35.000                  
                                                
  20489284.165     -244941.651        3026.109          29.000                  
                                                
  24029131.611     -325496.008        4042.674          30.000                  
                                                
  22918009.459     -461789.207        5804.168          43.000                  
                                                
  21119711.819     -236761.565        2841.604          38.000                  
                                                
  24995138.586     -562300.450        6830.861          43.000                  
                                                
  21591405.564     -390007.191        4792.943          40.000                  
                                                
  20197245.559     -292887.571        3642.937          31.000                  
                                                
 18  5 18 18 49 29.5000000  0 14R 9R18R19R20G 1G 7G 8G11G13G17G18G19
                                G28G30
  20861490.540     -555495.133        6650.206          35.000                  
                                                
  20149363.708      -67187.968         784.824          35.000                  
                                                
  19332436.801     -389473.685        4769.094          34.000                  
                                                
  23181708.026     -607162.742        7601.292          31.000                  
                                                
  20840149.418     -344311.004        4562.289          35.000                  
                                                
  20450446.791     -127938.410        1782.915          33.000                  
                                                
  23017304.618      -46657.951         592.727          35.000                  
                                                
  20488995.098                        3025.516          29.000                  
                                                
  24028745.890     -327517.127        4041.610          30.000                  
                                                
  22917457.146     -464691.228        5803.828          43.000                  
                                                
  21119441.121     -238182.395        2841.905          38.000                  
                                                
  24994488.619     -565715.982        6830.928          43.000                  
                                                
  21590949.547     -392403.727        4793.002          40.000                  
                                                
  20196898.721     -294709.638        3644.703          31.000                  
                                                
 18  5 18 18 49 30.0000000  0 14R 9R18R19R20G 1G 7G 8G11G13G17G18G19
                                G28G30
  20860869.395     -558820.283        6650.058          35.000                  
                                                
  20149290.767      -67580.279         784.292          35.000                  
                                                
  19331991.058     -391858.309        4769.103          34.000                  
                                                
  23180991.889     -610963.238        7599.415          32.000                  
                                                
  20839715.165     -346592.493        4562.481          35.000                  
                                                
  20450276.856     -128829.338        1781.678          34.000                  
                                                
  23017247.866      -46954.733         594.000          35.000                  
                                                
  20488706.495                        3028.829          28.000                  
                                                
  24028352.485     -329538.142        4042.375          32.000                  
                                                
  22916904.814     -467593.159        5803.863          43.000                  
                                                
  21119170.566     -239603.025        2841.002          38.000                  
                                                
  24993838.651     -569131.468        6830.791          43.000                  
                                                
  21590493.547     -394800.234        4793.021          41.000                  
                                                
  20196564.266     -296531.420        3644.117          33.000                  
                                                
 18  5 18 18 49 30.5000000  0 14R 9R18R19R20G 1G 7G 8G11G13G17G18G19
                                G28G30
  20860247.893     -562145.857        6649.763          35.000                  
                                                
  20149217.754      -67972.902         784.084          35.000                  
                                                
  19331545.315     -394243.096        4769.023          34.000                  
                                                
  23180285.706     -614764.220        7601.481          32.000                  
                                                
  20839280.787     -348874.183        4562.251          35.000                  
                                                
  20450106.850     -129720.624        1781.167          34.000                  
                                                
  23017190.953      -47251.910         593.566          35.000                  
                                                
  20488417.964                        3027.925          28.000                  
                                                
  24027972.608     -331559.385        4041.231          32.000                  
                                                
  22916352.429     -470495.471        5803.856          43.000                  
                                                
  21118900.011     -241023.901        2840.820          38.000                  
                                                
  24993188.611     -572547.345        6830.911          43.000                  
                                                
  21590037.440     -397197.194        4793.349          41.000                  
                                                
  20196219.376     -298353.519        3642.785          33.000                  
                                                
 18  5 18 18 49 31.0000000  0 14R 9R18R19R20G 1G 7G 8G11G13G17G18G19
                                G28G30
  20859636.575                        6646.821          30.000                  
                                                
  20149144.973      -68364.418         782.389          34.000                  
                                                
  19331099.751     -396626.731        4766.753          33.000                  
                                                
  23179578.861     -618564.198        7600.411          32.000                  
                                                
  20838846.301     -351154.878        4561.011          34.000                  
                                                
  20449937.095     -130610.914        1780.574          36.000                  
                                                
  23017134.344      -47547.5621        592.008          35.000                  
                                                
  20488130.773                        3025.618          29.000                  
                                                
  24027593.642     -333579.6701       4040.520          32.000                  
                                                
  22915800.241     -473396.782        5802.194          43.000                  
                                                
  21118629.671     -242443.717        2839.177          39.000                  
                                                
  24992538.751     -575962.284        6829.285          42.000                  
                                                
  21589581.548     -399593.200        4791.677          43.000                  
                                                
  20195873.146     -300174.6281       3642.070          33.000                  
                                                
 18  5 18 18 49 31.5000000  0 14R 9R18R19R20G 1G 7G 8G11G13G17G18G19
                                G28G30
  20859013.518                        6648.086          30.000                  
                                                
  20149082.503                         779.385          34.000                  
                                                
  19330654.134     -399010.449        4766.835          33.000                  
                                                
  23178868.728     -622364.296        7600.329          32.000                  
                                                
  20838406.402     -353436.074        4561.615          34.000                  
                                                
  20449767.285     -131501.260        1780.666          36.000                  
                                                
  23017077.664      -47843.974         592.649          35.000                  
                                                
  20487843.833                        3025.027          29.000                  
                                                
  24027212.352     -335599.913        4040.479          32.000                  
                                                
  22915248.016     -476298.246        5802.965          43.000                  
                                                
  21118359.366     -243863.558        2839.728          39.000                  
                                                
  24991888.837     -579377.443        6830.326          42.000                  
                                                
  21589125.602     -401989.395        4792.241          43.000                  
                                                
  20195525.272     -301995.698        3642.570          33.000                  
                                                
 18  5 18 18 49 32.0000000  0 14R 9R18R19R20G 1G 7G 8G11G13G17G18G19
                                G28G30
  20858390.962                        6650.378          26.000                  
                                                
  20149008.525      -69147.913         780.987          32.000                  
                                                
  19330208.534     -401393.874        4766.598          34.000                  
                                                
  23178157.219     -626164.294        7600.082          32.000                  
                                                
  20837971.774     -355716.625        4560.387          33.000                  
                                                
  20449597.494     -132391.404        1779.775          35.000                  
                                                
  23017020.983      -48140.370         592.989          33.000                  
                                                
  20487557.124                        3025.490          27.000                  
                                                
  24026831.403     -337620.044        4040.011          33.000                  
                                                
  22914695.810     -479199.584        5802.488          43.000                  
                                                
  21118089.115     -245283.173        2838.607          37.000                  
                                                
  24991238.940     -582792.472        6830.089          40.000                  
                                                
  21588669.656     -404385.550        4792.231          42.000                  
                                                
  20195179.435     -303816.611        3641.874          31.000                  
                                                
 18  5 18 18 49 32.5000000  0 14R 9R18R19R20G 1G 7G 8G11G13G17G18G19
                                G28G30
  20857770.120                        6644.521          26.000                  
                                                
  20148934.405      -69539.289         783.374          32.000                  
                                                
  19329762.952     -403777.137        4766.227          34.000                  
                                                
  23177446.640     -629963.7221       7599.607          32.000                  
                                                
  20837537.485     -357996.860        4560.137          33.000                  
                                                
  20449427.667     -133281.330        1779.429          35.000                  
                                                
  23016964.160      -48436.625         592.004          33.000                  
                                                
  20487271.005                        3022.721          27.000                  
                                                
  24026447.951     -339639.960        4040.402          33.000                  
                                                
  22914143.639     -482100.812        5802.360          43.000                  
                                                
  21117818.918     -246702.573        2838.956          37.000                  
                                                
  24990589.062     -586207.408        6830.214          40.000                  
                                                
  21588213.746     -406781.615        4792.358          42.000                  
                                                
  20194833.544     -305637.303        3641.733          31.000                  
                                                
 18  5 18 18 49 33.0000000  0 14R 9R18R19R20G 1G 7G 8G11G13G17G18G19
                                G28G30
  20857148.957                        6648.401          26.000                  
                                                
  20148860.909      -69930.554         784.015          32.000                  
                                                
  19329317.406     -406160.316        4765.698          35.000                  
                                                
  23176736.364     -633763.696        7600.179          32.000                  
                                                
  20837090.062                        4562.400          31.000                  
                                                
  20449257.786     -134171.297        1780.905          34.000                  
                                                
  23016907.265      -48733.094         594.025          33.000                  
                                                
  20486985.369                        3023.727          27.000                  
                                                
  24026064.554     -341659.805        4039.171          34.000                  
                                                
  22913591.433     -485002.150        5803.071          41.000                  
                                                
  21117548.684     -248121.940        2839.324          36.000                  
                                                
  24989939.165     -589622.493        6830.687          40.000                  
                                                
  21587757.800     -409177.843        4792.925          41.000                  
                                                
  20194488.493     -307458.007        3640.863          30.000                  
                                                
 18  5 18 18 49 33.5000000  0 14R 9R18R19R20G 1G 7G 8G11G13G17G18G19
                                G28G30
  20856526.222                        6650.952          26.000                  
                                                
  20148787.861      -70321.876         783.370          32.000                  
                                                
  19328871.895     -408543.510        4767.202          35.000                  
                                                
  23176025.713     -637563.809        7601.905          32.000                  
                                                
  20836655.255     -362557.905        4559.437          31.000                  
                                                
  20449087.834     -135061.204        1780.935          34.000                  
                                                
  23016850.370      -49029.682         594.428          33.000                  
                                                
  20486699.715                        3024.150          27.000                  
                                                
  24025680.977     -343679.707        4039.798          34.000                  
                                                
  22913039.226     -487903.519        5803.123          41.000                  
                                                
  21117278.505     -249541.280        2839.391          36.000                  
                                                
  24989289.251     -593037.668        6830.966          40.000                  
                                                
  21587301.818     -411574.208        4793.485          41.000                  
                                                
  20194143.157     -309278.725        3641.759          30.000                  
                                                
 18  5 18 18 49 34.0000000  0 14R 9R18R19R20G 1G 7G 8G11G13G17G18G19
                                G28G30
  20855903.165     -585414.250        6648.211          29.000                  
                                                
  20148708.076                         782.723          33.000                  
                                                
  19328426.456     -410926.484        4765.124          35.000                  
                                                
  23175314.990     -641363.853        7600.183          32.000                  
                                                
  20836221.449     -364838.023        4558.927          32.000                  
                                                
  20448917.828     -135951.041        1779.062          32.000                  
                                                
  23016793.224      -49326.159         591.723          31.000                  
                                                
  20486412.077                        3024.787          22.000                  
                                                
  24025297.562     -345699.558        4038.544          34.000                  
                                                
  22912487.002     -490804.905        5801.766          41.000                  
                                                
  21117008.343     -250960.484        2836.763          36.000                  
                                                
  24988639.319     -596452.852        6829.253          39.000                  
                                                
  21586845.854     -413970.584        4791.940          41.000                  
                                                
  20193797.874     -311099.340        3639.977          32.000                  
                                                
 18  5 18 18 49 34.5000000  0 14R 9R18R19R20G 1G 7G 8G11G13G17G18G19
                                G28G30
  20855280.554     -588738.593        6649.111          29.000                  
                                                
  20148635.009                         781.066          33.000                  
                                                
  19327981.089     -413309.164        4765.842          35.000                  
                                                
  23174604.214     -645163.654        7599.765          32.000                  
                                                
  20835788.286     -367117.847        4558.778          32.000                  
                                                
  20448747.965     -136840.623        1779.105          32.000                  
                                                
  23016727.091      -49623.214         592.958          31.000                  
                                                
  20486122.706                        3029.712          22.000                  
                                                
  24024914.003     -347719.048        4038.577          34.000                  
                                                
  22911934.831     -493706.067        5802.441          41.000                  
                                                
  21116738.288     -252379.375        2837.420          36.000                  
                                                
  24987989.423     -599867.883        6829.786          39.000                  
                                                
  21586389.908     -416366.776        4791.978          41.000                  
                                                
  20193458.863     -312919.605        3639.721          32.000                  
                                                
 18  5 18 18 49 35.0000000  0 14R 9R18R19R20G 1G 7G 8G11G13G17G18G19
                                G28G30
  20854657.605                        6648.490          28.000                  
                                                
  20148561.746      -71494.134         779.688          31.000                  
                                                
  19327535.828     -415691.243        4762.895          34.000                  
                                                
  23173893.474     -648963.052        7597.297          33.000                  
                                                
  20835356.785     -369397.151        4556.091          32.000                  
                                                
  20448578.227     -137729.679        1776.889          33.000                  
                                                
  23016671.018      -49919.265         590.555          33.000                  
                                                
  20485835.086                        3043.719          15.000                  
                                                
  24024530.516     -349738.046        4036.079          35.000                  
                                                
  22911382.750     -496606.794        5800.107          41.000                  
                                                
  21116468.287     -253797.775        2835.518          36.000                  
                                                
  24987339.598     -603282.499        6827.742          39.000                  
                                                
  21585934.016     -418762.631        4790.194          40.000                  
                                                
  20193113.740     -314739.398        3639.458          31.000                  
                                                
 18  5 18 18 49 35.5000000  0 14R 9R18R19R20G 1G 7G 8G11G13G17G18G19
                                G28G30
  20854033.868                        6646.875          28.000                  
                                                
  20148488.608      -71883.788         777.316          31.000                  
                                                
  19327090.765     -418072.414        4761.051          34.000                  
                                                
  23173182.948     -652761.671        7595.599          33.000                  
                                                
  20834927.321     -371675.562        4555.074          32.000                  
                                                
  20448408.739     -138617.838        1774.663          33.000                  
                                                
  23016613.319      -50214.476         588.712          33.000                  
                                                
  20485547.645                        3023.961           1.000                  
                                                
  24024147.064     -351756.170        4034.536          35.000                  
                                                
  22910830.830     -499506.694        5798.117          41.000                  
                                                
  21116198.501     -255215.155        2833.099          36.000                  
                                                
  24986689.934     -606696.332        6825.983          39.000                  
                                                
  21585478.284     -421157.725        4788.453          40.000                  
                                                
  20192768.332     -316558.228        3634.573          31.000                  
                                                
 18  5 18 18 49 36.0000000  0 14R 9R18R19R20G 1G 7G 8G11G13G17G18G19
                                G28G30
  20853411.294     -598709.836        6647.103          29.000                  
                                                
  20148421.206      -72273.178         779.267          37.000                  
                                                
  19326645.772     -420453.228        4761.807          33.000                  
                                                
  23172472.440     -656560.081        7597.564          32.000                  
                                                
  20834492.228                        4556.040          31.000                  
                                                
  20448239.270     -139505.762        1776.198          34.000                  
                                                
  23016551.260      -50509.715         590.938          32.000                  
                                                
  20485259.918                        3023.961           1.000                  
                                                
  24023763.756     -353774.014        4035.887          36.000                  
                                                
  22910278.927     -502406.449        5800.238          42.000                  
                                                
  21115928.768     -256632.333        2834.991          37.000                  
                                                
  24986040.270     -610110.050        6828.275          39.000                  
                                                
  21585022.571     -423552.701        4790.443          41.000                  
                                                
  20192422.531     -318376.909        3637.641          31.000                  
                                                
 18  5 18 18 49 36.5000000  0 14R 9R18R19R20G 1G 7G 8G11G13G17G18G19
                                G28G30
  20852789.202     -602033.819        6648.118          29.000                  
                                                
  20148360.202      -72663.452         780.418          37.000                  
                                                
  19326200.601     -422834.908        4762.918          33.000                  
                                                
  23171761.681     -660359.372        7598.837          32.000                  
                                                
  20834057.725     -376231.610        4557.461          31.000                  
                                                
  20448069.693     -140394.628        1777.014          34.000                  
                                                
  23016499.994      -50805.853         592.453          32.000                  
                                                
  20484972.495                        3019.961           1.000                  
                                                
  24023379.947     -355792.739        4037.554          36.000                  
                                                
  22909726.881     -505307.041        5801.158          43.000                  
                                                
  21115658.892     -258050.285        2835.644          37.000                  
                                                
  24985390.445     -613524.699        6829.091          39.000                  
                                                
  21584566.678     -425948.650        4792.008          41.000                  
                                                
  20192076.622     -320196.336        3638.571          31.000                  
                                                
 18  5 18 18 49 37.0000000  0 14R 9R18R19R20G 1G 7G 8G11G13G17G18G19
                                G28G30
  20852167.235     -605357.576        6646.877          32.000                  
                                                
  20148289.029      -73053.498         778.660          36.000                  
                                                
  19325755.466     -425216.326        4762.266          33.000                  
                                                
  23171050.869     -664158.541        7597.381          33.000                  
                                                
  20833622.686     -378510.239        4556.126          30.000                  
                                                
  20447900.223     -141283.112        1776.153          32.000                  
                                                
  23016446.208      -51101.3851        591.393          35.000                  
                                                
  20484685.644                        3021.941          24.000                  
                                                
  24022996.121     -357811.190        4035.671          35.000                  
                                                
  22909174.854     -508207.490        5799.973          42.000                  
                                                
  21115389.070     -259467.955        2834.246          39.000                  
                                                
  24984740.638     -616939.189        6827.803          40.000                  
                                                
  21584110.804     -428344.465        4790.407          40.000                  
                                                
  20191727.104     -322015.4951       3637.113          33.000                  
                                                
 18  5 18 18 49 37.5000000  0 14R 9R18R19R20G 1G 7G 8G11G13G17G18G19
                                G28G30
  20851545.017     -608681.124        6647.576          32.000                  
                                                
  20148216.302      -73443.336         779.444          36.000                  
                                                
  19325310.402     -427597.374        4761.702          33.000                  
                                                
  23170340.111     -667957.502        7597.340          32.000                  
                                                
  20833181.768     -380788.626        4556.868          30.000                  
                                                
  20447730.824     -142171.354        1776.300          32.000                  
                                                
  23016391.493      -51397.357         592.403          35.000                  
                                                
  20484399.257                        3018.817          24.000                  
                                                
  24022612.312     -359829.408        4036.696          35.000                  
                                                
  22908622.862     -511107.802        5800.734          42.000                  
                                                
  21115119.355     -260885.350        2834.688          39.000                  
                                                
  24984090.866     -620353.537        6829.134          40.000                  
                                                
  21583654.947     -430740.161        4791.432          40.000                  
                                                
  20191382.911     -323834.420        3637.280          33.000                  
                                                
 18  5 18 18 49 38.0000000  0 14R 9R18R19R20G 1G 7G 8G11G13G17G18G19
                                G28G30
  20850922.139     -612005.143        6648.537          31.000                  
                                                
  20148142.503      -73833.558         781.346          34.000                  
                                                
  19324865.249     -429978.767        4762.783          34.000                  
                                                
  23169629.139     -671756.995        7599.508          33.000                  
                                                
  20832741.064     -383067.381        4557.892          33.000                  
                                                
  20447561.355     -143060.056        1777.849          32.000                  
                                                
  23016337.118      -51693.719         592.374          36.000                  
                                                
  20484113.031                        3020.715          27.000                  
                                                
  24022228.485     -361847.987        4037.502          35.000                  
                                                
  22908070.780     -514008.557        5801.728          43.000                  
                                                
  21114849.604     -262303.113        2835.899          41.000                  
                                                
  24983441.006     -623768.379        6829.750          40.000                  
                                                
  21583199.001     -433136.396        4793.172          40.000                  
                                                
  20191039.486     -325653.752        3639.055          32.000                  
                                                
 18  5 18 18 49 38.5000000  0 14R 9R18R19R20G 1G 7G 8G11G13G17G18G19
                                G28G30
  20850299.493     -615329.235        6649.017          31.000                  
                                                
  20148068.722      -74223.7551        781.845          34.000                  
                                                
  19324420.150     -432360.061        4763.798          34.000                  
                                                
  23168918.273     -675556.432        7599.883          33.000                  
                                                
  20832312.493     -385346.021        4558.222          33.000                  
                                                
  20447383.594                        1776.346          32.000                  
                                                
  23016282.135      -51990.229         594.141          36.000                  
                                                
  20483826.680                        3020.765          27.000                  
                                                
  24021844.659     -363866.456        4038.119          35.000                  
                                                
  22907518.699     -516909.299        5803.222          43.000                  
                                                
  21114579.889     -263720.735        2836.385          41.000                  
                                                
  24982791.127     -627183.246        6830.843          40.000                  
                                                
  21582743.055     -435532.635        4793.864          40.000                  
                                                
  20190692.237     -327472.966        3640.113          32.000                  
                                                
 18  5 18 18 49 39.0000000  0 14R 9R18R19R20G 1G 7G 8G11G13G17G18G19
                                G28G30
  20849666.179     -618653.378        6647.079          34.000                  
                                                
  20147995.155      -74613.862         779.026          34.000                  
                                                
  19323975.086     -434741.206        4760.686          34.000                  
                                                
  23168207.336     -679355.946        7598.542          34.000                  
                                                
  20831882.993     -387624.617        4557.029          33.000                  
                                                
  20447214.374                        1780.246          27.000                  
                                                
  23016226.991      -52286.876         593.447          36.000                  
                                                
  20483540.632                        3021.902          25.000                  
                                                
  24021460.904     -365884.891        4035.851          36.000                  
                                                
  22906966.635     -519810.036        5800.383          43.000                  
                                                
  21114310.174     -265138.285        2833.850          41.000                  
                                                
  24982141.249     -630598.194        6829.401          41.000                  
                                                
  21582287.091     -437928.994        4791.917          40.000                  
                                                
  20190345.954     -329292.048        3636.797          32.000                  
                                                
 18  5 18 18 49 39.5000000  0 14R 9R18R19R20G 1G 7G 8G11G13G17G18G19
                                G28G30
  20849040.852     -621977.105        6648.235          34.000                  
                                                
  20147921.714      -75003.545         780.379          34.000                  
                                                
  19323530.147     -437121.883        4761.929          34.000                  
                                                
  23167496.614     -683155.016        7598.495          34.000                  
                                                
  20831449.402     -389902.626        4556.054          33.000                  
                                                
  20447044.279                        1774.430          27.000                  
                                                
  23016171.597      -52583.077         592.955          36.000                  
                                                
  20483253.102                        3022.321          25.000                  
                                                
  24021077.202     -367902.879        4036.750          36.000                  
                                                
  22906414.644     -522710.433        5801.628          43.000                  
                                                
  21114040.566     -266555.369        2834.638          41.000                  
                                                
  24981491.424     -634012.789        6829.964          41.000                  
                                                
  21581831.181     -440325.009        4792.843          40.000                  
                                                
  20189999.849     -331110.751        3637.525          32.000                  
                                                
 18  5 18 18 49 40.0000000  0 14R 9R18R19R20G 1G 7G 8G11G13G17G18G19
                                G28G30
  20848420.940     -625301.176        6648.023          33.000                  
                                                
  20147848.040      -75393.484         779.412          33.000                  
                                                
  19323085.191     -439502.674        4761.603          33.000                  
                                                
  23166785.855     -686954.362        7598.631          34.000                  
                                                
  20831015.381     -392180.998        4556.803          31.000                  
                                                
  20446873.701                        1776.461          27.000                  
                                                
  23016116.257      -52879.664         592.537          33.000                  
                                                
  20482965.285                        3017.162          22.000                  
                                                
  24020693.465     -369921.059        4036.075          36.000                  
                                                
  22905862.598     -525611.041        5800.996          43.000                  
                                                
  21113770.887     -267972.617        2834.390          41.000                  
                                                
  24980841.563     -637427.679        6829.850          40.000                  
                                                
  21581375.199     -442721.328        4792.399          39.000                  
                                                
  20189652.778                        3638.491          32.000                  
                                                
 18  5 18 18 49 40.5000000  0 14R 9R18R19R20G 1G 7G 8G11G13G17G18G19
                                G28G30
  20847800.903     -628625.2621       6648.275          33.000                  
                                                
  20147774.348      -75783.946         780.747          33.000                  
                                                
  19322640.145     -441883.983        4762.278          33.000                  
                                                
  23166075.026     -690754.351        7600.062          34.000                  
                                                
  20830579.877                        4557.133          31.000                  
                                                
  20446702.927                        1778.699          27.000                  
                                                
  23016060.130      -53176.922         594.202          33.000                  
                                                
  20482676.969                        3026.218          22.000                  
                                                
  24020309.620     -371939.765        4037.013          36.000                  
                                                
  22905310.427     -528512.328        5802.447          43.000                  
                                                
  21113501.136     -269390.341        2834.898          41.000                  
                                                
  24980191.560     -640843.229        6830.848          40.000                  
                                                
  21580919.092     -445118.361        4793.677          39.000                  
                                                
  20189306.191                        3640.949          31.000                  
                                                
 18  5 18 18 49 41.0000000  0 14R 9R18R19R20G 1G 7G 8G11G13G17G18G19
                                G28G30
  20847181.652     -631949.735        6649.082          34.000                  
                                                
  20147700.638      -76174.237         781.671          32.000                  
                                                
  19322195.170     -444264.976        4762.234          33.000                  
                                                
  23165364.232     -694554.192        7601.265          34.000                  
                                                
  20830146.357     -396737.755        4558.371          30.000                  
                                                
  20446531.295                        1777.256          25.000                  
                                                
  23016003.878      -53474.045         595.307          33.000                  
                                                
  20482388.277                        3023.721          22.000                  
                                                
  24019925.883     -373958.196        4037.924          36.000                  
                                                
  22904758.310     -531413.388        5803.119          43.000                  
                                                
  21113231.421     -270807.773        2835.872          41.000                  
                                                
  24979541.610     -644258.600        6831.251          41.000                  
                                                
  21580463.004     -447515.204        4794.380          39.000                  
                                                
  20188959.067     -336568.573        3637.543          29.000                  
                                                
 18  5 18 18 49 41.5000000  0 14R 9R18R19R20G 1G 7G 8G11G13G17G18G19
                                G28G30
  20846559.899     -635274.292        6648.287          34.000                  
                                                
  20147627.071      -76564.439         779.003          32.000                  
                                                
  19321750.107     -446645.899        4761.019          33.000                  
                                                
  23164653.402     -698354.049        7599.073          34.000                  
                                                
  20829712.497     -399016.640        4554.265          30.000                  
                                                
  20446359.413                        1774.208          25.000                  
                                                
  23015947.627      -53771.350         594.503          33.000                  
                                                
  20482098.138                        3019.447          22.000                  
                                                
  24019542.164     -375976.617        4036.291          36.000                  
                                                
  22904206.175     -534314.473        5801.175          43.000                  
                                                
  21112961.742     -272225.153        2833.722          41.000                  
                                                
  24978891.624     -647674.077        6830.156          41.000                  
                                                
  21580006.897     -449912.216        4793.028          39.000                  
                                                
  20188612.301     -338387.721        3638.505          29.000                  
                                                
 18  5 18 18 49 42.0000000  0 14R 9R18R19R20G 1G 7G 8G11G13G17G18G19
                                G28G30
  20845938.808     -638598.179        6649.656          36.000                  
                                                
  20147553.773      -76953.987         780.893          34.000                  
                                                
  19321305.186     -449026.146        4762.609          33.000                  
                                                
  23163942.661     -702153.252        7599.399          33.000                  
                                                
  20829278.994     -401294.402        4556.719          31.000                  
                                                
  20446188.406                        1773.671          26.000                  
                                                
  23015891.286      -54067.923         595.118          33.000                  
                                                
  20481808.177                        3021.164          24.000                  
                                                
  24019158.623     -377994.294        4036.948          37.000                  
                                                
  22903654.165     -537214.956        5802.566          43.000                  
                                                
  21112692.170     -273641.826        2835.170          40.000                  
                                                
  24978241.746     -651088.943        6831.330          41.000                  
                                                
  21579550.879     -452308.634        4794.650          39.000                  
                                                
  20188265.910     -340206.094        3638.107          32.000                  
                                                
 18  5 18 18 49 42.5000000  0 14R 9R18R19R20G 1G 7G 8G11G13G17G18G19
                                G28G30
  20845316.984     -641922.075        6650.460          36.000                  
                                                
  20147480.617      -77343.520         781.783          34.000                  
                                                
  19320860.265     -451406.179        4762.199          33.000                  
                                                
  23163231.885     -705952.466        7601.021          33.000                  
                                                
  20828845.831     -403571.990        4557.531          31.000                  
                                                
  20446018.418                        1775.398          26.000                  
                                                
  23015834.766      -54364.664         596.180          33.000                  
                                                
  20481518.663                        3019.446          24.000                  
                                                
  24018775.064     -380011.957        4038.312          37.000                  
                                                
  22903102.156     -540115.469        5804.580          43.000                  
                                                
  21112422.651     -275058.391        2835.935          40.000                  
                                                
  24977591.867     -654503.867        6832.877          41.000                  
                                                
  21579094.862     -454705.119        4795.973          39.000                  
                                                
  20187919.626     -342024.444        3639.462          32.000                  
                                                
 18  5 18 18 49 43.0000000  0 14R 9R18R19R20G 1G 7G 8G11G13G17G18G19
                                G28G30
  20844695.017     -645246.018        6645.977          35.000                  
                                                
  20147407.568      -77732.959         777.454          36.000                  
                                                
  19320415.380     -453786.155        4758.154          34.000                  
                                                
  23162521.127     -709751.752        7597.410          34.000                  
                                                
  20828417.761     -405849.5641       4554.043          33.000                  
                                                
  20445849.038                        1775.303          27.000                  
                                                
  23015778.121      -54661.435         591.218          32.000                  
                                                
  20481230.114                        3018.775          25.000                  
                                                
  24018391.542     -382029.508        4033.222          37.000                  
                                                
  22902550.164     -543015.921        5799.417          43.000                  
                                                
  21112153.151     -276474.847        2831.419          41.000                  
                                                
  24976941.971     -657918.832        6828.504          41.000                  
                                                
  21578638.826     -457101.667        4791.686          38.000                  
                                                
  20187576.666     -343842.1941       3636.098          30.000                  
                                                
 18  5 18 18 49 43.5000000  0 14R 9R18R19R20G 1G 7G 8G11G13G17G18G19
                                G28G30
  20844073.050     -648569.440        6645.148          35.000                  
                                                
  20147334.627      -78121.789         775.553          36.000                  
                                                
  19319970.656     -456165.418        4757.064          34.000                  
                                                
  23161810.565     -713550.450        7595.823          34.000                  
                                                
  20827984.366     -408126.416        4552.083          33.000                  
                                                
  20445681.283                        1773.712          27.000                  
                                                
  23015721.691      -54957.751         591.024          32.000                  
                                                
  20480941.922                        3016.609          25.000                  
                                                
  24018008.072     -384046.460        4032.503          37.000                  
                                                
  22901998.279     -545915.860        5798.483          43.000                  
                                                
  21111883.793     -277890.638        2829.977          41.000                  
                                                
  24976292.182     -661333.269        6827.500          41.000                  
                                                
  21578182.880     -459497.714        4790.882          38.000                  
                                                
  20187229.793                        3633.339          30.000                  
                                                
 18  5 18 18 49 44.0000000  0 14R 9R18R19R20G 1G 7G 8G11G13G17G18G19
                                G28G30
  20843450.957     -651893.214        6645.990          35.000                  
                                                
  20147261.578      -78511.015         776.760          37.000                  
                                                
  19319525.878     -458544.945        4757.329          33.000                  
                                                
  23161099.896     -717349.547        7596.009          35.000                  
                                                
  20827554.008     -410403.654        4553.342          34.000                  
                                                
  20445514.118                        1772.600          28.000                  
                                                
  23015665.314      -55254.496         591.011          34.000                  
                                                
  20480654.535                        3015.066          27.000                  
                                                
  24017624.549     -386063.698        4032.257          36.000                  
                                                
  22901446.305     -548816.176        5798.696          43.000                  
                                                
  21111614.382     -279306.733        2830.132          41.000                  
                                                
  24975642.321     -664748.112        6827.676          41.000                  
                                                
  21577726.845     -461894.186        4790.194          38.000                  
                                                
  20186884.098                        3634.733          28.000                  
                                                
 18  5 18 18 49 44.5000000  0 14R 9R18R19R20G 1G 7G 8G11G13G17G18G19
                                G28G30
  20842828.972     -655216.240        6648.169          35.000                  
                                                
  20147188.744      -78899.332         778.636          37.000                  
                                                
  19319081.332     -460923.543        4758.617          33.000                  
                                                
  23160389.513     -721147.872        7598.428          34.000                  
                                                
  20827120.952     -412679.873        4554.220          34.000                  
                                                
  20445347.079     -154604.121        1775.205          28.000                  
                                                
  23015609.205      -55550.541         593.750          34.000                  
                                                
  20480366.754                        3014.297          27.000                  
                                                
  24017241.187     -388080.109        4034.183          36.000                  
                                                
  22900894.491     -551715.731        5800.704          43.000                  
                                                
  21111345.131     -280721.954        2831.981          41.000                  
                                                
  24974992.585     -668162.265        6829.848          41.000                  
                                                
  21577270.953     -464289.957        4792.736          38.000                  
                                                
  20186537.922                        3631.551          28.000                  
                                                
 18  5 18 18 49 45.0000000  0 14R 9R18R19R20G 1G 7G 8G11G13G17G18G19
                                G28G30
  20842206.970     -658539.140        6646.824          35.000                  
                                                
  20147115.910      -79287.483         778.295          37.000                  
                                                
  19318636.805     -463301.949        4758.016          33.000                  
                                                
  23159679.166     -724946.060        7597.773          34.000                  
                                                
  20826687.253     -414955.957        4553.037          33.000                  
                                                
  20445181.558     -155490.355        1772.566          31.000                  
                                                
  23015553.293      -55846.505         592.286          35.000                  
                                                
  20480078.884                        3017.277          27.000                  
                                                
  24016857.897     -390096.316        4034.094          36.000                  
                                                
  22900342.696     -554615.161        5800.364          43.000                  
                                                
  21111075.952     -282136.881        2831.083          41.000                  
                                                
  24974342.886     -671576.269        6829.809          40.000                  
                                                
  21576815.060     -466685.635        4792.731          38.000                  
                                                
  20186191.888                        3631.653          26.000                  
                                                
 18  5 18 18 49 45.5000000  0 14R 9R18R19R20G 1G 7G 8G11G13G17G18G19
                                G28G30
  20841584.788     -661862.497        6647.183          35.000                  
                                                
  20147042.897      -79676.061         778.346          37.000                  
                                                
  19318192.152     -465680.658        4757.993          33.000                  
                                                
  23158968.640     -728744.732        7597.863          34.000                  
                                                
  20826254.305     -417232.390        4553.974          33.000                  
                                                
  20445015.698     -156376.976        1773.858          31.000                  
                                                
  23015497.381      -56142.967         594.417          35.000                  
                                                
  20479790.836                        3018.087          27.000                  
                                                
  24016474.553     -392112.851        4034.028          36.000                  
                                                
  22899790.829     -557515.005        5800.216          43.000                  
                                                
  21110806.702     -283552.191        2831.130          41.000                  
                                                
  24973693.096     -674990.757        6829.821          40.000                  
                                                
  21576359.079     -469081.843        4793.676          38.000                  
                                                
  20185846.105                        3631.984          26.000                  
                                                
 18  5 18 18 49 46.0000000  0 14R 9R18R19R20G 1G 7G 8G11G13G17G18G19
                                G28G30
  20840962.607     -665185.922        6647.723          34.000                  
                                                
  20146969.795      -80064.583         777.886          34.000                  
                                                
  19317747.481     -468059.258        4757.828          32.000                  
                                                
  23158258.132     -732543.400        7597.526          33.000                  
                                                
  20825821.088     -419508.791        4554.250          32.000                  
                                                
  20444857.771     -157263.575        1774.175          34.000                  
                                                
  23015441.647      -56439.506         594.025          33.000                  
                                                
  20479502.733                        3014.895          28.000                  
                                                
  24016091.244     -394129.357        4034.387          35.000                  
                                                
  22899238.980     -560414.885        5800.666          42.000                  
                                                
  21110537.523     -284967.404        2830.901          40.000                  
                                                
  24973043.289     -678405.308        6830.088          38.000                  
                                                
  21575903.079     -471478.100        4793.323          37.000                  
                                                
  20185500.464                        3636.575          27.000                  
                                                
 18  5 18 18 49 46.5000000  0 14R 9R18R19R20G 1G 7G 8G11G13G17G18G19
                                G28G30
  20840340.354     -668509.476        6646.957          34.000                  
                                                
  20146896.764      -80453.158         776.821          34.000                  
                                                
  19317302.846     -470437.907        4757.201          32.000                  
                                                
  23157547.678     -736342.248        7597.396          33.000                  
                                                
  20825387.961     -421785.183        4552.645          32.000                  
                                                
  20444702.007     -158150.185        1773.152          34.000                  
                                                
  23015385.878      -56736.161         592.012          33.000                  
                                                
  20479215.006                        3015.996          28.000                  
                                                
  24015707.936     -396145.890        4032.031          35.000                  
                                                
  22898687.095     -563314.896        5800.013          42.000                  
                                                
  21110268.326     -286382.614        2829.276          40.000                  
                                                
  24972393.447     -681820.050        6829.275          38.000                  
                                                
  21575447.044     -473874.564        4792.422          37.000                  
                                                
  20185154.484                        3633.983          27.000                  
                                                
 18  5 18 18 49 47.0000000  0 14R 9R18R19R20G 1G 7G 8G11G13G17G18G19
                                G28G30
  20839718.154     -671832.939        6648.559          35.000                  
                                                
  20146823.769      -80841.652         778.556          34.000                  
                                                
  19316858.283     -472816.251        4757.204          33.000                  
                                                
  23156837.277     -740141.014        7599.880          32.000                  
                                                
  20824955.137     -424061.386        4554.186          33.000                  
                                                
  20444531.447     -159036.629        1774.247          35.000                  
                                                
  23015330.037      -57032.922         595.345          31.000                  
                                                
  20478928.495                        3016.819          28.000                  
                                                
  24015324.663     -398162.318        4034.348          35.000                  
                                                
  22898135.246     -566214.819        5801.760          42.000                  
                                                
  21109999.165     -287797.698        2831.710          39.000                  
                                                
  24971743.622     -685234.704        6831.238          38.000                  
                                                
  21574991.008     -476270.993        4794.715          36.000                  
                                                
  20184807.700                        3633.092          25.000                  
                                                
 18  5 18 18 49 47.5000000  0 14R 9R18R19R20G 1G 7G 8G11G13G17G18G19
                                G28G30
  20839095.937     -675156.159        6644.216          35.000                  
                                                
  20146750.846      -81229.741         773.031          34.000                  
                                                
  19316413.720     -475194.295        4753.164          33.000                  
                                                
  23156126.894     -743939.438        7594.102          32.000                  
                                                
  20824522.314     -426337.236        4549.785          33.000                  
                                                
  20444362.585     -159922.832        1770.656          35.000                  
                                                
  23015274.232      -57329.367         590.358          31.000                  
                                                
  20478643.162                        3015.044          28.000                  
                                                
  24014941.426     -400178.380        4029.778          35.000                  
                                                
  22897583.451     -569114.467        5797.140          42.000                  
                                                
  21109730.058     -289212.394        2827.383          39.000                  
                                                
  24971093.850     -688649.123        6825.861          38.000                  
                                                
  21574535.027     -478667.196        4789.706          36.000                  
                                                
  20184459.772                        3632.908          25.000                  
                                                
 18  5 18 18 49 48.0000000  0 14R 9R18R19R20G 1G 7G 8G11G13G17G18G19
                                G28G30
  20838473.916     -678478.308        6646.067          35.000                  
                                                
  20146678.155      -81616.824         776.346          34.000                  
                                                
  19315969.388     -477571.110        4754.822          34.000                  
                                                
  23155416.672     -747736.867        7596.530          33.000                  
                                                
  20824089.759     -428611.939        4551.106          33.000                  
                                                
  20444192.007     -160807.875        1772.132          34.000                  
                                                
  23015218.588      -57624.912         592.251          31.000                  
                                                
  20478357.990                        3012.950          27.000                  
                                                
  24014558.422     -402193.322        4032.009          36.000                  
                                                
  22897031.852     -572013.081        5799.063          43.000                  
                                                
  21109461.200     -290625.922        2828.365          40.000                  
                                                
  24970444.258     -692062.578        6828.382          38.000                  
                                                
  21574079.224     -481062.477        4792.447          36.000                  
                                                
  20184112.023                        3629.812          27.000                  
                                                
 18  5 18 18 49 48.5000000  0 14R 9R18R19R20G 1G 7G 8G11G13G17G18G19
                                G28G30
  20837851.788     -681801.396        6646.300          35.000                  
                                                
  20146605.446      -82004.729         775.771          34.000                  
                                                
  19315524.914     -479948.822        4755.778          34.000                  
                                                
  23154706.342     -751535.182        7596.139          33.000                  
                                                
  20823656.899     -430887.479        4551.082          33.000                  
                                                
  20444023.163     -161693.712        1772.177          34.000                  
                                                
  23015162.748      -57921.448         593.860          31.000                  
                                                
  20478073.069                        3015.418          27.000                  
                                                
  24014175.185     -404209.106        4031.940          36.000                  
                                                
  22896480.074     -574912.624        5799.570          43.000                  
                                                
  21109192.164     -292040.301        2828.990          40.000                  
                                                
  24969794.487     -695476.980        6829.246          38.000                  
                                                
  21573623.278     -483458.665        4792.692          36.000                  
                                                
  20183764.435                        3633.290          27.000                  
                                                
 18  5 18 18 49 49.0000000  0 14R 9R18R19R20G 1G 7G 8G11G13G17G18G19
                                G28G30
  20837229.661     -685124.802        6646.166          35.000                  
                                                
  20146532.683      -82392.892         775.438          35.000                  
                                                
  19315080.440     -482326.597        4754.457          33.000                  
                                                
  23153995.977     -755333.873        7596.913          34.000                  
                                                
  20823223.879     -433163.215        4551.269          32.000                  
                                                
  20443854.319     -162579.8021       1771.887          34.000                  
                                                
  23015106.925      -58218.227         592.574          31.000                  
                                                
  20477788.755     -305367.833        3012.968          28.000                  
                                                
  24013791.894     -406225.086        4031.566          35.000                  
                                                
  22895928.261     -577812.417        5799.037          44.000                  
                                                
  21108923.092     -293454.836        2828.401          40.000                  
                                                
  24969144.662     -698891.723        6829.210          38.000                  
                                                
  21573167.260     -485855.212        4792.026          37.000                  
                                                
  20183416.025                        3633.810          27.000                  
                                                
 18  5 18 18 49 49.5000000  0 14R 9R18R19R20G 1G 7G 8G11G13G17G18G19
                                G28G30
  20836607.622     -688448.180        6646.139          35.000                  
                                                
  20146459.974      -82780.998         774.861          35.000                  
                                                
  19314636.020     -484704.362        4755.595          33.000                  
                                                
  23153285.648     -759132.539        7596.884          34.000                  
                                                
  20822790.913     -435438.829        4550.379          32.000                  
                                                
  20443685.581     -163465.810        1771.259          34.000                  
                                                
  23015050.977      -58515.205         593.227          31.000                  
                                                
  20477504.834                        3015.916          28.000                  
                                                
  24013408.604     -408240.976        4031.032          35.000                  
                                                
  22895376.448     -580712.243        5799.087          44.000                  
                                                
  21108654.021     -294869.247        2828.452          40.000                  
                                                
  24968494.819     -702306.439        6828.493          38.000                  
                                                
  21572711.261     -488251.834        4792.700          37.000                  
                                                
  20183067.668                        3632.535          27.000                  
                                                
 18  5 18 18 49 50.0000000  0 14R 9R18R19R20G 1G 7G 8G11G13G17G18G19
                                G28G30
  20835985.566     -691771.329        6647.084          35.000                  
                                                
  20146387.318      -83168.799         775.853          36.000                  
                                                
  19314191.635     -487081.655        4754.836          33.000                  
                                                
  23152575.390     -762930.895        7596.418          35.000                  
                                                
  20822358.250     -437714.104        4550.503          34.000                  
                                                
  20443517.059     -164351.470        1771.159          35.000                  
                                                
  23014995.047      -58811.895         593.934          31.000                  
                                                
  20477220.734                        3012.311          28.000                  
                                                
  24013025.402     -410256.542        4030.985          35.000                  
                                                
  22894824.688     -583611.790        5799.423          43.000                  
                                                
  21108385.038     -296283.282        2828.009          39.000                  
                                                
  24967845.012     -705720.964        6829.116          37.000                  
                                                
  21572255.297     -490648.206        4792.651          36.000                  
                                                
  20182718.972                        3634.517          25.000                  
                                                
 18  5 18 18 49 50.5000000  0 14R 9R18R19R20G 1G 7G 8G11G13G17G18G19
                                G28G30
  20835363.509     -695094.522        6646.435          35.000                  
                                                
  20146314.735      -83556.558         775.602          36.000                  
                                                
  19313738.423     -489458.850        4752.046          33.000                  
                                                
  23151865.132     -766729.351        7597.197          35.000                  
                                                
  20821925.695     -439989.269        4549.205          34.000                  
                                                
  20443348.715     -165237.082        1770.833          35.000                  
                                                
  23014939.010      -59108.677         593.076          31.000                  
                                                
  20476935.652                        3014.003          28.000                  
                                                
  24012642.148     -412272.057        4030.572          35.000                  
                                                
  22894272.928     -586511.357        5798.810          43.000                  
                                                
  21108116.056     -297697.281        2827.839          39.000                  
                                                
  24967195.223     -709135.516        6828.205          37.000                  
                                                
  21571799.333     -493044.658        4792.304          36.000                  
                                                
  20182370.598                        3635.409          25.000                  
                                                
 18  5 18 18 49 51.0000000  0 14R 9R18R19R20G 1G 7G 8G11G13G17G18G19
                                G28G30
  20834741.471     -698417.595        6645.828          34.000                  
                                                
  20146242.186      -83944.147         775.176          36.000                  
                                                
  19313293.627     -491835.873        4754.488          32.000                  
                                                
  23151154.945     -770527.664        7597.059          34.000                  
                                                
  20821493.318     -442264.263        4549.506          34.000                  
                                                
  20443180.549     -166122.497        1770.461          36.000                  
                                                
  23014882.972      -59405.366         593.091          32.000                  
                                                
  20476649.551                        3011.990          28.000                  
                                                
  24012258.946     -414287.355        4030.178          36.000                  
                                                
  22893721.186     -589410.792        5798.675          44.000                  
                                                
  21107847.127     -299111.013        2827.458          39.000                  
                                                
  24966545.416     -712550.045        6829.547          37.000                  
                                                
  21571343.351     -495441.087        4792.992          36.000                  
                                                
  20182023.242                        3629.525          23.000                  
                                                
 18  5 18 18 49 51.5000000  0 14R 9R18R19R20G 1G 7G 8G11G13G17G18G19
                                G28G30
  20834119.450     -701740.506        6645.060          34.000                  
                                                
  20146169.638      -84331.462         772.934          36.000                  
                                                
  19312849.243     -494212.481        4752.765          32.000                  
                                                
  23150444.813     -774325.699        7595.412          34.000                  
                                                
  20821060.941     -444538.990        4548.779          34.000                  
                                                
  20443012.419     -167007.667        1769.276          36.000                  
                                                
  23014826.917      -59702.008         592.502          32.000                  
                                                
  20476363.253                        3013.151          28.000                  
                                                
  24011875.781     -416302.402        4029.184          36.000                  
                                                
  22893169.480     -592310.047        5797.933          44.000                  
                                                
  21107578.252     -300524.457        2826.154          39.000                  
                                                
  24965895.644     -715964.369        6828.018          37.000                  
                                                
  21570887.423     -497837.376        4791.775          36.000                  
                                                
  20181676.279                        3626.779          23.000                  
                                                
 18  5 18 18 49 52.0000000  0 14R 9R18R19R20G 1G 7G 8G11G13G17G18G19
                                G28G30
  20833497.411     -705063.517        6645.643          34.000                  
                                                
  20146097.090      -84718.854         774.259          35.000                  
                                                
  19312403.446     -496589.130        4753.387          33.000                  
                                                
  23149734.608     -778123.941        7595.450          34.000                  
                                                
  20820628.582     -446813.679        4548.000          34.000                  
                                                
  20442844.379     -167892.881        1769.919          38.000                  
                                                
  23014770.773      -59998.757         592.003          34.000                  
                                                
  20476076.330                        3013.451          28.000                  
                                                
  24011492.580     -418317.464        4029.099          36.000                  
                                                
  22892617.756     -595209.394        5797.626          43.000                  
                                                
  21107309.359     -301937.906        2826.062          40.000                  
                                                
  24965245.837     -719378.806        6827.750          36.000                  
                                                
  21570431.459     -500233.788        4791.899          38.000                  
                                                
  20181329.995                        3629.883          25.000                  
                                                
 18  5 18 18 49 52.5000000  0 14R 9R18R19R20G 1G 7G 8G11G13G17G18G19
                                G28G30
  20832875.391     -708386.084        6644.641          34.000                  
                                                
  20146024.649      -85105.724         773.281          35.000                  
                                                
  19311944.570     -498965.161        4751.632          33.000                  
                                                
  23149024.457     -781921.722        7594.514          34.000                  
                                                
  20820196.170     -449087.909        4548.750          34.000                  
                                                
  20442676.410     -168777.551        1768.679          38.000                  
                                                
  23014714.664      -60295.123         592.182          34.000                  
                                                
  20475788.907     -315916.815        3010.417          28.000                  
                                                
  24011109.432     -420332.048        4028.350          36.000                  
                                                
  22892066.104     -598108.351        5797.158          43.000                  
                                                
  21107040.573     -303350.860        2825.698          40.000                  
                                                
  24964596.120     -722792.919        6828.117          36.000                  
                                                
  21569975.567     -502629.888        4791.825          38.000                  
                                                
  20180984.569                        3629.314          25.000                  
                                                
 18  5 18 18 49 53.0000000  0 14R 9R18R19R20G 1G 7G 8G11G13G17G18G19
                                G28G30
  20832253.424     -711708.501        6643.979          33.000                  
                                                
  20145952.208      -85492.521         772.102          34.000                  
                                                
  19311498.738     -501341.056        4751.018          31.000                  
                                                
  23148314.343     -785719.454        7594.799          33.000                  
                                                
  20819763.775     -451361.838        4547.455          33.000                  
                                                
  20442508.549     -169662.075        1768.300          39.000                  
                                                
  23014658.573      -60591.437         592.185          35.000                  
                                                
  20475501.663                        3010.824          30.000                  
                                                
  24010726.303     -422346.446        4027.358          36.000                  
                                                
  22891514.469     -601007.237        5797.085          43.000                  
                                                
  21106771.823     -304763.605        2825.066          41.000                  
                                                
  24963946.402     -726206.912        6826.294          35.000                  
                                                
  21569519.692     -505025.932        4791.629          37.000                  
                                                
  20180640.144                        3630.299          28.000                  
                                                
 18  5 18 18 49 53.5000000  0 14R 9R18R19R20G 1G 7G 8G11G13G17G18G19
                                G28G30
  20831631.349     -715031.765        6645.955          33.000                  
                                                
  20145879.695      -85879.980         773.923          34.000                  
                                                
  19311057.212     -503717.539        4751.525          31.000                  
                                                
  23147604.138     -789517.848        7595.194          33.000                  
                                                
  20819331.220     -453636.466        4548.887          33.000                  
                                                
  20442340.526     -170547.202        1769.037          39.000                  
                                                
  23014602.339      -60888.526         592.690          35.000                  
                                                
  20475214.472     -318929.466        3009.923          30.000                  
                                                
  24010343.030     -424361.531        4029.480          36.000                  
                                                
  22890962.710     -603906.783        5797.959          43.000                  
                                                
  21106502.983     -306176.892        2825.342          41.000                  
                                                
  24963296.524     -729621.727        6828.386          35.000                  
                                                
  21569063.675     -507422.704        4792.151          37.000                  
                                                
  20180296.165                        3630.396          28.000                  
                                                
 18  5 18 18 49 54.0000000  0 14R 9R18R19R20G 1G 7G 8G11G13G17G18G19
                                G28G30
  20831009.597     -718353.148        6641.116          34.000                  
                                                
  20145807.576      -86265.369         766.805          34.000                  
                                                
  19310613.595     -506092.658        4750.444          33.000                  
                                                
  23146894.291     -793314.425        7590.019          35.000                  
                                                
  20818899.058     -455909.211        4542.724          34.000                  
                                                
  20442172.790     -171430.508        1763.694          40.000                  
                                                
  23014546.338      -61184.029         589.162          33.000                  
                                                
  20474927.656     -320434.212        3006.125          31.000                  
                                                
  24009960.097     -426374.659        4023.295          36.000                  
                                                
  22890411.307     -606804.557        5792.941          45.000                  
                                                
  21106234.484     -307588.289        2820.039          39.000                  
                                                
  24962647.002     -733034.707        6823.154          37.000                  
                                                
  21568607.961     -509817.754        4787.144          38.000                  
                                                
  20179952.133     -383796.573        3627.220          30.000                  
                                                
 18  5 18 18 49 54.5000000  0 14R 9R18R19R20G 1G 7G 8G11G13G17G18G19
                                G28G30
  20830387.487     -721674.630        6640.982          34.000                  
                                                
  20145735.492      -86650.613         771.181          34.000                  
                                                
  19310169.747                        4749.129          32.000                  
                                                
  23146184.444     -797110.666        7592.572          35.000                  
                                                
  20818466.931     -458181.405        4544.366          34.000                  
                                                
  20442005.161     -172313.321        1765.655          40.000                  
                                                
  23014490.372      -61479.122         590.372          33.000                  
                                                
  20474641.019     -321938.549        3008.909          32.000                  
                                                
  24009577.217     -428387.382        4026.119          36.000                  
                                                
  22889859.977     -609701.910        5794.826          45.000                  
                                                
  21105966.037     -308999.262        2821.764          39.000                  
                                                
  24961997.535     -736447.382        6825.735          37.000                  
                                                
  21568152.319     -512212.475        4789.484          38.000                  
                                                
  20179608.029     -385609.238        3627.532          30.000                  
                                                
 18  5 18 18 49 55.0000000  0 14R 9R18R19R20G 1G 7G 8G11G13G17G18G19
                                G28G30
  20829764.805     -724995.526        6643.047          30.000                  
                                                
  20145663.355      -87035.957         770.289          33.000                  
                                                
  19309726.631                        4749.851          28.000                  
                                                
  23145474.544     -800907.241        7594.087          36.000                  
                                                
  20818034.751     -460453.894        4545.829          35.000                  
                                                
  20441837.531     -173196.466        1767.762          37.000                  
                                                
  23014434.228      -61774.644         591.672          33.000                  
                                                
  20474358.349     -323442.5791       3008.904          32.000                  
                                                
  24009194.338     -430400.338        4026.846          36.000                  
                                                
  22889308.574     -612599.599        5796.044          45.000                  
                                                
  21105697.537     -310410.455        2823.468          39.000                  
                                                
  24961348.014     -739860.404        6826.564          38.000                  
                                                
  21567696.587     -514607.626        4791.273          39.000                  
                                                
  20179263.854                        3625.293          30.000                  
                                                
 18  5 18 18 49 55.5000000  0 14R 9R18R19R20G 1G 7G 8G11G13G17G18G19
                                G28G30
  20829141.962     -728316.550        6644.591          30.000                  
                                                
  20145588.341                         766.917          33.000                  
                                                
  19309283.247                        4744.031          28.000                  
                                                
  23144764.661     -804703.395        7594.493          36.000                  
                                                
  20817602.517     -462725.815        4545.874          35.000                  
                                                
  20441669.938     -174079.031        1767.131          38.000                  
                                                
  23014378.155      -62069.692         592.335          33.000                  
                                                
  20474073.445     -324946.551        3009.816          32.000                  
                                                
  24008811.529     -432412.813        4026.804          36.000                  
                                                
  22888757.279     -615496.870        5796.578          45.000                  
                                                
  21105429.145     -311821.070        2823.128          39.000                  
                                                
  24960698.564     -743273.021        6827.236          38.000                  
                                                
  21567240.927     -517002.356        4791.177          39.000                  
                                                
  20178920.429     -389235.159        3628.753          30.000                  
                                                
 18  5 18 18 49 56.0000000  0 14R 9R18R19R20G 1G 7G 8G11G13G17G18G19
                                G28G30
  20828513.115     -731639.152        6644.025          31.000                  
                                                
  20145516.740      -87805.891         771.021          30.000                  
                                                
  19308839.791                        4749.796          26.000                  
                                                
  23144054.510     -808501.172        7594.504          37.000                  
                                                
  20817169.908     -464999.271        4545.219          32.000                  
                                                
  20441502.076     -174963.115        1766.971          35.000                  
                                                
  23014321.724      -62366.432         592.717          34.000                  
                                                
  20473788.774     -326452.152        3010.990          34.000                  
                                                
  24008428.489     -434426.811        4026.893          36.000                  
                                                
  22888205.662     -618395.774        5797.146          45.000                  
                                                
  21105160.466     -313233.202        2823.223          39.000                  
                                                
  24960048.793     -746687.294        6827.605          38.000                  
                                                
  21566784.945     -519398.801        4792.024          37.000                  
                                                
  20178576.790     -391049.693        3629.411          31.000                  
                                                
 18  5 18 18 49 56.5000000  0 14R 9R18R19R20G 1G 7G 8G11G13G17G18G19
                                G28G30
  20827842.527                        6645.332          31.000                  
                                                
  20145445.746                         773.376          30.000                  
                                                
  19308396.121                        4747.719          26.000                  
                                                
  23143344.449     -812298.449        7593.941          37.000                  
                                                
  20816735.047     -467272.214        4547.080          32.000                  
                                                
  20441334.322     -175846.674        1766.980          35.000                  
                                                
  23014265.383      -62662.768         592.511          34.000                  
                                                
  20473503.995     -327957.065        3008.985          34.000                  
                                                
  24008045.538     -436440.248        4026.583          36.000                  
                                                
  22887654.135     -621294.173        5796.327          45.000                  
                                                
  21104891.912     -314644.759        2822.344          39.000                  
                                                
  24959399.111     -750101.119        6826.835          38.000                  
                                                
  21566329.035     -521794.773        4790.946          37.000                  
                                                
  20178233.758     -392863.458        3626.115          31.000                  
                                                
 18  5 18 18 49 57.0000000  0 14R 9R18R19R20G 1G 7G 8G11G13G17G18G19
                                G28G30
  20827219.684     -738284.009        6642.900          30.000                  
                                                
  20145374.985                         772.030          31.000                  
                                                
  19307952.880                        4748.309          23.000                  
                                                
  23142634.406     -816095.829        7594.176          37.000                  
                                                
  20816301.045     -469545.082        4544.841          32.000                  
                                                
  20441166.567     -176730.297        1766.637          36.000                  
                                                
  23014208.953      -62959.244         592.115          34.000                  
                                                
  20473219.234     -329462.040        3008.847          34.000                  
                                                
  24007662.587     -438453.732        4026.458          37.000                  
                                                
  22887102.608     -624192.687        5796.469          45.000                  
                                                
  21104623.341     -316056.324        2822.346          39.000                  
                                                
  24958749.393     -753515.131        6827.773          38.000                  
                                                
  21565873.107     -524190.931        4791.721          37.000                  
                                                
  20177890.512                        3627.374          29.000                  
                                                
 18  5 18 18 49 57.5000000  0 14R 9R18R19R20G 1G 7G 8G11G13G17G18G19
                                G28G30
  20826598.110     -741606.106        6644.569          30.000                  
                                                
  20145304.563                         771.794          31.000                  
                                                
  19307510.014                        4749.748          23.000                  
                                                
  23141924.559     -819893.012        7594.682          37.000                  
                                                
  20815867.542     -471817.630        4545.703          32.000                  
                                                
  20440998.813     -177613.590        1766.708          36.000                  
                                                
  23014152.522      -63255.576         593.276          34.000                  
                                                
  20472934.188     -330966.685        3009.172          34.000                  
                                                
  24007279.707     -440466.931        4027.370          37.000                  
                                                
  22886551.098     -627091.007        5797.146          45.000                  
                                                
  21104354.805     -317467.597        2823.249          39.000                  
                                                
  24958099.729     -756928.923        6827.895          38.000                  
                                                
  21565417.179     -526586.988        4792.762          37.000                  
                                                
  20177546.641                        3628.219          29.000                  
                                                
 18  5 18 18 49 58.0000000  0 14R 9R18R19R20G 1G 7G 8G11G13G17G18G19
                                G28G30
  20825977.287     -744928.579        6641.826          31.000                  
                                                
  20145234.087      -89349.535         769.735          29.000                  
                                                
  19307066.988                        4745.408          25.000                  
                                                
  23141214.640     -823690.643        7592.946          36.000                  
                                                
  20815423.908     -474090.413        4542.231          34.000                  
                                                
  20440830.916     -178497.226        1764.730          36.000                  
                                                
  23014093.090                         594.232          32.000                  
                                                
  20472658.898                        3011.080          32.000                  
                                                
  24006896.792     -442480.361        4024.714          37.000                  
                                                
  22885999.553     -629989.629        5794.548          46.000                  
                                                
  21104086.252     -318879.037        2820.268          39.000                  
                                                
  24957449.976     -760343.096        6825.503          37.000                  
                                                
  21564961.197     -528983.441        4790.846          38.000                  
                                                
  20177202.036                        3630.318          28.000                  
                                                
 18  5 18 18 49 58.5000000  0 14R 9R18R19R20G 1G 7G 8G11G13G17G18G19
                                G28G30
  20825368.364     -748249.954        6643.759          31.000                  
                                                
  20145164.077                         767.945          29.000                  
                                                
  19306623.496     -527458.710        4747.539          25.000                  
                                                
  23140504.704     -827487.158        7593.896          36.000                  
                                                
  20814997.446     -476362.161        4544.536          34.000                  
                                                
  20440663.233     -179379.707        1766.086          36.000                  
                                                
  23014036.016                         592.272          32.000                  
                                                
  20472374.566                        3009.318          32.000                  
                                                
  24006514.038     -444492.713        4026.048          37.000                  
                                                
  22885448.186     -632887.272        5796.346          46.000                  
                                                
  21103817.895     -320289.464        2822.233          39.000                  
                                                
  24956800.419     -763756.341        6827.763          37.000                  
                                                
  21564505.430     -531378.864        4791.641          38.000                  
                                                
  20176857.254                        3626.647          28.000                  
                                                
 18  5 18 18 49 59.0000000  0 14R 9R18R19R20G 1G 7G 8G11G13G17G18G19
                                G28G30
  20824757.744     -751571.748        6641.813          31.000                  
                                                
  20145093.869      -90119.893         769.269          30.000                  
                                                
  19306179.951     -529832.253        4744.976          29.000                  
                                                
  23139794.714     -831284.064        7592.454          35.000                  
                                                
  20814568.482     -478634.197        4543.067          35.000                  
                                                
  20440495.389     -180262.567        1764.997          35.000                  
                                                
  23013978.567                         593.108          19.000                  
                                                
  20472091.610                        3007.791          27.000                  
                                                
  24006131.194     -446505.363        4023.772          37.000                  
                                                
  22884896.748     -635785.295        5795.008          46.000                  
                                                
  21103549.466     -321700.134        2820.663          36.000                  
                                                
  24956150.755     -767169.961        6826.345          36.000                  
                                                
  21564049.555     -533774.739        4790.120          37.000                  
                                                
  20176512.507                        3625.686          23.000                  
                                                
 18  5 18 18 49 59.5000000  0 14R 9R18R19R20G 1G 7G 8G11G13G17G18G19
                                G28G30
  20824148.124     -754893.397        6643.344          31.000                  
                                                
  20145022.768      -90505.070         770.092          30.000                  
                                                
  19305736.174     -532205.639        4746.328          29.000                  
                                                
  23139084.742     -835080.861        7593.544          35.000                  
                                                
  20814139.482     -480905.972        4542.728          35.000                  
                                                
  20440327.599     -181145.149        1764.961          35.000                  
                                                
  23013921.333                         590.423          19.000                  
                                                
  20471809.243                        3006.891          27.000                  
                                                
  24005748.368     -448517.849        4024.657          37.000                  
                                                
  22884345.328     -638683.175        5795.543          46.000                  
                                                
  21103281.056     -323110.483        2819.704          36.000                  
                                                
  24955501.127     -770583.490        6826.659          36.000                  
                                                
  21563593.717     -536170.551        4791.267          37.000                  
                                                
  20176167.920                        3629.071          23.000                  
                                                
 18  5 18 18 50  0.0000000  0 14R 9R18R19R20G 1G 7G 8G11G13G17G18G19
                                G28G30
  20823530.892                        6645.907          32.000                  
                                                
  20144956.903      -90890.409         771.675          34.000                  
                                                
  19305292.057                        4745.843          30.000                  
                                                
  23138374.734     -838877.813        7593.454          35.000                  
                                                
  20813709.268     -483177.817        4543.446          36.000                  
                                                
  20440159.755     -182027.829        1765.082          35.000                  
                                                
  23013864.420                         592.508          22.000                  
                                                
  20471525.751                        3007.739          29.000                  
                                                
  24005365.488     -450530.380        4024.897          38.000                  
                                                
  22883793.872     -641581.204        5796.138          47.000                  
                                                
  21103012.645     -324520.916        2820.445          36.000                  
                                                
  24954851.480     -773997.195        6827.596          37.000                  
                                                
  21563137.842     -538566.576        4791.950          38.000                  
                                                
  20175824.513                        3625.278          24.000                  
                                                
 18  5 18 18 50  0.5000000  0 14R 9R18R19R20G 1G 7G 8G11G13G17G18G19
                                G28G30
  20822909.926                        6642.915          32.000                  
                                                
  20144893.557      -91274.893         764.536          34.000                  
                                                
  19304848.548                        4746.901          30.000                  
                                                
  23137664.887     -842674.042        7587.951          35.000                  
                                                
  20813277.391     -485448.847        4537.414          36.000                  
                                                
  20439991.965     -182909.725        1759.369          35.000                  
                                                
  23013807.775                         590.015          22.000                  
                                                
  20471241.026     -339992.608        3000.250          29.000                  
                                                
  24004982.734     -452542.093        4018.825          38.000                  
                                                
  22883242.577     -644478.515        5790.407          47.000                  
                                                
  21102744.377     -325930.554        2815.183          36.000                  
                                                
  24954201.959     -777410.225        6822.054          37.000                  
                                                
  21562682.093     -540961.925        4786.637          38.000                  
                                                
  20175481.857                        3622.583          24.000                  
                                                
 18  5 18 18 50  1.0000000  0 14R 9R18R19R20G 1G 7G 8G11G13G17G18G19
                                G28G30
  20822289.156     -764858.297        6643.492          29.000                  
                                                
  20144819.884      -91659.088         768.620          33.000                  
                                                
  19304405.718                        4744.937          28.000                  
                                                
  23136955.040     -846470.105        7593.539          36.000                  
                                                
  20812845.372     -487719.5831       4541.711          37.000                  
                                                
  20439824.175     -183791.319        1763.211          34.000                  
                                                
  23013751.184                         589.959          29.000                  
                                                
  20470955.873     -341495.467        3006.937          31.000                  
                                                
  24004599.997     -454553.589        4023.809          38.000                  
                                                
  22882691.300     -647375.617        5795.006          48.000                  
                                                
  21102476.163     -327339.879        2819.136          41.000                  
                                                
  24953552.456     -780823.063        6826.045          40.000                  
                                                
  21562226.361     -543357.142        4791.419          40.000                  
                                                
  20175139.397                        3623.240          26.000                  
                                                
 18  5 18 18 50  1.5000000  0 14R 9R18R19R20G 1G 7G 8G11G13G17G18G19
                                G28G30
  20821667.761     -768179.247        6642.274          29.000                  
                                                
  20144747.139      -92043.283         768.990          33.000                  
                                                
  19303963.138                        4745.666          28.000                  
                                                
  23136245.140     -850266.200        7592.446          36.000                  
                                                
  20812413.442     -489990.267        4541.239          37.000                  
                                                
  20439656.349     -184672.966        1763.371          34.000                  
                                                
  23013694.647      -65623.896         592.124          29.000                  
                                                
  20470669.664                        3006.360          31.000                  
                                                
  24004217.279     -456565.039        4023.138          38.000                  
                                                
  22882140.023     -650272.804        5794.654          48.000                  
                                                
  21102207.967     -328749.190        2818.948          41.000                  
                                                
  24952902.953     -784236.028        6825.761          40.000                  
                                                
  21561770.594     -545752.533        4791.776          40.000                  
                                                
  20174796.794                        3622.387          26.000                  
                                                
 18  5 18 18 50  2.0000000  0 14R 9R18R19R20G 1G 7G 8G11G13G17G18G19
                                G28G30
  20821046.222                        6641.973          30.000                  
                                                
  20144677.110      -92427.340         769.704          31.000                  
                                                
  19303520.701     -544068.792        4743.920          29.000                  
                                                
  23135535.275     -854062.218        7593.988          36.000                  
                                                
  20811981.798     -492260.793        4542.398          37.000                  
                                                
  20439488.505     -185554.448        1765.172          35.000                  
                                                
  23013637.912      -65919.628         593.067          31.000                  
                                                
  20470382.599                        3005.684          30.000                  
                                                
  24003834.578     -458576.335        4024.259          37.000                  
                                                
  22881588.745     -653169.894        5795.964          47.000                  
                                                
  21101939.807     -330158.299        2820.145          40.000                  
                                                
  24952253.450     -787648.955        6827.522          40.000                  
                                                
  21561314.862     -548147.814        4792.802          39.000                  
                                                
  20174453.370                        3620.286          25.000                  
                                                
 18  5 18 18 50  2.5000000  0 14R 9R18R19R20G 1G 7G 8G11G13G17G18G19
                                G28G30
  20820424.345     -774822.506        6645.014          30.000                  
                                                
  20144605.384      -92812.2331        771.021          31.000                  
                                                
  19303077.853     -546441.953        4743.778          29.000                  
                                                
  23134825.160     -857859.610        7595.450          36.000                  
                                                
  20811549.939     -494532.547        4543.649          37.000                  
                                                
  20439320.358     -186437.085        1765.040          35.000                  
                                                
  23013582.393      -66216.705         594.057          31.000                  
                                                
  20470095.140                        3009.074          30.000                  
                                                
  24003451.645     -460588.867        4024.697          37.000                  
                                                
  22881037.236     -656068.297        5796.527          47.000                  
                                                
  21101671.396     -331568.614        2820.305          40.000                  
                                                
  24951603.696     -791063.242        6828.562          40.000                  
                                                
  21560858.863     -550544.446        4792.549          39.000                  
                                                
  20174109.409                        3629.092          25.000                  
                                                
 18  5 18 18 50  3.0000000  0 14R 9R18R19R20G 1G 7G 8G11G13G17G18G19
                                G28G30
  20819802.574     -778143.611        6642.702          31.000                  
                                                
  20144534.265      -93196.368         769.182          33.000                  
                                                
  19302635.416                        4744.137          29.000                  
                                                
  23134115.277     -861655.804        7592.511          36.000                  
                                                
  20811118.438     -496803.074        4541.390          37.000                  
                                                
  20439152.317     -187318.584        1763.319          34.000                  
                                                
  23013525.623      -66512.734         593.237          32.000                  
                                                
  20469807.716     -347507.709        3005.808          29.000                  
                                                
  24003068.908     -462600.221        4023.010          37.000                  
                                                
  22880485.923     -658965.604        5795.244          47.000                  
                                                
  21101403.218     -332977.729        2819.010          40.000                  
                                                
  24950954.139     -794476.434        6827.214          39.000                  
                                                
  21560403.042     -552940.094        4791.182          40.000                  
                                                
  20173764.340                        3628.906          22.000                  
                                                
 18  5 18 18 50  3.5000000  0 14R 9R18R19R20G 1G 7G 8G11G13G17G18G19
                                G28G30
  20819193.258     -781464.004        6641.007          31.000                  
                                                
  20144463.361      -93579.722         766.684          33.000                  
                                                
  19302192.711     -551184.271        4738.343          29.000                  
                                                
  23133405.591     -865451.259        7590.893          36.000                  
                                                
  20810686.973     -499072.743        4539.314          37.000                  
                                                
  20438984.438     -188199.202        1760.077          35.000                  
                                                
  23013469.175      -66808.058         590.925          32.000                  
                                                
  20469520.865                        3004.418          29.000                  
                                                
  24002686.350     -464610.725        4020.689          37.000                  
                                                
  22879934.771     -661862.136        5792.889          47.000                  
                                                
  21101135.218     -334385.954        2816.233          40.000                  
                                                
  24950304.725     -797888.872        6824.580          39.000                  
                                                
  21559947.382     -555335.024        4789.985          40.000                  
                                                
  20173419.111                        3624.615          22.000                  
                                                
 18  5 18 18 50  4.0000000  0 14R 9R18R19R20G 1G 7G 8G11G13G17G18G19
                                G28G30
  20818569.862     -784784.535        6639.351          34.000                  
                                                
  20144392.421      -93963.156         765.209          35.000                  
                                                
  19301749.738     -553555.372        4739.657          29.000                  
                                                
  23132695.852     -869246.873        7588.840          37.000                  
                                                
  20810255.525     -501342.466        4537.379          37.000                  
                                                
  20438816.451     -189079.990        1760.646          34.000                  
                                                
  23013416.319      -67103.544         589.510          34.000                  
                                                
  20469234.121     -350511.979        3002.152          30.000                  
                                                
  24002303.756     -466621.299        4019.094          36.000                  
                                                
  22879383.583     -664758.808        5791.621          48.000                  
                                                
  21100867.201     -335794.225        2814.493          40.000                  
                                                
  24949655.276     -801301.526        6823.884          39.000                  
                                                
  21559491.650     -557730.160        4788.838          40.000                  
                                                
  20173072.988                        3623.701          21.000                  
                                                
 18  5 18 18 50  4.5000000  0 14R 9R18R19R20G 1G 7G 8G11G13G17G18G19
                                G28G30
  20817949.020     -788104.0261       6641.293          34.000                  
                                                
  20144321.391      -94346.004         767.195          35.000                  
                                                
  19301306.837     -555925.708        4742.068          29.000                  
                                                
  23131986.255     -873041.937        7591.085          37.000                  
                                                
  20809824.078     -503611.536        4538.821          37.000                  
                                                
  20438648.572     -189960.084        1760.790          34.000                  
                                                
  23013362.193      -67398.520         590.851          34.000                  
                                                
  20468947.555     -352013.309        3004.211          30.000                  
                                                
  24001921.270     -468631.254        4021.323          36.000                  
                                                
  22878832.502     -667654.931        5793.570          48.000                  
                                                
  21100599.291     -337201.860        2816.766          40.000                  
                                                
  24949005.933     -804713.651        6825.935          39.000                  
                                                
  21559036.044     -560124.751        4790.571          40.000                  
                                                
  20172726.257                        3627.427          21.000                  
                                                
 18  5 18 18 50  5.0000000  0 14R 9R18R19R20G 1G 7G 8G11G13G17G18G19
                                G28G30
  20817327.286     -791424.437        6640.214          34.000                  
                                                
  20144250.076      -94729.261         766.934          34.000                  
                                                
  19300863.524                        4741.598          29.000                  
                                                
  23131276.569     -876837.438        7590.578          37.000                  
                                                
  20809392.487     -505880.968        4538.901          37.000                  
                                                
  20438480.549     -190840.582        1760.741          33.000                  
                                                
  23013308.104      -67694.023         590.805          35.000                  
                                                
  20468660.972     -353514.941        3003.697          31.000                  
                                                
  24001538.694     -470641.535        4020.417          35.000                  
                                                
  22878281.350     -670551.463        5793.323          48.000                  
                                                
  21100331.327     -338609.749        2815.579          39.000                  
                                                
  24948356.484     -808126.222        6825.424          39.000                  
                                                
  21558580.348     -562519.835        4789.973          39.000                  
                                                
  20172381.957                        3619.142          23.000                  
                                                
 18  5 18 18 50  5.5000000  0 14R 9R18R19R20G 1G 7G 8G11G13G17G18G19
                                G28G30
  20816705.998     -794743.454        6638.839          34.000                  
                                                
  20144179.243      -95110.965         763.487          34.000                  
                                                
  19300420.283                        4736.252          29.000                  
                                                
  23130567.168     -880631.540        7588.922          37.000                  
                                                
  20808961.111     -508148.880        4536.563          37.000                  
                                                
  20438297.088                        1757.446          33.000                  
                                                
  23013252.513      -67988.208         589.587          35.000                  
                                                
  20468373.995                        3000.759          31.000                  
                                                
  24001156.404     -472650.343        4017.944          35.000                  
                                                
  22877730.448     -673446.599        5790.882          48.000                  
                                                
  21100063.631     -340016.236        2813.869          39.000                  
                                                
  24947707.302     -811537.423        6822.862          39.000                  
                                                
  21558124.884     -564913.628        4788.489          39.000                  
                                                
  20172039.926                        3616.428          23.000                  
                                                
 18  5 18 18 50  6.0000000  0 14R 9R18R19R20G 1G 7G 8G11G13G17G18G19
                                G28G30
  20816084.853     -798063.025        6640.700          36.000                  
                                                
  20144116.541      -95493.776         768.700          32.000                  
                                                
  19299976.809                        4740.759          26.000                  
                                                
  23129857.679     -884426.146        7590.347          37.000                  
                                                
  20808529.753     -510417.199        4537.882          37.000                  
                                                
  20438129.298     -192598.390        1760.907          31.000                  
                                                
  23013196.405      -68282.845         590.601          35.000                  
                                                
  20468086.840     -356515.600        3002.391          30.000                  
                                                
  24000773.971     -474659.573        4019.544          34.000                  
                                                
  22877179.475     -676342.261        5792.549          47.000                  
                                                
  21099795.864     -341423.051        2815.056          39.000                  
                                                
  24947058.031     -814949.185        6824.448          38.000                  
                                                
  21557669.349     -567307.937        4790.049          40.000                  
                                                
  20171697.395                        3618.427          27.000                  
                                                
 18  5 18 18 50  6.5000000  0 14R 9R18R19R20G 1G 7G 8G11G13G17G18G19
                                G28G30
  20815463.243     -801382.771        6638.700          36.000                  
                                                
  20144047.120      -95876.180         764.267          32.000                  
                                                
  19299533.300                        4738.925          26.000                  
                                                
  23129148.118     -888220.945        7588.734          37.000                  
                                                
  20808098.395     -512685.619        4536.218          37.000                  
                                                
  20437960.329                        1759.802          31.000                  
                                                
  23013140.010      -68577.786         588.651          35.000                  
                                                
  20467799.220                        3000.585          30.000                  
                                                
  24000391.521     -476668.972        4018.322          34.000                  
                                                
  22876628.447     -679238.110        5790.822          47.000                  
                                                
  21099528.096     -342829.998        2813.334          39.000                  
                                                
  24946408.707     -818361.182        6822.959          38.000                  
                                                
  21557213.761     -569702.477        4788.215          39.000                  
                                                
  20171354.059                        3620.372          27.000                  
                                                
 18  5 18 18 50  7.0000000  0 14R 9R18R19R20G 1G 7G 8G11G13G17G18G19
                                G28G30
  20814841.562     -804702.732        6638.385          36.000                  
                                                
  20143975.894      -96258.705         762.856          33.000                  
                                                
  19299089.988                        4739.742          26.000                  
                                                
  23128438.539     -892015.940        7588.012          38.000                  
                                                
  20807667.036     -514954.110        4535.078          38.000                  
                                                
  20437791.073                        1761.203          28.000                  
                                                
  23013083.580      -68872.9971        588.594          38.000                  
                                                
  20467512.047     -359516.601        3001.083          29.000                  
                                                
  24000009.052     -478678.438        4016.695          35.000                  
                                                
  22876077.385     -682134.141        5790.328          47.000                  
                                                
  21099260.293     -344236.992        2812.218          39.000                  
                                                
  24945759.328     -821773.412        6822.850          40.000                  
                                                
  21556758.136     -572097.324        4788.461          38.000                  
                                                
  20171010.777                        3618.520          27.000                  
                                                
 18  5 18 18 50  7.5000000  0 14R 9R18R19R20G 1G 7G 8G11G13G17G18G19
                                G28G30
  20814219.970     -808022.265        6642.526          36.000                  
                                                
  20143885.441                         765.685          33.000                  
                                                
  19298646.907     -570144.677        4741.831          26.000                  
                                                
  23127728.996     -895810.501        7592.354          38.000                  
                                                
  20807235.714     -517222.120        4539.303          38.000                  
                                                
  20437622.783     -195239.658        1762.497          28.000                  
                                                
  23013027.239      -69167.894         593.408          38.000                  
                                                
  20467225.464     -361016.824        3004.610          29.000                  
                                                
  23999626.673     -480687.414        4020.947          35.000                  
                                                
  22875526.411     -685029.755        5794.780          47.000                  
                                                
  21098992.597     -345643.464        2816.730          39.000                  
                                                
  24945110.057     -825185.227        6827.145          40.000                  
                                                
  21556302.584     -574491.776        4792.498          38.000                  
                                                
  20170667.781                        3617.508          27.000                  
                                                
