     2.10           OBSERVATION DATA    M (MIXED)           RINEX VERSION / TYPE
CONVBIN 2.4.3                           20180518 183254 UTC PGM / RUN BY / DATE 
log: 2018_05_18_1427.nvs                                    COMMENT             
format: NVS BINR                                            COMMENT             
                                                            MARKER NAME         
                                                            MARKER NUMBER       
                                                            OBSERVER / AGENCY   
                                                            REC # / TYPE / VERS 
                                                            ANT # / TYPE        
        0.0000        0.0000        0.0000                  APPROX POSITION XYZ 
        0.0000        0.0000        0.0000                  ANTENNA: DELTA H/E/N
     1     1                                                WAVELENGTH FACT L1/2
     8    C1    L1    D1    S1    C2    L2    D2    S2      # / TYPES OF OBSERV 
  2018     5    18    18    28   14.0000000     GPS         TIME OF FIRST OBS   
  2018     5    18    18    32   51.0000000     GPS         TIME OF LAST OBS    
                                                            END OF HEADER       
 18  5 18 18 28 14.0000000  0 15G17R19R18G28R15G30G13R 9R16G 8G 1G 7
                                G 9G11G18
  23387487.214    -9604928.592        6170.238          45.000                  
                                                
  19603954.371    -9481961.074        5750.026          38.000                  
                                                
  19440018.104    -3159025.657        1550.116          32.000                  
                                                
  21780676.757                        4874.906          30.000                  
                                                
  22448247.197                         515.363          21.000                  
                                                
  20192978.204    -7118147.340        4417.833          30.000                  
                                                
  24118680.379    -3102812.266        4799.729          35.000                  
                                                
  21497511.877   -10400076.830        6881.969          41.000                  
                                                
  19207439.665                        3834.480          24.000                  
                                                
  22191003.150    -1283089.526         722.725          42.000                  
                                                
  21064934.972    -8648292.888        5376.079          33.000                  
                                                
  19993626.916    -4594586.576        2567.259          33.000                  
                                                
  24530754.236                         411.653          22.000                  
                                                
  20341421.663                        3872.375          18.000                  
                                                
  20937042.783                        3761.563          21.000                  
                                                
 18  5 18 18 28 14.5000000  0 15G17R19R18G28R15G30G13R 9R16G 8G 1G 7
                                G 9G11G18
  23386900.145    -9608013.668        6169.761          45.000                  
                                                
  19603416.532    -9484836.216        5748.857          38.000                  
                                                
  19439854.317    -3159800.766        1549.535          32.000                  
                                                
  21780212.681                        4875.246          30.000                  
                                                
  22448200.755                         517.992          21.000                  
                                                
  20192557.138    -7120356.702        4418.923          30.000                  
                                                
  24118223.611    -3105212.531        4800.101          35.000                  
                                                
  21496867.610   -10403518.011        6881.650          41.000                  
                                                
  19207080.301                        3835.235          24.000                  
                                                
  22190934.407    -1283450.830         722.319          42.000                  
                                                
  21064423.418    -8650981.039        5376.552          33.000                  
                                                
  19993382.539    -4595870.282        2566.094          33.000                  
                                                
  24530713.602                         410.989          22.000                  
                                                
  20341056.545                        3867.291          18.000                  
                                                
  20936684.348                        3760.349          21.000                  
                                                
 18  5 18 18 28 15.0000000  0 15G17R19R18G28R15G30G13R 9R16G 8G 1G 7
                                G 9G11G18
  23386313.147    -9611098.327        6169.381          45.000                  
                                                
  19602878.871    -9487710.838        5749.505          37.000                  
                                                
  19439704.127    -3160575.398        1549.174          33.000                  
                                                
  21779748.747                        4873.821          24.000                  
                                                
  22448153.117                         513.598          14.000                  
                                                
  20192136.376    -7122565.410        4417.310          29.000                  
                                                
  24117766.878    -3107612.237        4799.804          33.000                  
                                                
  21496223.485   -10406958.767        6881.679          42.000                  
                                                
  19206721.384                        3831.126          22.000                  
                                                
  22190865.755    -1283811.728         721.786          40.000                  
                                                
  21063911.989    -8653668.642        5375.570          34.000                  
                                                
  19993138.270    -4597153.491        2566.481          36.000                  
                                                
  24530673.718                         407.611          22.000                  
                                                
  20340691.321                        3865.300          21.000                  
                                                
  20936326.289                        3756.120          22.000                  
                                                
 18  5 18 18 28 15.5000000  0 15G17R19R18G28R15G30G13R 9R16G 8G 1G 7
                                G 9G11G18
  23385726.114    -9614183.209        6169.958          45.000                  
                                                
  19602341.263    -9490585.559        5749.607          37.000                  
                                                
  19439563.999    -3161350.176        1549.653          33.000                  
                                                
  21779285.368                        4872.778          24.000                  
                                                
  22448106.461                         512.943          14.000                  
                                                
  20191715.972    -7124774.406        4418.008          29.000                  
                                                
  24117310.111    -3110012.051        4799.708          33.000                  
                                                
  21495579.342   -10410399.813        6882.383          42.000                  
                                                
  19206362.467                        3825.038          22.000                  
                                                
  22190797.048    -1284172.934         722.594          40.000                  
                                                
  21063400.524    -8656356.406        5375.816          34.000                  
                                                
  19992894.072    -4598436.822        2566.513          36.000                  
                                                
  24530635.318                         399.157          22.000                  
                                                
  20340325.577                        3864.115          21.000                  
                                                
  20935968.730                        3753.710          22.000                  
                                                
 18  5 18 18 28 16.0000000  0 15G17R19R18G28R15G30G13R 9R16G 8G 1G 7
                                G 9G11G18
  23385139.117    -9617267.918        6169.728          45.000                  
                                                
  19601803.709    -9493460.006        5749.323          37.000                  
                                                
  19439421.815    -3162124.640        1548.559          31.000                  
                                                
  21778821.917                        4872.245          23.000                  
                                                
  22448058.125                         515.894          17.000                  
                                                
  20191288.616    -7126983.115        4418.613          30.000                  
                                                
  24116853.450    -3112411.635        4799.578          33.000                  
                                                
  21494935.218   -10413840.726        6881.947          42.000                  
                                                
  19206003.532                        3824.176           2.000                  
                                                
  22190728.378    -1284533.958         722.243          41.000                  
                                                
  21062889.094    -8659043.911        5375.058          33.000                  
                                                
  19992650.017    -4599719.901        2565.593          35.000                  
                                                
  24530597.579                         402.998          17.000                  
                                                
  20339958.726                        3862.980          22.000                  
                                                
  20935614.101                        3752.985          15.000                  
                                                
 18  5 18 18 28 16.5000000  0 15G17R19R18G28R15G30G13R 9R16G 8G 1G 7
                                G 9G11G18
  23384552.102    -9620352.750        6169.916          45.000                  
                                                
  19601266.155    -9496334.490        5749.042          37.000                  
                                                
  19439276.736    -3162899.1941       1549.400          31.000                  
                                                
  21778357.501                        4872.742          23.000                  
                                                
  22448012.827                         519.774          17.000                  
                                                
  20190869.427    -7129191.831        4417.391          30.000                  
                                                
  24116396.843    -3114811.267        4799.536          33.000                  
                                                
  21494291.022   -10417281.816        6882.474          42.000                  
                                                
  19205646.544                        3830.126           2.000                  
                                                
  22190659.653    -1284895.133         722.663          41.000                  
                                                
  21062377.683    -8661731.476        5375.084          33.000                  
                                                
  19992405.997    -4601003.015        2566.292          35.000                  
                                                
  24530558.731                         408.652          17.000                  
                                                
  20339591.411                        3866.888          22.000                  
                                                
  20935263.171                        3757.582          15.000                  
                                                
 18  5 18 18 28 17.0000000  0 15G17R19R18G28R15G30G13R 9R16G 8G 1G 7
                                G 9G11G18
  23383965.104    -9623437.438        6169.271          45.000                  
                                                
  19600728.691    -9499208.652        5748.334          39.000                  
                                                
  19439132.176    -3163673.470        1548.528          32.000                  
                                                
  21777893.335                        4872.563          27.000                  
                                                
  22447968.279                         522.014          21.000                  
                                                
  20190451.131    -7131400.388        4416.439          32.000                  
                                                
  24115940.307    -3117210.667        4798.600          34.000                  
                                                
  21493646.861   -10420722.780        6882.024          43.000                  
                                                
  19205288.699                        3835.196          17.000                  
                                                
  22190590.965    -1285256.225         722.208          41.000                  
                                                
  21061866.289    -8664418.825        5374.798          36.000                  
                                                
  19992162.085    -4602285.887        2565.474          36.000                  
                                                
  24530518.240                         414.550          20.000                  
                                                
  20339223.827                        3868.714          26.000                  
                                                
  20934903.915                        3761.846          19.000                  
                                                
 18  5 18 18 28 17.5000000  0 15G17R19R18G28R15G30G13R 9R16G 8G 1G 7
                                G 9G11G18
  23383378.107    -9626522.137        6169.394          45.000                  
                                                
  19600191.262    -9502082.784        5748.340          39.000                  
                                                
  19438987.222    -3164447.652        1548.053          32.000                  
                                                
  21777429.670                        4872.332          27.000                  
                                                
  22447922.642                         525.317          21.000                  
                                                
  20190034.586    -7133608.899        4416.411          32.000                  
                                                
  24115483.753    -3119610.059        4798.893          34.000                  
                                                
  21493002.665   -10424163.827        6882.425          43.000                  
                                                
  19204930.032                        3830.022          17.000                  
                                                
  22190522.258    -1285617.366         722.323          41.000                  
                                                
  21061354.914    -8667106.095        5373.919          36.000                  
                                                
  19991918.155    -4603568.729        2565.904          36.000                  
                                                
  24530476.051                         419.961          20.000                  
                                                
  20338856.190                        3865.681          26.000                  
                                                
  20934543.943                        3757.278          19.000                  
                                                
 18  5 18 18 28 18.0000000  0 15G17R19R18G28R15G30G13R 9R16G 8G 1G 7
                                G 9G11G18
  23382791.092    -9629606.868        6169.007          45.000                  
                                                
  19599653.905    -9504956.736        5747.571          37.000                  
                                                
  19438842.626    -3165221.721        1547.940          32.000                  
                                                
  21776966.183                        4874.489          28.000                  
                                                
  22447878.416                         515.310          23.000                  
                                                
  20189615.361    -7135817.334        4416.234          31.000                  
                                                
  24115027.253    -3122009.379        4798.482          34.000                  
                                                
  21492358.487   -10427604.894        6881.621          42.000                  
                                                
  19204571.865                        3828.890          18.000                  
                                                
  22190453.534    -1285978.551         721.790          41.000                  
                                                
  21060843.538    -8669793.333        5373.945          36.000                  
                                                
  19991674.261    -4604851.455        2564.907          37.000                  
                                                
  24530433.523                         420.206          21.000                  
                                                
  20338489.196                        3866.128          26.000                  
                                                
  20934183.954                        3752.852          20.000                  
                                                
 18  5 18 18 28 18.5000000  0 15G17R19R18G28R15G30G13R 9R16G 8G 1G 7
                                G 9G11G18
  23382204.130    -9632691.409        6169.166          45.000                  
                                                
  19599116.619    -9507830.392        5747.031          37.000                  
                                                
  19438698.173    -3165995.555        1547.870          32.000                  
                                                
  21776502.768                        4873.361          28.000                  
                                                
  22447833.958                         514.717          23.000                  
                                                
  20189195.332    -7138025.498        4415.651          31.000                  
                                                
  24114570.754    -3124408.426        4798.639          34.000                  
                                                
  21491714.344   -10431045.865        6882.302          42.000                  
                                                
  19204213.806                        3828.464          18.000                  
                                                
  22190384.846    -1286339.583         721.913          41.000                  
                                                
  21060332.216    -8672480.291        5373.798          36.000                  
                                                
  19991430.438    -4606133.909        2564.035          37.000                  
                                                
  24530391.835                         421.008          21.000                  
                                                
  20338122.541                        3865.871          26.000                  
                                                
  20933826.252                        3753.712          20.000                  
                                                
 18  5 18 18 28 19.0000000  0 15G17R19R18G28R15G30G13R 9R16G 8G 1G 7
                                G 9G11G18
  23381617.150    -9635775.892        6169.078          44.000                  
                                                
  19598579.369    -9510703.902        5746.908          37.000                  
                                                
  19438558.187    -3166769.155        1546.774          31.000                  
                                                
  21776039.299                        4872.856          28.000                  
                                                
  22447789.875                         521.007          21.000                  
                                                
  20188772.944    -7140233.5451       4416.473          30.000                  
                                                
  24114114.236    -3126807.299        4797.583          34.000                  
                                                
  21491070.219   -10434486.776        6881.994          42.000                  
                                                
  19203854.656                        3829.965          21.000                  
                                                
  22190316.157    -1286700.589         722.130          40.000                  
                                                
  21059820.911    -8675167.116        5373.760          36.000                  
                                                
  19991186.633    -4607416.250        2564.607          37.000                  
                                                
  24530350.200                         422.601          22.000                  
                                                
  20337755.815                        3868.011          24.000                  
                                                
  20933470.194                        3750.008          19.000                  
                                                
 18  5 18 18 28 19.5000000  0 15G17R19R18G28R15G30G13R 9R16G 8G 1G 7
                                G 9G11G18
  23381030.207    -9638860.303        6168.957          44.000                  
                                                
  19598042.137    -9513577.190        5746.554          37.000                  
                                                
  19438413.841                        1546.484          31.000                  
                                                
  21775575.669                        4873.067          28.000                  
                                                
  22447743.934                         525.253          21.000                  
                                                
  20188350.180    -7142441.435        4416.006          31.000                  
                                                
  24113657.682    -3129206.067        4797.482          34.000                  
                                                
  21490426.059   -10437927.675        6881.918          42.000                  
                                                
  19203496.454                        3830.958          21.000                  
                                                
  22190247.486    -1287061.535         721.937          41.000                  
                                                
  21059309.643    -8677853.789        5373.474          36.000                  
                                                
  19990942.882    -4608698.395        2564.337          37.000                  
                                                
  24530308.762                         422.408          22.000                  
                                                
  20337388.500                        3866.326          24.000                  
                                                
  20933115.261                        3745.042          19.000                  
                                                
 18  5 18 18 28 20.0000000  0 15G17R19R18G28R15G30G13R 9R16G 8G 1G 7
                                G 9G11G18
  23380443.281    -9641944.579        6168.963          44.000                  
                                                
  19597504.905    -9516450.242        5746.349          37.000                  
                                                
  19438268.387                        1546.617          29.000                  
                                                
  21775112.486                        4877.058          27.000                  
                                                
  22447698.082                         527.087          14.000                  
                                                
  20187932.760    -7144649.113        4415.708          31.000                  
                                                
  24113201.129    -3131604.641        4797.722          34.000                  
                                                
  21489781.881   -10441368.460        6882.003          41.000                  
                                                
  19203138.698                        3833.001          20.000                  
                                                
  22190178.834    -1287422.405         722.096          41.000                  
                                                
  21058798.428    -8680540.227        5373.228          36.000                  
                                                
  19990699.166    -4609980.301        2563.998          37.000                  
                                                
  24530267.806                         422.866          22.000                  
                                                
  20337020.809                        3863.107          26.000                  
                                                
  20932762.580                        3755.850          18.000                  
                                                
 18  5 18 18 28 20.5000000  0 17G17R17R19R18G28R15G30G13R20R 9R16G 8
                                G 1G 7G 9G11G18
  23379856.337    -9645028.956        6168.803          44.000                  
                                                
  23210002.667       19613.2791       -587.020          39.000                  
                                                
  19596967.601    -9519323.267        5745.968          37.000                  
                                                
  19438122.111                        1546.217          29.000                  
                                                
  21774650.662                        4868.728          27.000                  
                                                
  22447648.370                         533.159          14.000                  
                                                
  20187515.572    -7146856.743        4414.909          31.000                  
                                                
  24112744.593    -3134003.198        4797.173          34.000                  
                                                
  24036965.103      -86982.0301       7869.334          34.000                  
                                                
  21489137.577   -10444809.377        6881.843          41.000                  
                                                
  19202779.996                        3835.619          20.000                  
                                                
  22190110.145    -1287783.388         721.955          41.000                  
                                                
  21058287.195    -8683226.680        5372.724          36.000                  
                                                
  19990455.397    -4611262.227        2563.639          37.000                  
                                                
  24530227.315                         416.404          22.000                  
                                                
  20336652.743                        3859.997          26.000                  
                                                
  20932408.113                        3759.928          19.000                  
                                                
 18  5 18 18 28 21.0000000  0 17G17R17R19R18G28R15G30G13R20R 9R16G 8
                                G 1G 7G 9G11G18
  23379269.393    -9648113.309        6168.701          45.000                  
                                                
  23210057.186       19906.762        -586.953          41.000                  
                                                
  19596430.315    -9522196.179        5745.484          36.000                  
                                                
  19437975.925    -3169861.791        1547.196          30.000                  
                                                
  21774189.105                        4869.333          24.000                  
                                                
  22447591.636                         530.188          14.000                  
                                                
  20187097.615                        4414.955          31.000                  
                                                
  24112288.039    -3136401.671        4796.973          34.000                  
                                                
  24036229.399      -90916.749        7869.241          34.000                  
                                                
  21488493.256   -10448250.353        6881.917          41.000                  
                                                
  19202420.560                        3833.927          15.000                  
                                                
  22190041.457    -1288144.406         722.175          40.000                  
                                                
  21057775.980    -8685913.070        5372.721          36.000                  
                                                
  19990211.628    -4612544.094        2563.733          36.000                  
                                                
  24530187.341                         420.677          21.000                  
                                                
  20336284.283                        3862.634          26.000                  
                                                
  20932052.394                        3757.946          26.000                  
                                                
 18  5 18 18 28 21.5000000  0 17G17R17R19R18G28R15G30G13R20R 9R16G 8
                                G 1G 7G 9G11G18
  23378682.503    -9651197.499        6168.579          45.000                  
                                                
  23210111.936       20200.354        -586.894          41.000                  
                                                
  19595893.315    -9525068.817        5745.419          36.000                  
                                                
  19437829.917                        1545.113          30.000                  
                                                
  21773727.959                        4869.655          24.000                  
                                                
  22447539.512                         529.187          14.000                  
                                                
  20186678.533    -7151271.796        4416.142          31.000                  
                                                
  24111831.540    -3138799.881        4796.160          34.000                  
                                                
  24035493.910      -94851.335        7869.320          34.000                  
                                                
  21487849.149   -10451691.197        6882.001          41.000                  
                                                
  19202064.180                        3832.821          15.000                  
                                                
  22189972.786    -1288505.282         722.012          40.000                  
                                                
  21057264.819    -8688599.203        5372.606          36.000                  
                                                
  19989967.912    -4613825.674        2563.454          35.000                  
                                                
  24530146.493                         426.301          20.000                  
                                                
  20335915.413                        3861.928          26.000                  
                                                
  20931696.300                        3757.627          26.000                  
                                                
 18  5 18 18 28 22.0000000  0 17G17R17R19R18G28R15G30G13R20R 9R16G 8
                                G 1G 7G 9G11G18
  23378095.577    -9654281.760        6168.707          44.000                  
                                                
  23210166.669       20493.831        -586.522          40.000                  
                                                
  19595356.298    -9527941.413        5745.240          35.000                  
                                                
  19437684.177                        1544.471          29.000                  
                                                
  21773266.527                        4872.879          20.000                  
                                                
  22447489.854                         525.112          15.000                  
                                                
  20186259.540                        4414.812          31.000                  
                                                
  24111375.057    -3141198.103        4796.475          33.000                  
                                                
  24034758.439      -98786.051        7869.753          33.000                  
                                                
  21487205.007   -10455132.142        6882.123          41.000                  
                                                
  19201709.873                        3834.139          16.000                  
                                                
  22189904.080    -1288866.273         722.380          39.000                  
                                                
  21056753.658    -8691285.294        5372.325          36.000                  
                                                
  19989724.179    -4615107.226        2563.289          35.000                  
                                                
  24530105.090                         424.927          22.000                  
                                                
  20335546.364                        3860.751          26.000                  
                                                
  20931340.045                        3757.160          26.000                  
                                                
 18  5 18 18 28 22.5000000  0 17G17R17R19R18G28R15G30G13R20R 9R16G 8
                                G 1G 7G 9G11G18
  23377508.651    -9657365.993        6168.551          44.000                  
                                                
  23210221.366       20787.303        -586.754          40.000                  
                                                
  19594819.316    -9530813.846        5744.683          35.000                  
                                                
  19437539.134    -3172180.591        1545.967          29.000                  
                                                
  21772803.916                        4873.949          20.000                  
                                                
  22447438.123                         525.182          15.000                  
                                                
  20185840.887                        4414.248          31.000                  
                                                
  24110918.611    -3143596.225        4796.214          33.000                  
                                                
  24034022.861     -102720.719        7869.438          33.000                  
                                                
  21486560.829   -10458573.101        6882.057          41.000                  
                                                
  19201355.227                        3831.388          16.000                  
                                                
  22189835.391    -1289227.255         722.219          39.000                  
                                                
  21056242.532    -8693971.295        5371.884          36.000                  
                                                
  19989480.445    -4616388.661        2562.921          35.000                  
                                                
  24530063.849                         422.038          22.000                  
                                                
  20335176.886                        3863.017          26.000                  
                                                
  20930983.505                        3759.105          25.000                  
                                                
 18  5 18 18 28 23.0000000  0 17G17R17R19R18G28R15G30G13R20R 9R16G 8
                                G 1G 7G 9G11G18
  23376921.814    -9660449.869        6167.725          43.000                  
                                                
  23210276.135       21081.094        -587.519          40.000                  
                                                
  19594282.405    -9533685.799        5743.437          35.000                  
                                                
  19437394.485    -3172952.818        1544.103          30.000                  
                                                
  21772340.965                        4874.114          22.000                  
                                                
  22447387.161                         523.637           2.000                  
                                                
  20185421.805    -7157893.153        4413.519          30.000                  
                                                
  24110462.183    -3145993.910        4795.318          32.000                  
                                                
  24033287.354     -106655.099        7868.796          32.000                  
                                                
  21485916.704   -10462013.725        6881.304          42.000                  
                                                
  19200999.419                        3825.937          19.000                  
                                                
  22189766.756    -1289587.899         721.285          38.000                  
                                                
  21055731.496    -8696656.862        5370.959          36.000                  
                                                
  19989236.801    -4617669.641        2561.898          34.000                  
                                                
  24530022.375                         422.899          21.000                  
                                                
  20334807.980                        3860.062          24.000                  
                                                
  20930625.660                        3757.823          26.000                  
                                                
 18  5 18 18 28 23.5000000  0 17G17R17R19R18G28R15G30G13R20R 9R16G 8
                                G 1G 7G 9G11G18
  23376334.960    -9663533.743        6167.664          43.000                  
                                                
  23210330.975       21374.850        -587.398          40.000                  
                                                
  19593745.620    -9536557.674        5743.556          35.000                  
                                                
  19437250.389    -3173724.920        1544.238          30.000                  
                                                
  21771877.854                        4873.577          22.000                  
                                                
  22447337.574                         525.963           2.000                  
                                                
  20185002.598                        4412.979          30.000                  
                                                
  24110005.772    -3148391.523        4795.323          32.000                  
                                                
  24032551.919     -110589.452        7868.426          32.000                  
                                                
  21485272.651   -10465454.389        6881.218          42.000                  
                                                
  19200643.093                        3828.577          19.000                  
                                                
  22189698.121    -1289948.566         721.177          38.000                  
                                                
  21055220.460    -8699342.360        5370.920          36.000                  
                                                
  19988993.175    -4618950.517        2561.440          34.000                  
                                                
  24529981.222                         414.884          21.000                  
                                                
  20334439.968                        3860.054          24.000                  
                                                
  20930266.993                        3756.032          26.000                  
                                                
 18  5 18 18 28 24.0000000  0 17G17R17R19R18G28R15G30G13R20R 9R16G 8
                                G 1G 7G 9G11G18
  23375748.123    -9666617.604        6167.870          43.000                  
                                                
  23210385.851       21668.579        -587.292          40.000                  
                                                
  19593208.888    -9539429.387        5743.597          35.000                  
                                                
  19437109.903    -3174496.899        1543.773          31.000                  
                                                
  21771414.546                        4878.754          18.000                  
                                                
  22447290.275                         525.357           2.000                  
                                                
  20184583.390    -7162306.050        4412.788          29.000                  
                                                
  24109549.344    -3150789.006        4795.072          32.000                  
                                                
  24031816.466     -114523.864        7868.780          32.000                  
                                                
  21484628.615   -10468895.101        6881.543          42.000                  
                                                
  19200284.765                        3827.246          14.000                  
                                                
  22189629.486    -1290309.290         721.546          38.000                  
                                                
  21054709.477    -8702027.728        5370.741          36.000                  
                                                
  19988749.531    -4620231.306        2561.644          35.000                  
                                                
  24529940.213                         415.464          22.000                  
                                                
  20334072.599                        3861.023          26.000                  
                                                
  20929908.058                        3758.495          26.000                  
                                                
 18  5 18 18 28 24.5000000  0 17G17R17R19R18G28R15G30G13R20R 9R16G 8
                                G 1G 7G 9G11G18
  23375161.305    -9669701.350        6167.312          43.000                  
                                                
  23210440.726       21962.378        -587.612          40.000                  
                                                
  19592672.174    -9542300.845        5742.693          35.000                  
                                                
  19436972.937    -3175268.650        1543.074          31.000                  
                                                
  21770951.023                        4872.982          18.000                  
                                                
  22447244.137                         523.529           1.000                  
                                                
  20184164.540                        4411.248          29.000                  
                                                
  24109092.933    -3153186.286        4794.414          32.000                  
                                                
  24031080.959     -118458.212        7868.540          32.000                  
                                                
  21483984.562   -10472335.725        6881.152          42.000                  
                                                
  19199925.491                        3825.641          14.000                  
                                                
  22189560.851    -1290669.917         721.263          38.000                  
                                                
  21054198.513    -8704712.952        5370.146          36.000                  
                                                
  19988505.940    -4621511.917        2561.112          35.000                  
                                                
  24529899.561                         409.513          22.000                  
                                                
  20333705.712                        3863.187          26.000                  
                                                
  20929548.604                        3754.299          26.000                  
                                                
 18  5 18 18 28 25.0000000  0 17G17R17R19R18G28R15G30G13R20R 9R16G 8
                                G 1G 7G 9G11G18
  23374574.486    -9672785.042        6167.199          43.000                  
                                                
  23210495.602       22256.198        -587.803          39.000                  
                                                
  19592135.531    -9545172.147        5742.296          34.000                  
                                                
  19436830.681    -3176040.288        1543.137          31.000                  
                                                
  21770487.108                        4865.313          16.000                  
                                                
  22447195.230                         523.529           1.000                  
                                                
  20183745.226    -7166717.831        4412.347          29.000                  
                                                
  24108636.558    -3155583.508        4794.187          32.000                  
                                                
  24030345.398     -122392.489        7868.342          32.000                  
                                                
  21483340.509   -10475776.332        6881.094          41.000                  
                                                
  19199569.164                        3820.550          15.000                  
                                                
  22189492.234    -1291030.485         721.026          38.000                  
                                                
  21053687.584    -8707398.027        5369.868          36.000                  
                                                
  19988262.385    -4622792.367        2560.695          35.000                  
                                                
  24529859.123                         412.260          21.000                  
                                                
  20333340.326                        3859.909          24.000                  
                                                
  20929189.276                        3752.875          27.000                  
                                                
 18  5 18 18 28 25.5000000  0 17G17R17R19R18G28R15G30G13R20R 9R16G 8
                                G 1G 7G 9G11G18
  23373987.721    -9675868.559        6166.828          43.000                  
                                                
  23210550.514       22550.105        -587.815          39.000                  
                                                
  19591598.925    -9548043.162        5741.814          34.000                  
                                                
  19436688.819    -3176811.607        1542.406          31.000                  
                                                
  21770023.407                        4867.495          16.000                  
                                                
  22447146.823                         516.993           1.000                  
                                                
  20183325.322                        4412.834          29.000                  
                                                
  24108180.255    -3157980.470        4793.876          32.000                  
                                                
  24029609.873     -126326.648        7868.099          32.000                  
                                                
  21482696.492   -10479216.796        6880.784          41.000                  
                                                
  19199213.624                        3824.182          15.000                  
                                                
  22189423.635    -1291390.932         720.899          38.000                  
                                                
  21053176.708    -8710082.861        5369.472          36.000                  
                                                
  19988018.902    -4624072.559        2560.227          35.000                  
                                                
  24529819.400                         413.630          21.000                  
                                                
  20332975.530                        3857.693          24.000                  
                                                
  20928830.073                        3749.970          27.000                  
                                                
 18  5 18 18 28 26.0000000  0 17G17R17R19R18G28R15G30G13R20R 9R16G 8
                                G 1G 7G 9G11G18
  23373400.938    -9678952.078        6166.986          43.000                  
                                                
  23210605.407       22844.006        -587.890          40.000                  
                                                
  19591062.318    -9550914.052        5741.323          35.000                  
                                                
  19436543.884    -3177582.846        1541.927          30.000                  
                                                
  21769563.833                        4857.199          13.000                  
                                                
  22447098.541                         516.993           1.000                  
                                                
  20182904.953                        4412.744          29.000                  
                                                
  24107724.023    -3160377.314        4793.844          31.000                  
                                                
  24028874.367     -130260.831        7868.191          32.000                  
                                                
  21482052.456   -10482657.303        6880.875          41.000                  
                                                
  19198856.619                        3823.034          15.000                  
                                                
  22189355.018    -1291751.388         720.760          38.000                  
                                                
  21052665.851    -8712767.586        5369.379          37.000                  
                                                
  19987775.454    -4625352.651        2559.868          35.000                  
                                                
  24529779.642                         414.039          21.000                  
                                                
  20332610.448                        3859.654          24.000                  
                                                
  20928471.263                        3752.265          27.000                  
                                                
 18  5 18 18 28 26.5000000  0 17G17R17R19R18G28R15G30G13R20R 9R16G 8
                                G 1G 7G 9G11G18
  23372814.191    -9682035.498        6167.370          43.000                  
                                                
  23210660.337       23137.921        -587.324          40.000                  
                                                
  19590525.801    -9553784.747        5741.600          35.000                  
                                                
  19436399.091                        1542.123          30.000                  
                                                
  21769109.817                        4850.849          13.000                  
                                                
  22447050.348                         515.993           1.000                  
                                                
  20182484.727                        4411.056          29.000                  
                                                
  24107267.809    -3162773.975        4793.616          31.000                  
                                                
  24028138.806     -134194.978        7868.802          32.000                  
                                                
  21481408.439   -10486097.776        6881.563          41.000                  
                                                
  19198501.437                        3827.755          15.000                  
                                                
  22189286.419    -1292111.830         721.417          38.000                  
                                                
  21052155.029    -8715452.167        5369.480          37.000                  
                                                
  19987532.025    -4626632.567        2560.189          35.000                  
                                                
  24529739.276                         420.775          21.000                  
                                                
  20332246.170                        3859.171          24.000                  
                                                
  20928112.882                        3751.407          27.000                  
                                                
 18  5 18 18 28 27.0000000  0 17G17R17R19R18G28R15G30G13R20R 9R16G 8
                                G 1G 7G 9G11G18
  23372227.426    -9685118.945        6167.510          44.000                  
                                                
  23210715.230       23431.765        -587.080          40.000                  
                                                
  19589989.265    -9556655.337        5741.594          35.000                  
                                                
  19436254.441    -3179125.326        1542.444          30.000                  
                                                
  21768652.906                        4862.588          15.000                  
                                                
  22447002.155                         515.993           1.000                  
                                                
  20182064.269    -7175542.442        4412.621          29.000                  
                                                
  24106811.577    -3165170.610        4793.620          32.000                  
                                                
  24027403.228     -138129.151        7869.145          32.000                  
                                                
  21480764.386   -10489538.290        6881.747          42.000                  
                                                
  19198146.987                        3831.253          14.000                  
                                                
  22189217.802    -1292472.326         721.816          38.000                  
                                                
  21051644.190    -8718136.691        5369.804          37.000                  
                                                
  19987288.631    -4627912.413        2560.096          35.000                  
                                                
  24529698.749                         419.555          21.000                  
                                                
  20331882.393                        3856.806          24.000                  
                                                
  20927755.537                        3754.344          28.000                  
                                                
 18  5 18 18 28 27.5000000  0 17G17R17R19R18G28R15G30G13R20R 9R16G 8
                                G 1G 7G 9G11G18
  23371640.678    -9688202.334        6166.605          44.000                  
                                                
  23210770.017       23725.628        -588.116          40.000                  
                                                
  19589452.694    -9559525.785        5740.731          35.000                  
                                                
  19436109.488    -3179896.092        1541.224          29.000                  
                                                
  21768196.067                        4867.071          15.000                  
                                                
  22446953.873                         515.993           1.000                  
                                                
  20181643.936                        4410.915          29.000                  
                                                
  24106355.399    -3167567.107        4792.736          32.000                  
                                                
  24026667.542     -142063.328        7868.382          32.000                  
                                                
  21480120.261   -10492978.789        6880.716          42.000                  
                                                
  19197788.981                        3831.870          14.000                  
                                                
  22189149.203    -1292832.754         720.784          38.000                  
                                                
  21051133.404    -8720821.047        5368.327          37.000                  
                                                
  19987045.255    -4629192.146        2559.017          35.000                  
                                                
  24529658.544                         420.434          21.000                  
                                                
  20331517.864                        3857.954          24.000                  
                                                
  20927398.478    -6413581.411        3753.005          28.000                  
                                                
 18  5 18 18 28 28.0000000  0 17G17R17R19R18G28R15G30G13R20R 9R16G 8
                                G 1G 7G 9G11G18
  23371053.967    -9691285.485        6165.751          45.000                  
                                                
  23210824.875       24019.667        -588.551          42.000                  
                                                
  19588916.213    -9562395.883        5739.159          37.000                  
                                                
  19435934.800    -3180666.527        1540.432          31.000                  
                                                
  21767733.992                        4877.905          19.000                  
                                                
  22446905.609                         515.993           1.000                  
                                                
  20181223.782    -7179953.435        4409.437          30.000                  
                                                
  24105899.292    -3169963.309        4791.964          33.000                  
                                                
  24025931.910     -145997.279        7868.015          35.000                  
                                                
  21479476.154   -10496419.110        6880.421          44.000                  
                                                
  19197432.762                        3827.649          15.000                  
                                                
  22189080.657    -1293192.960         719.764          41.000                  
                                                
  21050622.671    -8723505.114        5367.056          38.000                  
                                                
  19986801.932    -4630471.520        2558.237          37.000                  
                                                
  24529618.713                         417.540          22.000                  
                                                
  20331152.014                        3857.922          25.000                  
                                                
  20927041.384    -6415457.597        3751.449          31.000                  
                                                
 18  5 18 18 28 28.5000000  0 17G17R17R19R18G28R15G30G13R20R 9R16G 8
                                G 1G 7G 9G11G18
  23370467.327    -9694368.310        6166.001          45.000                  
                                                
  23210879.768       24314.061        -587.863          42.000                  
                                                
  19588379.838    -9565265.461        5739.292          37.000                  
                                                
  19435786.898    -3181436.561        1542.142          31.000                  
                                                
  21767266.520    -7350720.413        4870.685          19.000                  
                                                
  22446857.327                         515.993           1.000                  
                                                
  20180803.484    -7182158.335        4409.473          30.000                  
                                                
  24105443.310    -3172359.050        4791.453          33.000                  
                                                
  24025196.296     -149930.885        7867.636          35.000                  
                                                
  21478832.101   -10499859.107        6880.732          44.000                  
                                                
  19197078.991                        3825.314          15.000                  
                                                
  22189012.147    -1293552.908         719.900          41.000                  
                                                
  21050112.010    -8726188.769        5367.214          38.000                  
                                                
  19986558.699    -4631750.505        2558.394          37.000                  
                                                
  24529578.955                         414.377          22.000                  
                                                
  20330785.967                        3855.175          25.000                  
                                                
  20926684.200    -6417333.415        3751.669          31.000                  
                                                
 18  5 18 18 28 29.0000000  0 17G17R17R19R18G28R15G30G13R20R 9R16G 8
                                G 1G 7G 9G11G18
  23369880.669    -9697451.255        6166.236          45.000                  
                                                
  23210934.644       24608.262        -588.097          41.000                  
                                                
  19587843.446    -9568135.103        5739.702          38.000                  
                                                
  19435641.909    -3182206.514        1539.388          31.000                  
                                                
  21766798.137                        4872.121          28.000                  
                                                
  22446809.080                         515.993           1.000                  
                                                
  20180382.955    -7184363.303        4409.542          32.000                  
                                                
  24104987.400    -3174754.888        4792.379          31.000                  
                                                
  24024460.646     -153864.708        7867.996          35.000                  
                                                
  21478188.030   -10503299.314        6880.804          42.000                  
                                                
  19196728.186                        3827.278          13.000                  
                                                
  22188943.602    -1293912.990         720.482          40.000                  
                                                
  21049601.367    -8728872.439        5367.623          39.000                  
                                                
  19986315.484    -4633029.479        2558.250          39.000                  
                                                
  24529538.482                         415.614          22.000                  
                                                
  20330419.795                        3855.796          26.000                  
                                                
  20926330.143    -6419209.255        3752.014          32.000                  
                                                
 18  5 18 18 28 29.5000000  0 17G17R17R19R18G28R15G30G13R20R 9R16G 8
                                G 1G 7G 9G11G18
  23369294.047    -9700533.996        6165.189          45.000                  
                                                
  23210989.538       24902.623        -588.565          41.000                  
                                                
  19587307.107    -9571004.400        5738.910          38.000                  
                                                
  19435497.313    -3182976.269        1540.123          31.000                  
                                                
  21766329.880    -7355592.499        4872.334          28.000                  
                                                
  22446760.798                         515.993           1.000                  
                                                
  20179961.907    -7186568.051        4409.737          32.000                  
                                                
  24104531.597    -3177150.486        4791.945          31.000                  
                                                
  24023724.961     -157798.324        7867.970          35.000                  
                                                
  21477543.977   -10506739.290        6880.258          42.000                  
                                                
  19196378.472                        3828.538          13.000                  
                                                
  22188875.092    -1294272.954         720.080          40.000                  
                                                
  21049090.742    -8731555.879        5366.853          39.000                  
                                                
  19986072.286    -4634308.179        2556.580          39.000                  
                                                
  24529498.026                         417.583          23.000                  
                                                
  20330053.105                        3854.930          26.000                  
                                                
  20925972.763    -6421084.771        3750.274          32.000                  
                                                
 18  5 18 18 28 30.0000000  0 17G17R17R19R18G28R15G30G13R20R 9R16G 8
                                G 1G 7G 9G11G18
  23368707.425    -9703616.695        6164.946          45.000                  
                                                
  23211044.414       25196.951        -588.861          41.000                  
                                                
  19586770.804    -9573873.498        5737.826          38.000                  
                                                
  19435359.864    -3183745.892        1538.724          31.000                  
                                                
  21765862.676                        4871.312          31.000                  
                                                
  22446712.516                         515.993           1.000                  
                                                
  20179541.252    -7188772.647        4409.682          33.000                  
                                                
  24104075.937    -3179545.875        4789.759          31.000                  
                                                
  24022989.258     -161731.958        7867.136          34.000                  
                                                
  21476899.906   -10510179.319        6879.599          42.000                  
                                                
  19196029.079                        3828.801          13.000                  
                                                
  22188806.582    -1294632.858         719.382          39.000                  
                                                
  21048580.152    -8734239.161        5366.175          39.000                  
                                                
  19985829.143    -4635586.770        2556.974          39.000                  
                                                
  24529457.803                         418.876          24.000                  
                                                
  20329685.182                        3855.405          25.000                  
                                                
  20925615.472    -6422960.118        3750.190          32.000                  
                                                
 18  5 18 18 28 30.5000000  0 17G17R17R19R18G28R15G30G13R20R 9R16G 8
                                G 1G 7G 9G11G18
  23368120.820    -9706699.366        6165.087          45.000                  
                                                
  23211099.325       25491.319        -588.985          41.000                  
                                                
  19586234.519    -9576742.493        5738.262          38.000                  
                                                
  19435225.757    -3184515.366        1539.265          31.000                  
                                                
  21765395.169                        4872.009          31.000                  
                                                
  22446664.323                         514.993           1.000                  
                                                
  20179122.778    -7190977.009        4407.497          33.000                  
                                                
  24103633.107                        4790.048          31.000                  
                                                
  24022253.572     -165665.588        7867.512          34.000                  
                                                
  21476255.852   -10513619.307        6880.157          42.000                  
                                                
  19195679.686                        3826.325          13.000                  
                                                
  22188738.072    -1294992.785         719.726          39.000                  
                                                
  21048069.599    -8736922.323        5366.261          39.000                  
                                                
  19985586.017    -4636865.222        2556.897          39.000                  
                                                
  24529417.401                         417.008          24.000                  
                                                
  20329316.294                        3854.619          25.000                  
                                                
  20925258.913    -6424835.264        3749.854          32.000                  
                                                
 18  5 18 18 28 31.0000000  0 17G17R17R19R18G28R15G30G13R20R 9R16G 8
                                G 1G 7G 9G11G18
  23367534.216    -9709781.995        6165.289          46.000                  
                                                
  23211154.219       25785.591        -588.362          40.000                  
                                                
  19585698.270    -9579611.341        5737.760          39.000                  
                                                
  19435084.145    -3185284.181        1539.742          29.000                  
                                                
  21764928.144                        4872.234          27.000                  
                                                
  22446616.130                         514.993           1.000                  
                                                
  20178702.373    -7193180.8721       4408.519          31.000                  
                                                
  24103178.930    -3184336.336        4789.965          29.000                  
                                                
  24021517.869     -169599.199        7867.468          33.000                  
                                                
  21475611.763   -10517059.329        6880.244          42.000                  
                                                
  19195330.346                        3826.044          14.000                  
                                                
  22188669.562    -1295352.664         719.872          38.000                  
                                                
  21047559.045    -8739605.369        5365.872          40.000                  
                                                
  19985342.909    -4638143.545        2556.630          40.000                  
                                                
  24529377.768                         414.427          24.000                  
                                                
  20328947.674                        3855.091          23.000                  
                                                
  20924902.498    -6426710.297        3750.104          31.000                  
                                                
 18  5 18 18 28 31.5000000  0 17G17R17R19R18G28R15G30G13R20R 9R16G 8
                                G 1G 7G 9G11G18
  23366947.630    -9712864.554        6165.316          46.000                  
                                                
  23211209.166       26079.948        -588.308          40.000                  
                                                
  19585162.074    -9582479.968        5737.512          39.000                  
                                                
  19434940.514    -3186053.370        1538.769          30.000                  
                                                
  21764461.030                        4872.969          27.000                  
                                                
  22446567.991                         514.993           1.000                  
                                                
  20178282.380    -7195385.121        4408.919          31.000                  
                                                
  24102724.074    -3186731.487        4792.393          29.000                  
                                                
  24020782.183     -173532.770        7867.453          33.000                  
                                                
  21474967.710   -10520499.301        6880.277          42.000                  
                                                
  19194976.629                        3827.534          14.000                  
                                                
  22188601.070    -1295712.538         720.069          38.000                  
                                                
  21047048.527    -8742288.290        5365.919          40.000                  
                                                
  19985099.836    -4639421.685        2556.347          40.000                  
                                                
  24529338.259                         418.513          24.000                  
                                                
  20328578.768                        3853.548          23.000                  
                                                
  20924545.939    -6428585.152        3749.666          31.000                  
                                                
 18  5 18 18 28 32.0000000  0 17G17R17R19R18G28R15G30G13R20R 9R16G 8
                                G 1G 7G 9G11G18
  23366361.079    -9715946.904        6165.204          46.000                  
                                                
  23211264.149       26374.506        -588.805          41.000                  
                                                
  19584625.932    -9585348.246        5736.742          40.000                  
                                                
  19434796.865    -3186822.166        1538.202          30.000                  
                                                
  21763993.130                        4873.050          27.000                  
                                                
  22446520.281                         513.539          25.000                  
                                                
  20177862.565    -7197589.005        4408.206          31.000                  
                                                
  24102269.075                        4789.950          29.000                  
                                                
  24020046.533     -177466.156        7867.108          33.000                  
                                                
  21474323.693   -10523939.075        6879.914          42.000                  
                                                
  19194620.553                        3823.749          22.000                  
                                                
  22188532.596    -1296072.206         719.840          39.000                  
                                                
  21046538.080    -8744970.911        5365.574          41.000                  
                                                
  19984856.800    -4640699.548        2556.131          41.000                  
                                                
  24529298.340                         419.094          25.000                  
                                                
  20328211.238                        3855.789          26.000                  
                                                
  20924182.823    -6430459.712        3749.568          33.000                  
                                                
 18  5 18 18 28 32.5000000  0 17G17R17R19R18G28R15G30G13R20R 9R16G 8
                                G 1G 7G 9G11G18
  23365774.528    -9719029.299        6165.277          47.000                  
                                                
  23211319.150       26668.919        -587.883          42.000                  
                                                
  19584089.825    -9588216.569        5736.999          40.000                  
                                                
  19434664.205    -3187590.918        1537.304          30.000                  
                                                
  21763525.622                        4872.874          27.000                  
                                                
  22446474.179                         511.496          25.000                  
                                                
  20177443.215    -7199792.863        4407.064          32.000                  
                                                
  24101813.415                        4791.693          29.000                  
                                                
  24019310.901     -181399.671        7867.583          33.000                  
                                                
  21473679.693   -10527378.994        6880.179          42.000                  
                                                
  19194264.298                        3827.550          22.000                  
                                                
  22188464.104    -1296431.988         719.903          39.000                  
                                                
  21046027.616    -8747653.535        5365.565          41.000                  
                                                
  19984613.799    -4641977.356        2555.985          41.000                  
                                                
  24529259.171                         415.130          25.000                  
                                                
  20327844.476                        3854.285          26.000                  
                                                
  20923820.957    -6432334.148        3748.810          33.000                  
                                                
 18  5 18 18 28 33.0000000  0 17G17R17R19R18G28R15G30G13R20R 9R16G 8
                                G 1G 7G 9G11G18
  23365187.978    -9722111.661        6164.853          46.000                  
                                                
  23211374.151       26963.362        -588.152          41.000                  
                                                
  19583553.754    -9591084.666        5736.415          40.000                  
                                                
  19434537.836    -3188359.545        1536.206          30.000                  
                                                
  21763060.492                        4871.556          26.000                  
                                                
  22446428.738                         510.055          22.000                  
                                                
  20177023.650    -7201996.573        4406.790          31.000                  
                                                
  24101357.647                        4791.713          24.000                  
                                                
  24018575.251     -185333.164        7867.671          33.000                  
                                                
  21473035.658   -10530818.905        6879.701          43.000                  
                                                
  19193904.345                        3823.511          15.000                  
                                                
  22188395.630    -1296791.740         719.436          38.000                  
                                                
  21045517.187    -8750336.015        5365.315          38.000                  
                                                
  19984370.816    -4643255.049        2555.118          40.000                  
                                                
  24529221.503                         415.715          23.000                  
                                                
  20327478.500                        3854.069          26.000                  
                                                
  20923460.271    -6434208.467        3748.933          36.000                  
                                                
 18  5 18 18 28 33.5000000  0 17G17R17R19R18G28R15G30G13R20R 9R16G 8
                                G 1G 7G 9G11G18
  23364601.409    -9725194.138        6164.954          46.000                  
                                                
  23211429.009       27257.653        -588.755          41.000                  
                                                
  19583017.594    -9593952.696        5735.624          40.000                  
                                                
  19434397.063    -3189128.084        1535.951          30.000                  
                                                
  21762595.450                        4872.518          26.000                  
                                                
  22446381.099                         510.924          22.000                  
                                                
  20176604.121    -7204200.374        4406.652          31.000                  
                                                
  24100901.237                        4794.476          24.000                  
                                                
  24017839.477     -189266.787        7867.184          33.000                  
                                                
  21472391.515   -10534258.923        6879.976          43.000                  
                                                
  19193542.854                        3820.544          15.000                  
                                                
  22188327.120    -1297151.674         719.973          38.000                  
                                                
  21045006.759    -8753018.483        5364.418          38.000                  
                                                
  19984127.815    -4644532.749        2554.769          40.000                  
                                                
  24529183.817                         416.899          23.000                  
                                                
  20327112.114                        3853.936          26.000                  
                                                
  20923101.336    -6436082.869        3748.401          36.000                  
                                                
 18  5 18 18 28 34.0000000  0 17G17R17R19R18G28R15G30G13R20R 9R16G 8
                                G 1G 7G 9G11G18
  23364014.858    -9728276.446        6164.724          46.000                  
                                                
  23211483.866       27552.004        -589.235          41.000                  
                                                
  19582481.470    -9596820.532        5734.560          37.000                  
                                                
  19434253.021    -3189896.611        1537.087          33.000                  
                                                
  21762130.159    -7377519.135        4873.652          29.000                  
                                                
  22446332.424                         512.561          22.000                  
                                                
  20176184.485    -7206403.979        4407.235          32.000                  
                                                
  24100443.504                        4790.667          26.000                  
                                                
  24017103.737     -193200.332        7866.421          34.000                  
                                                
  21471747.373   -10537698.887        6879.731          42.000                  
                                                
  19193183.365                        3820.544          20.000                  
                                                
  22188258.611    -1297511.536         719.940          38.000                  
                                                
  21044496.366    -8755700.770        5364.524          38.000                  
                                                
  19983884.832    -4645810.268        2555.310          39.000                  
                                                
  24529146.292                         422.445          21.000                  
                                                
  20326745.495                        3852.886          28.000                  
                                                
  20922743.812                        3749.595          34.000                  
                                                
 18  5 18 18 28 34.5000000  0 17G17R17R19R18G28R15G30G13R20R 9R16G 8
                                G 1G 7G 9G11G18
  23363428.343    -9731358.640        6164.489          46.000                  
                                                
  23211538.671       27846.462        -589.329          41.000                  
                                                
  19581945.292    -9599688.131        5734.727          37.000                  
                                                
  19434109.712    -3190664.590        1534.591          33.000                  
                                                
  21761664.331                        4871.970          29.000                  
                                                
  22446284.231                         515.100          22.000                  
                                                
  20175764.992    -7208607.297        4405.755          32.000                  
                                                
  24099986.682                        4784.986          26.000                  
                                                
  24016367.945     -197133.750        7866.240          34.000                  
                                                
  21471103.177   -10541138.776        6879.374          42.000                  
                                                
  19192825.324                        3818.381          20.000                  
                                                
  22188190.154    -1297871.171         718.358          38.000                  
                                                
  21043986.027    -8758382.826        5363.970          38.000                  
                                                
  19983641.885    -4647087.511        2554.458          39.000                  
                                                
  24529108.624                         422.114          21.000                  
                                                
  20326378.805                        3853.226          28.000                  
                                                
  20922386.682    -6439830.811        3747.600          34.000                  
                                                
 18  5 18 18 28 35.0000000  0 17G17R17R19R18G28R15G30G13R20R 9R16G 8
                                G 1G 7G 9G11G18
  23362841.900    -9734440.442        6162.943          44.000                  
                                                
  23211593.529       28141.340        -591.057          42.000                  
                                                
  19581409.239    -9602555.194        5731.874          35.000                  
                                                
  19433962.149    -3191432.241        1534.227          34.000                  
                                                
  21761198.736                        4871.642          29.000                  
                                                
  22446234.877                         513.512          18.000                  
                                                
  20175343.176    -7210810.819        4406.276          30.000                  
                                                
  24099529.557                        4786.340          28.000                  
                                                
  24015628.435     -201067.211        7864.688          34.000                  
                                                
  21470459.052   -10544578.274        6878.146          43.000                  
                                                
  19192467.085                        3819.315          17.000                  
                                                
  22188121.752    -1298230.431         717.954          38.000                  
                                                
  21043475.777    -8761064.417        5362.322          39.000                  
                                                
  19983399.027    -4648364.287        2553.475          39.000                  
                                                
  24529071.475                         416.116          19.000                  
                                                
  20326011.382                        3853.953          27.000                  
                                                
  20922029.570    -6441704.111        3745.551          31.000                  
                                                
 18  5 18 18 28 35.5000000  0 17G17R17R19R18G28R15G30G13R20R 9R16G 8
                                G 1G 7G 9G11G18
  23362255.349    -9737522.815        6163.982          44.000                  
                                                
  23211648.279       28435.489        -589.280          42.000                  
                                                
  19580873.097    -9605422.710        5734.153          35.000                  
                                                
  19433817.142    -3192199.913        1536.534          34.000                  
                                                
  21760734.624                        4874.284          29.000                  
                                                
  22446185.416                         513.011          18.000                  
                                                
  20174923.379                        4404.093          30.000                  
                                                
  24099072.521                        4786.901          28.000                  
                                                
  24014893.214     -205000.893        7866.463          34.000                  
                                                
  21469814.820   -10548018.376        6879.728          43.000                  
                                                
  19192108.133                        3820.050          17.000                  
                                                
  22188053.206    -1298590.486         718.590          38.000                  
                                                
  21042965.420    -8763746.510        5363.376          39.000                  
                                                
  19983156.062    -4649641.531        2553.368          39.000                  
                                                
  24529032.699                         414.452          19.000                  
                                                
  20325643.370                        3853.301          27.000                  
                                                
  20921671.832    -6443577.950        3746.869          31.000                  
                                                
 18  5 18 18 28 36.0000000  0 17G17R17R19R18G28R15G30G13R20R 9R16G 8
                                G 1G 7G 9G11G18
  23361668.888    -9740604.697        6163.975          43.000                  
                                                
  23211703.119       28730.125        -589.642          40.000                  
                                                
  19580337.080    -9608289.583        5732.254          35.000                  
                                                
  19433673.725    -3192967.425        1535.788          31.000                  
                                                
  21760270.029                        4874.968          25.000                  
                                                
  22446137.687                         510.363          13.000                  
                                                
  20174504.350    -7215216.989        4405.738          31.000                  
                                                
  24098616.843                        4787.190          27.000                  
                                                
  24014156.403     -208934.062        7865.817          34.000                  
                                                
  21469170.695   -10551458.009        6879.395          43.000                  
                                                
  19191747.143                        3818.942          19.000                  
                                                
  22187984.768    -1298949.983         719.402          37.000                  
                                                
  21042455.187    -8766428.005        5362.966          38.000                  
                                                
  19982913.168    -4650918.191        2552.938          38.000                  
                                                
  24528994.137                         415.324          21.000                  
                                                
  20325275.839                        3852.971          27.000                  
                                                
  20921301.032    -6445451.126        3746.611          32.000                  
                                                
 18  5 18 18 28 36.5000000  0 17G17R17R19R18G28R15G30G13R20R 9R16G 8
                                G 1G 7G 9G11G18
  23361082.373    -9743686.865        6162.557          43.000                  
                                                
  23211757.995       29024.347        -590.022          40.000                  
                                                
  19579801.152    -9611156.761        5732.818          35.000                  
                                                
  19433527.628    -3193735.170        1533.481          31.000                  
                                                
  21759804.934                        4871.472          25.000                  
                                                
  22446092.515                         509.030          13.000                  
                                                
  20174085.178                        4405.796          31.000                  
                                                
  24098161.308                        4787.562          27.000                  
                                                
  24013426.811     -212867.725        7865.423          34.000                  
                                                
  21468526.571   -10554898.123        6878.413          43.000                  
                                                
  19191388.440                        3821.112          19.000                  
                                                
  22187916.258    -1299309.836         718.522          37.000                  
                                                
  21041944.920    -8769109.776        5361.608          38.000                  
                                                
  19982670.221    -4652195.128        2552.597          38.000                  
                                                
  24528955.826                         414.795          21.000                  
                                                
  20324908.238                        3850.735          27.000                  
                                                
  20920945.224    -6447324.419        3744.361          32.000                  
                                                
 18  5 18 18 28 37.0000000  0 17G17R17R19R18G28R15G30G13R20R 9R16G 8
                                G 1G 7G 9G11G18
  23360495.965    -9746768.465        6160.564          45.000                  
                                                
  23211812.942       29319.215        -592.121          42.000                  
                                                
  19579265.332    -9614023.109        5730.104          36.000                  
                                                
  19433399.686    -3194502.112        1531.228          32.000                  
                                                
  21759340.107    -7392137.252        4868.923          31.000                  
                                                
  22446046.591                         505.060          22.000                  
                                                
  20173666.346                        4403.896          29.000                  
                                                
  24097705.309                        4785.913          29.000                  
                                                
  24012689.678     -216800.615        7862.947          36.000                  
                                                
  21467882.571   -10558337.480        6875.812          43.000                  
                                                
  19191028.558                        3820.908          16.000                  
                                                
  22187847.873    -1299669.080         716.155          39.000                  
                                                
  21041434.759    -8771790.848        5359.627          40.000                  
                                                
  19982427.417    -4653471.382        2549.544          38.000                  
                                                
  24528917.140                         414.169          20.000                  
                                                
  20324541.190                        3854.461          26.000                  
                                                
  20920588.629    -6449197.123        3742.365          34.000                  
                                                
 18  5 18 18 28 37.5000000  0 17G17R17R19R18G28R15G30G13R20R 9R16G 8
                                G 1G 7G 9G11G18
  23359909.736    -9749849.181        6162.451          45.000                  
                                                
  23211868.104       29614.921        -590.444          42.000                  
                                                
  19578729.744    -9616888.480        5732.057          36.000                  
                                                
  19433259.557    -3195268.107        1532.389          32.000                  
                                                
  21758875.674    -7394572.527        4872.122          31.000                  
                                                
  22446000.775                         502.400          22.000                  
                                                
  20173248.068                        4404.525          29.000                  
                                                
  24097249.738                        4782.473          29.000                  
                                                
  24011952.455     -220732.735        7865.855          36.000                  
                                                
  21467238.732   -10561776.101        6878.548          43.000                  
                                                
  19190668.658                        3820.213          16.000                  
                                                
  22187779.649    -1300027.500         718.414          39.000                  
                                                
  21040924.777    -8774470.923        5361.023          40.000                  
                                                
  19982184.773    -4654746.632        2552.109          38.000                  
                                                
  24528879.508                         418.575          20.000                  
                                                
  20324174.339                        3852.824          26.000                  
                                                
  20920232.285    -6451068.862        3745.542          34.000                  
                                                
 18  5 18 18 28 38.0000000  0 17G17R17R19R18G28R15G30G13R20R 9R16G 8
                                G 1G 7G 9G11G18
  23359323.382    -9752930.425        6161.371          44.000                  
                                                
  23211923.141       29910.001        -590.875          40.000                  
                                                
  19578194.048    -9619754.259        5730.462          35.000                  
                                                
  19433113.406    -3196034.709        1532.156          33.000                  
                                                
  21758409.507                        4869.381          29.000                  
                                                
  22445954.047                         509.941          22.000                  
                                                
  20172830.005                        4402.207          29.000                  
                                                
  24096794.489                        4784.045          27.000                  
                                                
  24011213.982     -224665.400        7864.845          34.000                  
                                                
  21466594.786   -10565215.277        6877.190          42.000                  
                                                
  19190310.098                        3818.295          14.000                  
                                                
  22187711.336    -1300386.477         716.676          40.000                  
                                                
  21040414.706    -8777151.515        5360.295          38.000                  
                                                
  19981942.040    -4656022.331        2550.760          35.000                  
                                                
  24528840.857                         414.726          24.000                  
                                                
  20323807.703                        3850.156          26.000                  
                                                
  20919881.999    -6452940.957        3743.037          32.000                  
                                                
 18  5 18 18 28 38.5000000  0 17G17R17R19R18G28R15G30G13R20R 9R16G 8
                                G 1G 7G 9G11G18
  23358737.046    -9756011.667        6163.020          44.000                  
                                                
  23211978.106       30205.048        -589.052          40.000                  
                                                
  19577658.317    -9622619.925        5731.485          35.000                  
                                                
  19432969.596    -3196800.5491       1533.312          33.000                  
                                                
  21757945.966                        4870.941          29.000                  
                                                
  22445905.962                         510.598          22.000                  
                                                
  20172412.406                        4401.308          29.000                  
                                                
  24096339.525                        4785.697          27.000                  
                                                
  24010477.564     -228597.5901       7866.125          34.000                  
                                                
  21465950.751   -10568654.515        6879.058          42.000                  
                                                
  19189949.840                        3820.007          14.000                  
                                                
  22187643.005    -1300745.488         718.595          39.000                  
                                                
  21039904.670    -8779831.986        5361.019          38.000                  
                                                
  19981699.308    -4657297.932        2551.553          35.000                  
                                                
  24528801.956                         416.984          23.000                  
                                                
  20323441.048                        3847.292          26.000                  
                                                
  20919529.979    -6454812.995        3745.372          32.000                  
                                                
 18  5 18 18 28 39.0000000  0 17G17R17R19R18G28R15G30G13R20R 9R16G 8
                                G 1G 7G 9G11G18
  23358150.692    -9759093.028        6162.478          44.000                  
                                                
  23212033.017       30499.919        -590.205          40.000                  
                                                
  19577122.568    -9625485.626        5730.647          35.000                  
                                                
  19432825.125    -3197566.898        1531.645          33.000                  
                                                
  21757482.033    -7401878.322        4872.896          29.000                  
                                                
  22445858.037                         512.688          24.000                  
                                                
  20171995.414                        4403.942          27.000                  
                                                
  24095885.009                        4786.139          27.000                  
                                                
  24009740.681     -232530.454        7865.264          34.000                  
                                                
  21465306.698   -10572093.890        6878.054          42.000                  
                                                
  19189590.137                        3818.603          17.000                  
                                                
  22187574.638    -1301104.650         718.002          41.000                  
                                                
  21039394.599    -8782512.543        5360.741          38.000                  
                                                
  19981456.557    -4658573.587        2550.327          35.000                  
                                                
  24528763.323                         415.838          24.000                  
                                                
  20323074.858                        3848.779          28.000                  
                                                
  20919174.940    -6456684.937        3743.055          30.000                  
                                                
 18  5 18 18 28 39.5000000  0 17G17R17R19R18G28R15G30G13R20R 9R16G 8
                                G 1G 7G 9G11G18
  23357564.284    -9762174.659        6163.786          44.000                  
                                                
  23212087.839       30794.490        -589.228          40.000                  
                                                
  19576586.730    -9628351.483        5732.071          35.000                  
                                                
  19432680.565    -3198333.450        1533.187          33.000                  
                                                
  21757017.528    -7404314.639        4874.325          29.000                  
                                                
  22445809.541                         515.384          24.000                  
                                                
  20171578.780                        4403.179          27.000                  
                                                
  24095430.671                        4784.380          27.000                  
                                                
  24009004.120     -236463.613        7866.043          34.000                  
                                                
  21464662.537   -10575533.612        6880.128          42.000                  
                                                
  19189226.324                        3821.925          17.000                  
                                                
  22187506.217    -1301464.104         719.398          41.000                  
                                                
  21038884.492    -8785193.258        5362.005          38.000                  
                                                
  19981213.753    -4659849.421        2551.955          35.000                  
                                                
  24528724.154                         416.038          24.000                  
                                                
  20322708.704                        3849.785          28.000                  
                                                
  20918818.560                        3744.693          30.000                  
                                                
 18  5 18 18 28 40.0000000  0 17G17R17R19R18G28R15G30G13R20R 9R16G 8
                                G 1G 7G 9G11G18
  23356977.715    -9765257.133        6163.821          45.000                  
                                                
  23212142.572       31088.128        -588.480          41.000                  
                                                
  19576050.838    -9631218.117        5732.376          36.000                  
                                                
  19432535.647    -3199100.748        1533.100          34.000                  
                                                
  21756552.754    -7406751.918        4874.294          31.000                  
                                                
  22445761.151                         512.043          26.000                  
                                                
  20171161.699                        4405.157          28.000                  
                                                
  24094976.191                        4789.062          28.000                  
                                                
  24008267.613     -240397.699        7867.271          34.000                  
                                                
  21464018.306   -10578974.182        6880.156          42.000                  
                                                
  19188863.207                        3819.844          17.000                  
                                                
  22187437.636    -1301824.414         719.426          41.000                  
                                                
  21038374.224    -8787874.731        5361.695          39.000                  
                                                
  19980970.788    -4661125.987        2551.658          34.000                  
                                                
  24528683.145                         422.642          24.000                  
                                                
  20322342.514    -6546241.705        3849.507          28.000                  
                                                
  20918462.305                        3746.545          29.000                  
                                                
 18  5 18 18 28 40.5000000  0 17G17R17R19R18G28R15G30G13R20R 9R16G 8
                                G 1G 7G 9G11G18
  23356391.290    -9768338.914        6163.638          45.000                  
                                                
  23212197.341       31382.443        -588.752          41.000                  
                                                
  19575515.017    -9634083.883        5732.293          36.000                  
                                                
  19432385.244    -3199867.787        1533.896          34.000                  
                                                
  21756088.463    -7409188.499        4872.708          31.000                  
                                                
  22445713.030                         514.909          26.000                  
                                                
  20170743.886    -7235034.919        4405.273          28.000                  
                                                
  24094520.888                        4787.381          28.000                  
                                                
  24007531.248     -244331.118        7866.789          34.000                  
                                                
  21463374.092   -10582414.142        6880.020          42.000                  
                                                
  19188502.378                        3822.520          17.000                  
                                                
  22187369.180    -1302184.100         719.106          41.000                  
                                                
  21037864.117    -8790555.441        5361.411          39.000                  
                                                
  19980727.965    -4662401.760        2552.011          34.000                  
                                                
  24528641.528                         422.723          24.000                  
                                                
  20321976.039    -6548166.950        3849.199          28.000                  
                                                
  20918106.980                        3744.978          29.000                  
                                                
 18  5 18 18 28 41.0000000  0 17G17R17R19R18G28R15G30G13R20R 9R16G 8
                                G 1G 7G 9G11G18
  23355804.846    -9771420.784        6165.560          45.000                  
                                                
  23212252.109       31676.621        -585.906          40.000                  
                                                
  19574979.250    -9636949.561        5733.106          37.000                  
                                                
  19432241.648                        1530.832          29.000                  
                                                
  21755624.798    -7411625.335        4875.924          32.000                  
                                                
  22445665.087                         512.247          25.000                  
                                                
  20170325.536                        4404.702          29.000                  
                                                
  24094065.603    -3232211.600        4788.596          29.000                  
                                                
  24006794.919     -248264.638        7868.497          32.000                  
                                                
  21462729.895   -10585854.175        6881.969          43.000                  
                                                
  19188142.139                        3828.905          13.000                  
                                                
  22187300.688    -1302543.901         721.580          40.000                  
                                                
  21037354.010    -8793236.120        5363.160          38.000                  
                                                
  19980485.090    -4663677.550        2553.052          34.000                  
                                                
  24528601.251                         420.988          23.000                  
                                                
  20321609.563    -6550092.132        3852.199          30.000                  
                                                
  20917752.333    -6464174.658        3745.945          27.000                  
                                                
 18  5 18 18 28 41.5000000  0 17G17R17R19R18G28R15G30G13R20R 9R16G 8
                                G 1G 7G 9G11G18
  23355218.582    -9774501.719        6162.178          45.000                  
                                                
  23212307.092       31971.689        -589.776          40.000                  
                                                
  19574443.680    -9639814.291        5729.872          37.000                  
                                                
  19432098.196                        1529.825          29.000                  
                                                
  21755161.419    -7414061.205        4872.061          32.000                  
                                                
  22445617.645                         509.014          25.000                  
                                                
  20169907.705                        4401.498          29.000                  
                                                
  24093610.157                        4782.573          29.000                  
                                                
  24006058.894     -252197.297        7866.266          32.000                  
                                                
  21462085.914   -10589293.320        6878.345          43.000                  
                                                
  19187782.882                        3837.608          13.000                  
                                                
  22187232.375    -1302902.820         718.517          40.000                  
                                                
  21036844.082    -8795915.838        5359.719          38.000                  
                                                
  19980242.410    -4664952.269        2549.111          34.000                  
                                                
  24528561.421                         418.417          23.000                  
                                                
  20321241.800    -6552016.356        3849.621          30.000                  
                                                
  20917397.329                        3743.417          27.000                  
                                                
 18  5 18 18 28 42.0000000  0 17G17R17R19R18G28R15G30G13R20R 9R16G 8
                                G 1G 7G 9G11G18
  23354632.299    -9777582.791        6160.933          45.000                  
                                                
  23212362.004       32266.586        -590.883          41.000                  
                                                
  19573908.056    -9642678.999        5728.094          38.000                  
                                                
  19431954.547    -3202164.177        1530.837          28.000                  
                                                
  21754703.989    -7416497.267        4870.995          33.000                  
                                                
  22445569.560                         509.783          26.000                  
                                                
  20169490.213                        4402.038          27.000                  
                                                
  24093154.622    -3236995.441        4783.660          30.000                  
                                                
  24005322.869     -256130.064        7864.342          32.000                  
                                                
  21461441.861   -10592732.657        6877.373          43.000                  
                                                
  19187424.304                        3839.926           2.000                  
                                                
  22187164.026    -1303261.895         717.064          40.000                  
                                                
  21036334.136    -8798595.615        5357.974          39.000                  
                                                
  19979999.696    -4666227.123        2548.014          35.000                  
                                                
  24528520.626                         423.645          18.000                  
                                                
  20320877.254    -6553940.522        3846.970          31.000                  
                                                
  20917042.111                        3740.753          27.000                  
                                                
 18  5 18 18 28 42.5000000  0 17G17R17R19R18G28R15G30G13R20R 9R16G 8
                                G 1G 7G 9G11G18
  23354046.088    -9780663.472        6162.497          45.000                  
                                                
  23212417.023       32561.849        -589.385          41.000                  
                                                
  19573372.575    -9645543.194        5729.624          38.000                  
                                                
  19431810.826                        1528.641          28.000                  
                                                
  21754245.399    -7418933.014        4872.562          33.000                  
                                                
  22445521.063                         511.699          26.000                  
                                                
  20169072.185                        4400.243          27.000                  
                                                
  24092698.891    -3239386.941        4785.157          30.000                  
                                                
  24004587.023     -260062.499        7867.037          32.000                  
                                                
  21460797.915   -10596171.632        6879.084          43.000                  
                                                
  19187061.670                        3834.638           2.000                  
                                                
  22187095.748    -1303620.606         718.301          40.000                  
                                                
  21035824.279    -8801274.901        5359.473          39.000                  
                                                
  19979757.088    -4667501.456        2549.635          35.000                  
                                                
  24528481.118                         418.754          18.000                  
                                                
  20320510.779                        3847.301          31.000                  
                                                
  20916686.857                        3738.503          27.000                  
                                                
 18  5 18 18 28 43.0000000  0 17G17R17R19R18G28R15G30G13R20R 9R16G 8
                                G 1G 7G 9G11G18
  23353459.841    -9783744.318        6162.082          46.000                  
                                                
  23212472.023       32856.864        -589.568          40.000                  
                                                
  19572837.112    -9648407.411        5728.161          38.000                  
                                                
  19431666.784                        1527.381          27.000                  
                                                
  21753783.574    -7421368.9911       4871.468          32.000                  
                                                
  22445472.835                         508.738          25.000                  
                                                
  20168653.639                        4403.190          28.000                  
                                                
  24092238.638    -3241778.4831       4783.059          32.000                  
                                                
  24003851.034     -263995.097        7865.778          31.000                  
                                                
  21460153.933   -10599610.801        6878.590          44.000                  
                                                
  19186702.878                        3830.220           1.000                  
                                                
  22187027.435    -1303979.532         718.250          41.000                  
                                                
  21035314.404    -8803954.273        5359.017          38.000                  
                                                
  19979514.444    -4668775.901        2549.088          35.000                  
                                                
  24528442.199                         417.213          22.000                  
                                                
  20320144.928    -6557787.574        3849.096          30.000                  
                                                
  20916331.496    -6471657.961        3739.355          27.000                  
                                                
 18  5 18 18 28 43.5000000  0 17G17R17R19R18G28R15G30G13R20R 9R16G 8
                                G 1G 7G 9G11G18
  23352873.576    -9786825.275        6161.034          46.000                  
                                                
  23212526.971       33151.721        -590.566          40.000                  
                                                
  19572301.613    -9651271.663        5727.629          38.000                  
                                                
  19431522.563                        1529.192          27.000                  
                                                
  21753322.321    -7423805.223        4872.057          32.000                  
                                                
  22445424.517                         509.471          25.000                  
                                                
  20168234.682                        4402.303          28.000                  
                                                
  24091780.727    -3244170.090        4781.775          32.000                  
                                                
  24003114.991     -267927.838        7864.407          31.000                  
                                                
  21459509.898   -10603050.119        6877.785          44.000                  
                                                
  19186345.087                        3819.951           1.000                  
                                                
  22186959.104    -1304338.578         717.354          41.000                  
                                                
  21034804.530    -8806633.689        5358.266          38.000                  
                                                
  19979271.837    -4670050.320        2547.528          35.000                  
                                                
  24528402.834                         416.062          22.000                  
                                                
  20319779.257    -6559711.370        3848.056          29.000                  
                                                
  20915975.527                        3739.950          27.000                  
                                                
 18  5 18 18 28 44.0000000  0 17G17R17R19R18G28R15G30G13R20R 9R16G 8
                                G 1G 7G 9G11G18
  23352287.311    -9789906.310        6161.967          46.000                  
                                                
  23212581.918       33446.437        -589.449          41.000                  
                                                
  19571766.132    -9654135.851        5728.190          39.000                  
                                                
  19431378.217                        1531.288          28.000                  
                                                
  21752861.086    -7426241.472        4873.003          33.000                  
                                                
  22445375.788                         508.382          25.000                  
                                                
  20167815.868                        4400.810          27.000                  
                                                
  24091324.102    -3246561.693        4782.861          32.000                  
                                                
  24002371.872                        7864.346          30.000                  
                                                
  21458865.862   -10606489.587        6878.894          44.000                  
                                                
  19185987.510                        3819.951           1.000                  
                                                
  22186890.737    -1304697.720         718.315          41.000                  
                                                
  21034294.637    -8809313.111        5358.883          39.000                  
                                                
  19979029.211    -4671324.771        2548.184          35.000                  
                                                
  24528362.914                         416.178          24.000                  
                                                
  20319413.227    -6561635.691        3847.206          30.000                  
                                                
  20915619.379                        3741.691          29.000                  
                                                
 18  5 18 18 28 44.5000000  0 17G17R17R19R18G28R15G30G13R20R 9R16G 8
                                G 1G 7G 9G11G18
  23351700.975    -9792987.574        6162.138          46.000                  
                                                
  23212636.847       33740.871        -589.213          41.000                  
                                                
  19571230.669    -9657000.173        5727.942          39.000                  
                                                
  19431233.728                        1526.924          28.000                  
                                                
  21752397.474    -7428678.045        4872.667          33.000                  
                                                
  22445327.238                         512.857          25.000                  
                                                
  20167397.053                        4400.991          27.000                  
                                                
  24090867.745    -3248953.506        4783.255          32.000                  
                                                
  24001635.579     -275794.444        7865.793          30.000                  
                                                
  21458221.791   -10609929.319        6878.935          44.000                  
                                                
  19185630.344                        3815.951           1.000                  
                                                
  22186822.316    -1305057.190         718.589          41.000                  
                                                
  21033784.726    -8811992.682        5358.634          39.000                  
                                                
  19978786.568    -4672599.382        2548.711          35.000                  
                                                
  24528323.174                         418.638          24.000                  
                                                
  20319046.698    -6563559.639        3847.302          30.000                  
                                                
  20915263.107                        3738.472          29.000                  
                                                
 18  5 18 18 28 45.0000000  0 17G17R17R19R18G28R15G30G13R20R 9R16G 8
                                G 1G 7G 9G11G18
  23351114.657    -9796068.793        6162.177          47.000                  
                                                
  23212691.759       34035.340        -589.168          40.000                  
                                                
  19570695.206    -9659864.329        5727.876          38.000                  
                                                
  19431088.471                        1529.098          24.000                  
                                                
  21751934.130    -7431114.629        4873.272          33.000                  
                                                
  22445278.616                         512.901          21.000                  
                                                
  20166978.311    -7254844.870        4400.711          29.000                  
                                                
  24090412.531    -3251345.149        4782.897          33.000                  
                                                
  24000899.071     -279727.611        7866.560          30.000                  
                                                
  21457577.720   -10613369.053        6879.253          44.000                  
                                                
  19185273.160                        3815.951           1.000                  
                                                
  22186753.896    -1305416.616         718.702          41.000                  
                                                
  21033274.852    -8814672.112        5358.781          38.000                  
                                                
  19978543.960    -4673873.790        2548.530          35.000                  
                                                
  24528283.272                         418.871          22.000                  
                                                
  20318680.222                        3848.309          28.000                  
                                                
  20914906.423                        3741.567          26.000                  
                                                
 18  5 18 18 28 45.5000000  0 17G17R17R19R18G28R15G30G13R20R 9R16G 8
                                G 1G 7G 9G11G18
  23350528.374    -9799149.873        6162.328          46.000                  
                                                
  23212746.652       34329.916        -588.856          40.000                  
                                                
  19570159.742    -9662728.211        5727.915          38.000                  
                                                
  19430943.088                        1528.425          24.000                  
                                                
  21751470.625    -7433551.081        4873.213          33.000                  
                                                
  22445230.888                         516.950           1.000                  
                                                
  20166559.175                        4401.842          29.000                  
                                                
  24089957.175    -3253736.593        4782.997          33.000                  
                                                
  24000162.278     -283660.565        7867.617          30.000                  
                                                
  21456933.613   -10616808.689        6879.401          44.000                  
                                                
  19184915.940                        3815.951           1.000                  
                                                
  22186685.511    -1305775.904         718.784          41.000                  
                                                
  21032764.995    -8817351.317        5358.401          38.000                  
                                                
  19978301.406    -4675147.999        2548.372          35.000                  
                                                
  24528243.388                         418.698          22.000                  
                                                
  20318313.782                        3848.307          28.000                  
                                                
  20914549.436    -6481010.732        3741.270          26.000                  
                                                
 18  5 18 18 28 46.0000000  0 17G17R17R19R18G28R15G30G13R20R 9R16G 8
                                G 1G 7G 9G11G18
  23349942.038    -9802231.167        6160.491          45.000                  
                                                
  23212801.492       34624.213        -590.512          41.000                  
                                                
  19569624.261    -9665592.180        5725.510          39.000                  
                                                
  19430798.314                        1529.603          27.000                  
                                                
  21751006.102                        4873.834          33.000                  
                                                
  22445182.463                         516.950           1.000                  
                                                
  20166138.913                        4403.789          27.000                  
                                                
  24089501.926    -3256128.162        4780.339          33.000                  
                                                
  23999425.270     -287593.808        7863.290          30.000                  
                                                
  21456289.453   -10620248.572        6877.552          44.000                  
                                                
  19184558.721                        3815.951           1.000                  
                                                
  22186617.073    -1306135.492         717.282          40.000                  
                                                
  21032253.298                        5359.086          37.000                  
                                                
  19978058.798    -4676422.447        2549.271          35.000                  
                                                
  24528203.076                         422.023          23.000                  
                                                
  20317947.878                        3850.069          28.000                  
                                                
  20914192.985                        3741.303          32.000                  
                                                
 18  5 18 18 28 46.5000000  0 17G17R17R19R18G28R15G30G13R20R 9R16G 8
                                G 1G 7G 9G11G18
  23349356.023    -9805310.798        6159.960          45.000                  
                                                
  23212856.636       34920.185        -591.140          41.000                  
                                                
  19569089.120    -9668454.375        5725.317          39.000                  
                                                
  19430653.950                        1528.191          27.000                  
                                                
  21750542.669    -7438423.401        4870.625          33.000                  
                                                
  22445134.628                         508.993           1.000                  
                                                
  20165718.723                        4402.400          27.000                  
                                                
  24089047.195    -3258517.972        4780.118          33.000                  
                                                
  23998661.190     -291525.410        7863.867          30.000                  
                                                
  21455645.596   -10623686.785        6877.290          44.000                  
                                                
  19184201.554                        3814.951           1.000                  
                                                
  22186548.974    -1306493.374         716.786          40.000                  
                                                
  21031743.548    -8822709.257        5355.710          37.000                  
                                                
  19977809.311    -4677695.383        2546.085          35.000                  
                                                
  24528162.299                         419.793          23.000                  
                                                
  20317583.172                        3843.977          28.000                  
                                                
  20913837.105    -6484750.150        3737.248          32.000                  
                                                
 18  5 18 18 28 47.0000000  0 17G17R17R19R18G28R15G30G13R20R 9R16G 8
                                G 1G 7G 9G11G18
  23348769.883    -9808391.009        6161.508          44.000                  
                                                
  23212911.673       35215.493        -589.534          41.000                  
                                                
  19568553.907    -9671317.003        5726.386          39.000                  
                                                
  19430509.407                        1527.094          21.000                  
                                                
  21750079.022    -7440859.212        4872.933          34.000                  
                                                
  22445086.953                         508.993           1.000                  
                                                
  20165298.783                        4401.283          27.000                  
                                                
  24088592.232    -3260908.321        4782.445          33.000                  
                                                
  23997899.666                        7863.698          30.000                  
                                                
  21455001.650   -10627125.614        6878.798          45.000                  
                                                
  19183844.335                        3814.004          21.000                  
                                                
  22186480.732    -1306851.905         718.206          40.000                  
                                                
  21031233.977    -8825387.383        5357.612          38.000                  
                                                
  19977566.649    -4678968.450        2547.636          32.000                  
                                                
  24528121.861                         418.190          22.000                  
                                                
  20317218.876                        3842.599          28.000                  
                                                
  20913481.440    -6486619.266        3739.454          31.000                  
                                                
 18  5 18 18 28 47.5000000  0 17G17R17R19R18G28R15G30G13R20R 9R16G 8
                                G 1G 7G 9G11G18
  23348183.690    -9811471.620        6160.827          44.000                  
                                                
  23212966.638       35510.346        -590.075          41.000                  
                                                
  19568018.640    -9674179.941        5725.476          39.000                  
                                                
  19430365.079                        1529.677          21.000                  
                                                
  21749609.978    -7443295.444        4872.726          34.000                  
                                                
  22445039.279                         508.993           1.000                  
                                                
  20164879.165                        4400.458          27.000                  
                                                
  24088137.394    -3263298.954        4780.966          33.000                  
                                                
  23997162.908     -299390.330        7865.579          30.000                  
                                                
  21454357.615   -10630564.927        6878.349          45.000                  
                                                
  19183486.740                        3815.241          21.000                  
                                                
  22186412.419    -1307210.851         717.641          40.000                  
                                                
  21030725.353    -8828065.797        5356.443          38.000                  
                                                
  19977326.097    -4680241.769        2546.187          32.000                  
                                                
  24528081.424                         419.018          22.000                  
                                                
  20316854.240                        3844.727          28.000                  
                                                
  20913126.115                        3739.628          31.000                  
                                                
 18  5 18 18 28 48.0000000  0 17G17R17R19R18G28R15G30G13R20R 9R16G 8
                                G 1G 7G 9G11G18
  23347597.372    -9814552.824        6163.492          45.000                  
                                                
  23213021.460       35804.520        -587.437          41.000                  
                                                
  19567483.267    -9677043.370        5727.790          38.000                  
                                                
  19430221.877                        1525.767          22.000                  
                                                
  21749146.312    -7445732.364        4875.102          35.000                  
                                                
  22444991.604                         508.993           1.000                  
                                                
  20164459.779                        4400.391          27.000                  
                                                
  24087682.359    -3265690.126        4782.238          33.000                  
                                                
  23996425.990     -303323.652        7867.930          30.000                  
                                                
  21453713.454   -10634004.872        6880.839          45.000                  
                                                
  19183130.217                        3811.827          22.000                  
                                                
  22186343.980    -1307570.469         720.360          42.000                  
                                                
  21030220.553    -8830744.735        5358.830          39.000                  
                                                
  19977077.967    -4681515.707        2549.304          33.000                  
                                                
  24528039.985                         418.740          21.000                  
                                                
  20316489.945                        3844.191          29.000                  
                                                
  20912770.628    -6490358.471        3740.801          30.000                  
                                                
 18  5 18 18 28 48.5000000  0 17G17R17R19R18G28R15G30G13R20R 9R16G 8
                                G 1G 7G 9G11G18
  23347011.000    -9817634.249        6162.451          45.000                  
                                                
  23213076.229       36098.443        -588.232          41.000                  
                                                
  19566947.839    -9679906.921        5726.966          38.000                  
                                                
  19430078.728                        1530.368          22.000                  
                                                
  21748683.648    -7448169.528        4874.277          35.000                  
                                                
  22444943.983                         507.993           1.000                  
                                                
  20164039.982                        4403.706          27.000                  
                                                
  24087227.271    -3268081.498        4782.754          33.000                  
                                                
  23995689.625     -307257.196        7866.605          30.000                  
                                                
  21453069.223   -10637445.101        6880.376          45.000                  
                                                
  19182773.802                        3816.493          22.000                  
                                                
  22186275.506    -1307930.355         719.913          42.000                  
                                                
  21029710.428    -8833423.832        5357.965          39.000                  
                                                
  19976837.325    -4682789.738        2547.505          33.000                  
                                                
  24527997.975                         418.069          21.000                  
                                                
  20316125.077    -6578945.508        3846.040          29.000                  
                                                
  20912415.374    -6492228.398        3739.359          30.000                  
                                                
 18  5 18 18 28 49.0000000  0 17G17R17R19R18G28R15G30G13R20R 9R16G 8
                                G 1G 7G 9G11G18
  23346424.753    -9820715.099        6160.507          45.000                  
                                                
  23213131.087       36392.899        -589.666          41.000                  
                                                
  19566412.555    -9682769.752        5724.727          34.000                  
                                                
  19429933.042                        1534.275          14.000                  
                                                
  21748218.678    -7450605.6561       4872.112          35.000                  
                                                
  22444896.380                         507.993           1.000                  
                                                
  20163619.453                        4408.827          20.000                  
                                                
  24086772.200    -3270472.144        4780.694          34.000                  
                                                
  23994953.815                        7867.499          29.000                  
                                                
  21452425.098   -10640884.741        6877.937          44.000                  
                                                
  19182416.868                        3818.317          21.000                  
                                                
  22186207.139    -1308289.625         717.614          42.000                  
                                                
  21029200.214    -8836102.2521       5355.739          39.000                  
                                                
  19976597.523    -4684062.5571       2545.677          34.000                  
                                                
  24527956.215                         420.237          22.000                  
                                                
  20315759.799                        3845.769          30.000                  
                                                
  20912062.104    -6494097.558        3736.833          31.000                  
                                                
 18  5 18 18 28 49.5000000  0 17G17R17R19R18G28R15G30G13R20R 9R16G 8
                                G 1G 7G 9G11G18
  23345838.560    -9823795.603        6161.423          45.000                  
                                                
  23213186.302       36687.699        -588.981          41.000                  
                                                
  19565877.645    -9685632.106        5725.174          34.000                  
                                                
  19429788.392                        1534.686          14.000                  
                                                
  21747754.941    -7453041.961        4873.239          35.000                  
                                                
  22444849.063                         507.993           1.000                  
                                                
  20163198.566                        4402.426          20.000                  
                                                
  24086317.273    -3272862.365        4781.109          34.000                  
                                                
  23994218.058                        7864.547          29.000                  
                                                
  21451781.331   -10644324.101        6879.224          44.000                  
                                                
  19182059.327                        3816.092          21.000                  
                                                
  22186138.826    -1308648.588         718.442          42.000                  
                                                
  21028690.357    -8838780.244        5356.271          39.000                  
                                                
  19976355.952    -4685335.488        2546.278          34.000                  
                                                
  24527914.366                         421.623          22.000                  
                                                
  20315395.181                        3843.829          30.000                  
                                                
  20911707.100                        3736.693          31.000                  
                                                
 18  5 18 18 28 50.0000000  0 17G17R17R19R18G28R15G30G13R20R 9R16G 8
                                G 1G 7G 9G11G18
  23345252.348    -9826876.214        6160.896          44.000                  
                                                
  23213241.464       36982.290        -589.469          42.000                  
                                                
  19565342.701    -9688494.502        5724.229          35.000                  
                                                
  19429644.886                        1533.331          14.000                  
                                                
  21747291.204    -7455478.456        4872.790          34.000                  
                                                
  22444801.728                         507.993           1.000                  
                                                
  20162777.303                        4400.219          22.000                  
                                                
  24085862.238    -3275252.619        4779.898          32.000                  
                                                
  23993482.444     -319056.285        7865.652          29.000                  
                                                
  21451137.492   -10647763.607        6878.736          44.000                  
                                                
  19181701.231                        3808.396          22.000                  
                                                
  22186070.495    -1309007.726         718.015          42.000                  
                                                
  21028180.393    -8841458.282        5355.694          39.000                  
                                                
  19976114.362    -4686608.400        2545.437          35.000                  
                                                
  24527873.911                         417.776          19.000                  
                                                
  20315030.171    -6584712.974        3844.198          30.000                  
                                                
  20911351.685                        3738.254          30.000                  
                                                
 18  5 18 18 28 50.5000000  0 17G17R17R19R18G28R15G30G13R20R 9R16G 8
                                G 1G 7G 9G11G18
  23344666.227    -9829956.353        6160.582          44.000                  
                                                
  23213296.732       37277.332        -589.507          42.000                  
                                                
  19564807.881    -9691356.288        5724.062          35.000                  
                                                
  19429499.271                        1526.205          14.000                  
                                                
  21746827.914    -7457914.480        4872.398          34.000                  
                                                
  22444754.411                         507.993           1.000                  
                                                
  20162357.024                        4397.574          22.000                  
                                                
  24085407.293    -3277642.367        4780.040          32.000                  
                                                
  23992747.330     -322988.691        7864.989          29.000                  
                                                
  21450493.778   -10651202.677        6878.612          44.000                  
                                                
  19181342.421                        3812.133          22.000                  
                                                
  22186002.235    -1309366.420         717.988          42.000                  
                                                
  21027670.733    -8844135.744        5355.407          39.000                  
                                                
  19975872.291    -4687880.794        2545.296          35.000                  
                                                
  24527833.401                         420.105          19.000                  
                                                
  20314665.214    -6586634.611        3843.469          30.000                  
                                                
  20910995.662                        3739.138          30.000                  
                                                
 18  5 18 18 28 51.0000000  0 17G17R17R19R18G28R15G30G13R20R 9R16G 8
                                G 1G 7G 9G11G18
  23344080.141    -9833036.389        6160.619          45.000                  
                                                
  23213352.001       37572.443        -589.912          42.000                  
                                                
  19564273.097    -9694217.841        5723.320          36.000                  
                                                
  19429353.389                        1526.276          21.000                  
                                                
  21746364.588    -7460350.508        4871.804          34.000                  
                                                
  22444707.093                         507.993           1.000                  
                                                
  20161936.816                        4396.855          25.000                  
                                                
  24084952.437    -3280031.928        4779.324          33.000                  
                                                
  23992016.862     -326921.030        7865.247          30.000                  
                                                
  21449850.082   -10654641.683        6878.507          44.000                  
                                                
  19180983.897                        3806.985          20.000                  
                                                
  22185933.994    -1309725.033         717.958          42.000                  
                                                
  21027160.858    -8846813.045        5354.792          39.000                  
                                                
  19975630.344    -4689153.014        2544.760          34.000                  
                                                
  24527791.820                         419.072          20.000                  
                                                
  20314303.759    -6588556.040        3843.898          32.000                  
                                                
  20910639.711                        3736.347          29.000                  
                                                
 18  5 18 18 28 51.5000000  0 17G17R17R19R18G28R15G30G13R20R 9R16G 8
                                G 1G 7G 9G11G18
  23343494.037    -9836116.464        6160.037          44.000                  
                                                
  23213407.074       37867.397        -589.392          42.000                  
                                                
  19563738.134    -9697079.378        5723.539          36.000                  
                                                
  19429209.096                        1522.192          21.000                  
                                                
  21745901.119    -7462786.634        4871.934          34.000                  
                                                
  22444659.598                         507.993           1.000                  
                                                
  20161516.554                        4397.486          25.000                  
                                                
  24084497.688    -3282421.420        4778.252          33.000                  
                                                
  23991301.297     -330853.515        7866.026          30.000                  
                                                
  21449206.172   -10658080.803        6878.681          44.000                  
                                                
  19180626.070                        3809.638          20.000                  
                                                
  22185865.734    -1310083.714         717.345          42.000                  
                                                
  21026651.144    -8849490.292        5353.822          39.000                  
                                                
  19975388.415    -4690425.118        2544.292          34.000                  
                                                
  24527748.649                         419.477          19.000                  
                                                
  20313946.343    -6590477.381        3842.481          32.000                  
                                                
  20910284.368                        3736.014          29.000                  
                                                
 18  5 18 18 28 52.0000000  0 17G17R17R19R18G28R15G30G13R20R 9R16G 8
                                G 1G 7G 9G11G18
  23342907.933    -9839196.474        6159.417          44.000                  
                                                
  23213462.253       38162.412        -590.271          42.000                  
                                                
  19563203.332    -9699940.683        5722.597          36.000                  
                                                
  19429065.161                        1523.714          18.000                  
                                                
  21745437.614    -7465222.789        4872.130          35.000                  
                                                
  22444612.209                         507.993           1.000                  
                                                
  20161096.793                        4398.450          24.000                  
                                                
  24084042.993    -3284810.804        4778.123          33.000                  
                                                
  23990570.418     -334785.840        7863.734          33.000                  
                                                
  21448562.405   -10661519.854        6877.668          45.000                  
                                                
  19180268.904                        3810.417          23.000                  
                                                
  22185797.492    -1310442.373         716.698          42.000                  
                                                
  21026141.466    -8852167.426        5353.558          39.000                  
                                                
  19975146.576    -4691697.089        2542.938          35.000                  
                                                
  24527707.872                         414.405          19.000                  
                                                
  20313581.225    -6592398.589        3841.773          31.000                  
                                                
  20909929.132                        3734.528          27.000                  
                                                
 18  5 18 18 28 52.5000000  0 17G17R17R19R18G28R15G30G13R20R 9R16G 8
                                G 1G 7G 9G11G18
  23342321.864    -9842276.343        6159.736          44.000                  
                                                
  23213517.486       38457.558        -590.358          42.000                  
                                                
  19562668.601    -9702801.710        5722.197          36.000                  
                                                
  19428924.925                        1522.579          18.000                  
                                                
  21744974.128    -7467658.794        4872.260          35.000                  
                                                
  22444564.910                         506.993           1.000                  
                                                
  20160677.854                        4394.718          24.000                  
                                                
  24083588.387    -3287200.012        4778.850          33.000                  
                                                
  23989837.288     -338718.1541       7864.909          33.000                  
                                                
  21447918.655   -10664958.823        6877.998          45.000                  
                                                
  19179911.720                        3810.592          23.000                  
                                                
  22185729.250    -1310800.914         717.425          42.000                  
                                                
  21025631.931    -8854844.321        5353.838          39.000                  
                                                
  19974904.772    -4692968.823        2542.903          35.000                  
                                                
  24527669.846                         418.293          19.000                  
                                                
  20313214.463    -6594319.556        3842.195          31.000                  
                                                
  20909574.432                        3734.935          27.000                  
                                                
 18  5 18 18 28 53.0000000  0 17G17R17R19R18G28R15G30G13R20R 9R16G 8
                                G 1G 7G 9G11G18
  23341735.760    -9845356.449        6160.613          44.000                  
                                                
  23213572.648       38752.390        -588.518          42.000                  
                                                
  19562133.817    -9705662.868        5723.296          38.000                  
                                                
  19428785.297                        1524.075          26.000                  
                                                
  21744510.659    -7470095.128        4873.166          35.000                  
                                                
  22444517.610                         506.993           1.000                  
                                                
  20160259.433                        4396.837          27.000                  
                                                
  24083133.817    -3289589.277        4778.542          33.000                  
                                                
  23989105.230     -342650.634        7865.428          33.000                  
                                                
  21447274.852   -10668398.053        6879.290          45.000                  
                                                
  19179554.483                        3808.856          23.000                  
                                                
  22185660.973    -1311159.741         718.023          42.000                  
                                                
  21025122.378    -8857521.380        5354.527          39.000                  
                                                
  19974662.933    -4694240.767        2544.480          36.000                  
                                                
  24527630.534                         420.401          19.000                  
                                                
  20312848.202    -6596240.686        3842.771          32.000                  
                                                
  20909219.249    -6509043.912        3736.053          29.000                  
                                                
 18  5 18 18 28 53.5000000  0 17G17R17R19R18G28R15G30G13R20R 9R16G 8
                                G 1G 7G 9G11G18
  23341149.710    -9848436.228        6160.009          44.000                  
                                                
  23213627.845       39047.551        -589.705          42.000                  
                                                
  19561599.122    -9708523.533        5721.916          38.000                  
                                                
  19428644.685    -3219734.644        1522.798          26.000                  
                                                
  21744047.172    -7472531.176        4872.567          35.000                  
                                                
  22444470.311                         506.993           1.000                  
                                                
  20159841.780                        4397.014          27.000                  
                                                
  24082679.319    -3291978.158        4776.947          33.000                  
                                                
  23988372.564     -346582.869        7864.839          33.000                  
                                                
  21446631.085   -10671836.999        6878.390          45.000                  
                                                
  19179196.941                        3811.989          23.000                  
                                                
  22185592.749    -1311518.282         717.729          42.000                  
                                                
  21024612.879    -8860197.996        5353.290          39.000                  
                                                
  19974421.290    -4695512.231        2542.852          36.000                  
                                                
  24527591.276                         417.889          19.000                  
                                                
  20312482.137    -6598161.331        3841.045          32.000                  
                                                
  20908863.388    -6510911.081        3735.889          29.000                  
                                                
 18  5 18 18 28 54.0000000  0 17G17R17R19R18G28R15G30G13R20R 9R16G 8
                                G 1G 7G 9G11G18
  23340563.642    -9851516.036        6160.011          44.000                  
                                                
  23213683.061       39342.607        -589.593          42.000                  
                                                
  19561064.481    -9711384.129        5721.609          38.000                  
                                                
  19428503.181                        1523.170          28.000                  
                                                
  21743583.596    -7474967.275        4872.423          36.000                  
                                                
  22444423.047                         506.993           1.000                  
                                                
  20159424.664                        4395.576          28.000                  
                                                
  24082224.838    -3294367.051        4777.672          33.000                  
                                                
  23987640.292     -350515.196        7865.186          34.000                  
                                                
  21445987.354   -10675275.993        6878.318          45.000                  
                                                
  19178840.329                        3810.508          24.000                  
                                                
  22185524.507    -1311876.889         717.585          43.000                  
                                                
  21024103.397    -8862874.590        5353.306          40.000                  
                                                
  19974179.665    -4696783.671        2543.050          36.000                  
                                                
  24527551.196                         420.092          19.000                  
                                                
  20312115.250    -6600082.010        3841.763          32.000                  
                                                
  20908506.615                        3734.506          30.000                  
                                                
 18  5 18 18 28 54.5000000  0 17G17R17R19R18G28R15G30G13R20R 9R16G 8
                                G 1G 7G 9G11G18
  23339977.520    -9854596.155        6161.150          44.000                  
                                                
  23213738.187       39637.269        -588.041          42.000                  
                                                
  19560529.786    -9714244.990        5723.251          38.000                  
                                                
  19428361.533                        1524.786          28.000                  
                                                
  21743119.966    -7477403.739        4874.847          36.000                  
                                                
  22444375.516                         509.797          30.000                  
                                                
  20159007.708                        4395.946          28.000                  
                                                
  24081770.375    -3296756.163        4780.119          33.000                  
                                                
  23986907.072     -354447.855        7866.515          34.000                  
                                                
  21445343.515   -10678715.384        6879.496          45.000                  
                                                
  19178484.915                        3809.448          24.000                  
                                                
  22185456.212    -1312235.813         718.669          43.000                  
                                                
  21023593.880    -8865551.425        5354.042          40.000                  
                                                
  19973937.933    -4698055.311        2545.040          36.000                  
                                                
  24527511.598                         423.458          19.000                  
                                                
  20311748.810    -6602002.796        3840.994          32.000                  
                                                
  20908149.788                        3734.936          30.000                  
                                                
 18  5 18 18 28 55.0000000  0 17G17R17R19R18G28R15G30G13R20R 9R16G 8
                                G 1G 7G 9G11G18
  23339391.505    -9857675.768        6159.257          43.000                  
                                                
  23213793.420       39932.481        -590.162          43.000                  
                                                
  19559995.217    -9717105.114        5719.654          39.000                  
                                                
  19428219.653                        1524.367          27.000                  
                                                
  21742656.426    -7479839.809        4872.443          35.000                  
                                                
  22444327.734                         513.213          21.000                  
                                                
  20158591.413                        4395.782          28.000                  
                                                
  24081315.984    -3299144.648        4776.430          33.000                  
                                                
  23986173.870     -358379.975        7863.822          35.000                  
                                                
  21444699.765   -10682154.248        6877.703          45.000                  
                                                
  19178129.142                        3810.571          23.000                  
                                                
  22185388.006    -1312594.242         716.615          42.000                  
                                                
  21023084.523    -8868227.645        5351.718          40.000                  
                                                
  19973696.290    -4699326.327        2542.239          35.000                  
                                                
  24527473.233                         420.761          17.000                  
                                                
  20311382.281    -6603922.5451       3839.833          32.000                  
                                                
  20907792.783    -6516512.679        3733.423          29.000                  
                                                
 18  5 18 18 28 55.5000000  0 17G17R17R19R18G28R15G30G13R20R 9R16G 8
                                G 1G 7G 9G11G18
  23338805.473    -9860755.413        6159.564          43.000                  
                                                
  23213848.635       40227.510        -589.014          43.000                  
                                                
  19559460.665    -9719965.289        5721.210          39.000                  
                                                
  19428079.024    -3222781.471        1524.961          27.000                  
                                                
  21742192.939    -7482275.918        4872.924          35.000                  
                                                
  22444279.881                         509.417          21.000                  
                                                
  20158175.208                        4397.264          28.000                  
                                                
  24080861.556    -3301533.108        4777.188          33.000                  
                                                
  23985440.472     -362312.229        7865.319          35.000                  
                                                
  21444056.034   -10685593.242        6878.747          45.000                  
                                                
  19177772.923                        3812.721          23.000                  
                                                
  22185319.764    -1312952.773         717.372          42.000                  
                                                
  21022575.167    -8870903.855        5352.520          40.000                  
                                                
  19973454.648    -4700597.345        2542.615          35.000                  
                                                
  24527437.513                         421.688          18.000                  
                                                
  20311016.145    -6605842.720        3840.475          32.000                  
                                                
  20907436.350    -6518379.358        3733.565          29.000                  
                                                
 18  5 18 18 28 56.0000000  0 17G17R17R19R18G28R15G30G13R20R 9R16G 8
                                G 1G 7G 9G11G18
  23338219.423    -9863835.136        6159.897          43.000                  
                                                
  23213903.832       40522.469        -589.127          42.000                  
                                                
  19558926.113    -9722825.347        5720.781          40.000                  
                                                
  19427939.127    -3223542.636        1522.498          30.000                  
                                                
  21741729.399    -7484712.153        4873.064          35.000                  
                                                
  22444232.885                         518.799          20.000                  
                                                
  20157759.306    -7303240.199        4394.705          30.000                  
                                                
  24080407.058    -3303921.591        4777.551          32.000                  
                                                
  23984707.092     -366244.572        7865.358          36.000                  
                                                
  21443412.249   -10689032.337        6879.008          44.000                  
                                                
  19177416.133                        3810.138          24.000                  
                                                
  22185251.522    -1313311.411         717.846          42.000                  
                                                
  21022065.828    -8873580.037        5352.787          39.000                  
                                                
  19973213.005    -4701868.303        2541.704          34.000                  
                                                
  24527400.632                         426.137          17.000                  
                                                
  20310650.008    -6607762.919        3841.581          33.000                  
                                                
  20907082.632    -6520245.976        3734.493          32.000                  
                                                
 18  5 18 18 28 56.5000000  0 17G17R17R19R18G28R15G30G13R20R 9R16G 8
                                G 1G 7G 9G11G18
  23337633.372    -9866914.859        6158.872          43.000                  
                                                
  23213959.030       40817.426        -590.548          42.000                  
                                                
  19558391.615    -9725685.268        5719.083          40.000                  
                                                
  19427799.302    -3224303.785        1521.529          30.000                  
                                                
  21741265.752    -7487148.453        4871.944          35.000                  
                                                
  22444186.855                         520.288          20.000                  
                                                
  20157343.530    -7305437.791        4394.918          30.000                  
                                                
  24079952.577    -3306310.002        4776.621          32.000                  
                                                
  23983973.390     -370176.902        7864.071          36.000                  
                                                
  21442768.463   -10692471.425        6877.301          44.000                  
                                                
  19177059.842                        3812.688          24.000                  
                                                
  22185183.262    -1313670.080         716.948          42.000                  
                                                
  21021556.507    -8876256.156        5351.527          39.000                  
                                                
  19972971.237    -4703139.195        2540.636          34.000                  
                                                
  24527362.624                         426.996          17.000                  
                                                
  20310284.122    -6609682.880        3838.598          33.000                  
                                                
  20906724.573    -6522112.392        3732.479          32.000                  
                                                
 18  5 18 18 28 57.0000000  0 17G17R17R19R18G28R15G30G13R20R 9R16G 8
                                G 1G 7G 9G11G18
  23337047.447    -9869993.928        6157.480          43.000                  
                                                
  23214014.334       41112.961        -591.914          42.000                  
                                                
  19557857.260    -9728544.444        5717.602          40.000                  
                                                
  19427703.452    -3225064.155        1519.928          32.000                  
                                                
  21740802.175    -7489584.213        4871.386          32.000                  
                                                
  22444141.432                         527.836          16.000                  
                                                
  20156927.468                        4393.282          30.000                  
                                                
  24079498.275    -3308697.642        4774.212          31.000                  
                                                
  23983239.902     -374108.665        7863.086          36.000                  
                                                
  21442124.821   -10695909.933        6876.418          44.000                  
                                                
  19176704.499                        3811.104          22.000                  
                                                
  22185115.128    -1314028.138         715.455          42.000                  
                                                
  21021047.312    -8878931.545        5350.530          38.000                  
                                                
  19972729.541    -4704409.350        2539.890          33.000                  
                                                
  24527322.222                         425.857           1.000                  
                                                
  20309918.469    -6611602.182        3838.016          32.000                  
                                                
  20906367.657    -6523978.090        3732.278          31.000                  
                                                
 18  5 18 18 28 57.5000000  0 17G17R17R19R18G28R15G30G13R20R 9R16G 8
                                G 1G 7G 9G11G18
  23336461.540    -9873072.959        6157.747          43.000                  
                                                
  23214069.514       41408.477        -591.263          42.000                  
                                                
  19557322.815    -9731403.476        5717.584          40.000                  
                                                
  19427574.259    -3225824.483        1520.387          32.000                  
                                                
  21740338.582    -7492019.909        4871.337          32.000                  
                                                
  22444093.007                         531.516           1.000                  
                                                
  20156511.155    -7309831.270        4393.079          30.000                  
                                                
  24079044.956    -3311085.180        4775.398          31.000                  
                                                
  23982506.057     -378040.415        7863.586          36.000                  
                                                
  21441481.018   -10699348.422        6876.625          44.000                  
                                                
  19176348.923                        3811.682          22.000                  
                                                
  22185047.011    -1314386.157         715.485          42.000                  
                                                
  21020538.152    -8881606.771        5350.022          38.000                  
                                                
  19972487.737    -4705679.368        2539.983          33.000                  
                                                
  24527282.035                         421.995           1.000                  
                                                
  20309552.940    -6613521.350        3837.802          32.000                  
                                                
  20906011.384    -6525843.682        3733.006          31.000                  
                                                
 18  5 18 18 28 58.0000000  0 17G17R17R19R18G28R15G30G13R20R 9R16G 8
                                G 1G 7G 9G11G18
  23335875.579    -9876152.143        6158.533          43.000                  
                                                
  23214124.640       41703.769        -590.160          42.000                  
                                                
  19556788.335    -9734262.559        5718.271          40.000                  
                                                
  19427437.275    -3226584.790        1521.314          32.000                  
                                                
  21739874.934    -7494455.853        4872.606          33.000                  
                                                
  22444043.277                         531.516           1.000                  
                                                
  20156094.110    -7312028.043        4393.394          31.000                  
                                                
  24078590.279                        4775.964          30.000                  
                                                
  23981772.140     -381972.349        7864.194          37.000                  
                                                
  21440837.162   -10702787.128        6877.708          43.000                  
                                                
  19175992.901                        3807.544          14.000                  
                                                
  22184978.841    -1314744.387         716.943          42.000                  
                                                
  21020028.956    -8884282.114        5350.771          37.000                  
                                                
  19972245.915    -4706949.512        2541.239          32.000                  
                                                
  24527241.883                         421.995           1.000                  
                                                
  20309187.357    -6615440.557        3838.869          31.000                  
                                                
  20905656.202    -6527709.229        3732.392          29.000                  
                                                
 18  5 18 18 28 58.5000000  0 17G17R17R19R18G28R15G30G13R20R 9R16G 8
                                G 1G 7G 9G11G18
  23335289.636    -9879231.344        6157.456          43.000                  
                                                
  23214179.766       41999.002        -590.599          42.000                  
                                                
  19556253.908    -9737121.558        5717.393          40.000                  
                                                
  19427294.037    -3227344.5641       1520.301          32.000                  
                                                
  21739411.304    -7496891.818        4871.647          33.000                  
                                                
  22443995.603                         503.993           1.000                  
                                                
  20155681.407    -7314224.764        4392.115          31.000                  
                                                
  24078135.744                        4775.122          30.000                  
                                                
  23981038.063     -385904.349        7863.607          37.000                  
                                                
  21440193.305   -10706225.911        6877.108          43.000                  
                                                
  19175634.162                        3813.936          14.000                  
                                                
  22184910.688    -1315102.649         715.706          42.000                  
                                                
  21019519.760    -8886957.382        5349.379          37.000                  
                                                
  19972004.112    -4708219.494        2539.542          32.000                  
                                                
  24527201.732                         421.995           1.000                  
                                                
  20308821.722    -6617359.650        3837.030          31.000                  
                                                
  20905301.144                        3730.583          29.000                  
                                                
 18  5 18 18 28 59.0000000  0 17G17R17R19R18G28R15G30G13R20R 9R16G 8
                                G 1G 7G 9G11G18
  23334703.692    -9882310.471        6157.610          43.000                  
                                                
  23214234.910       42294.321        -591.552          44.000                  
                                                
  19555719.517    -9739980.310        5716.740          40.000                  
                                                
  19427148.673    -3228104.547        1518.782          32.000                  
                                                
  21738947.657    -7499327.780        4871.085          34.000                  
                                                
  22443948.464                         503.993           1.000                  
                                                
  20155262.593    -7316421.359        4392.035          32.000                  
                                                
  24077681.049    -3318247.744        4774.348          30.000                  
                                                
  23980304.004     -389836.251        7862.595          39.000                  
                                                
  21439549.466   -10709664.606        6876.486          44.000                  
                                                
  19175274.298                        3809.552          19.000                  
                                                
  22184842.518    -1315460.897         715.898          43.000                  
                                                
  21019010.636    -8889632.536        5349.741          37.000                  
                                                
  19971762.308    -4709489.350        2539.163          34.000                  
                                                
  24527161.580                         421.995           1.000                  
                                                
  20308456.068    -6619278.647        3837.174          31.000                  
                                                
  20904945.872                        3731.070          29.000                  
                                                
 18  5 18 18 28 59.5000000  0 17G17R17R19R18G28R15G30G13R20R 9R16G 8
                                G 1G 7G 9G11G18
  23334117.767    -9885389.517        6157.375          43.000                  
                                                
  23214290.036       42589.629        -591.748          44.000                  
                                                
  19555185.144    -9742838.870        5715.744          40.000                  
                                                
  19427005.042    -3228864.469        1519.179          32.000                  
                                                
  21738484.027    -7501763.742        4871.143          34.000                  
                                                
  22443898.306                         498.423          31.000                  
                                                
  20154845.548    -7318617.814        4391.792          32.000                  
                                                
  24077226.211                        4774.618          30.000                  
                                                
  23979569.837     -393768.149        7862.914          39.000                  
                                                
  21438905.627   -10713103.297        6876.557          44.000                  
                                                
  19174915.827                        3809.167          19.000                  
                                                
  22184774.365    -1315819.092         715.559          43.000                  
                                                
  21018501.566    -8892307.491        5349.266          37.000                  
                                                
  19971520.522    -4710759.026        2538.252          34.000                  
                                                
  24527121.428                         421.995           1.000                  
                                                
  20308090.450    -6621197.414        3836.605          31.000                  
                                                
  20904590.690    -6533304.672        3728.919          29.000                  
                                                
 18  5 18 18 29  0.0000000  0 17G17R17R19R18G28R15G30G13R20R 9R16G 8
                                G 1G 7G 9G11G18
  23333531.967    -9888467.931        6157.003          42.000                  
                                                
  23214345.269       42885.493        -591.789          44.000                  
                                                
  19554650.931    -9745696.750        5716.157          40.000                  
                                                
  19426861.625    -3229623.593        1518.377          33.000                  
                                                
  21738020.558    -7504199.141        4870.605          33.000                  
                                                
  22443853.276                         494.736          18.000                  
                                                
  20154428.824    -7320813.484        4390.567          32.000                  
                                                
  24076771.623    -3323021.476        4772.109          30.000                  
                                                
  23978835.777     -397699.441        7862.396          39.000                  
                                                
  21438261.896   -10716541.414        6876.499          45.000                  
                                                
  19174557.875                        3801.769          21.000                  
                                                
  22184706.320    -1316176.702         715.079          42.000                  
                                                
  21017992.620    -8894981.714        5348.221          38.000                  
                                                
  19971278.862    -4712028.008        2537.916          34.000                  
                                                
  24527081.276                         421.995           1.000                  
                                                
  20307724.939    -6623115.493        3835.847          32.000                  
                                                
  20904235.186    -6535169.067        3727.968          29.000                  
                                                
 18  5 18 18 29  0.5000000  0 17G17R17R19R18G28R15G30G13R20R 9R16G 8
                                G 1G 7G 9G11G18
  23332946.167    -9891546.244        6156.104          42.000                  
                                                
  23214400.538       43181.471        -592.267          44.000                  
                                                
  19554116.773    -9748554.298        5714.641          40.000                  
                                                
  19426718.726    -3230382.506        1517.422          33.000                  
                                                
  21737557.161    -7506634.434        4869.900          33.000                  
                                                
  22443813.196                         491.094          18.000                  
                                                
  20154010.761    -7323009.065        4391.311          32.000                  
                                                
  24076316.499                        4772.400          30.000                  
                                                
  23978101.629     -401630.633        7862.019          39.000                  
                                                
  21437618.164   -10719979.418        6875.869          45.000                  
                                                
  19174200.280                        3803.174          21.000                  
                                                
  22184638.293    -1316534.243         714.662          42.000                  
                                                
  21017483.710    -8897655.810        5347.838          38.000                  
                                                
  19971037.290    -4713296.793        2537.476          34.000                  
                                                
  24527041.125                         421.995           1.000                  
                                                
  20307359.499    -6625033.334        3835.710          32.000                  
                                                
  20903880.896    -6537033.275        3727.144          29.000                  
                                                
 18  5 18 18 29  1.0000000  0 17G17R17R19R18G28R15G30G13R20R 9R16G 8
                                G 1G 7G 9G11G18
  23332360.367    -9894624.639        6156.098          42.000                  
                                                
  23214455.771       43477.315        -591.888          43.000                  
                                                
  19553582.614    -9751411.814        5714.210          40.000                  
                                                
  19426576.006    -3231141.374        1517.180          34.000                  
                                                
  21737093.746    -7509069.913        4870.388          35.000                  
                                                
  22443770.953                         496.613          15.000                  
                                                
  20153591.982    -7325204.0681       4390.969          32.000                  
                                                
  24075861.893                        4771.982          28.000                  
                                                
  23977367.444     -405561.942        7862.113          39.000                  
                                                
  21436974.433   -10723417.557        6876.147          44.000                  
                                                
  19173843.114                        3805.304          23.000                  
                                                
  22184570.265    -1316891.863         714.751          43.000                  
                                                
  21016974.801    -8900329.868        5347.458          38.000                  
                                                
  19970795.773    -4714565.525        2537.114          34.000                  
                                                
  24527000.973                         421.995           1.000                  
                                                
  20306994.042    -6626951.167        3835.505          31.000                  
                                                
  20903523.355                        3728.221          30.000                  
                                                
 18  5 18 18 29  1.5000000  0 17G17R17R19R18G28R15G30G13R20R 9R16G 8
                                G 1G 7G 9G11G18
  23331774.566    -9897703.005        6156.958          42.000                  
                                                
  23214511.022       43773.139        -591.303          43.000                  
                                                
  19553048.491    -9754269.220        5714.943          40.000                  
                                                
  19426433.769    -3231900.137        1517.607          34.000                  
                                                
  21736630.348    -7511505.414        4871.510          35.000                  
                                                
  22443731.784                         500.682          15.000                  
                                                
  20153173.293    -7327399.448        4390.710          32.000                  
                                                
  24075407.734                        4773.521          28.000                  
                                                
  23976633.152     -409493.265        7863.122          39.000                  
                                                
  21436330.701   -10726855.696        6876.637          44.000                  
                                                
  19173485.305                        3811.433          23.000                  
                                                
  22184502.220    -1317249.501         715.745          43.000                  
                                                
  21016465.926    -8903003.852        5348.605          38.000                  
                                                
  19970554.291    -4715834.181        2537.685          34.000                  
                                                
  24526960.982                         419.995           1.000                  
                                                
  20306628.692    -6628868.896        3836.155          31.000                  
                                                
  20903168.012                        3726.678          30.000                  
                                                
 18  5 18 18 29  2.0000000  0 17G17R17R19R18G28R15G30G13R20R 9R16G 8
                                G 1G 7G 9G11G18
  23331188.784    -9900781.300        6157.361          42.000                  
                                                
  23214566.237       44068.973        -590.851          43.000                  
                                                
  19552514.386    -9757126.458        5715.146          40.000                  
                                                
  19426291.889    -3232658.731        1519.069          32.000                  
                                                
  21736166.951    -7513940.874        4871.685          37.000                  
                                                
  22443693.580                         498.806           1.000                  
                                                
  20152754.604    -7329594.722        4390.677          32.000                  
                                                
  24074953.504                        4770.581          24.000                  
                                                
  23975898.825     -413424.566        7863.328          39.000                  
                                                
  21435686.952   -10730293.822        6877.153          45.000                  
                                                
  19173128.603                        3804.616          20.000                  
                                                
  22184434.193    -1317607.083         715.910          43.000                  
                                                
  21015957.088    -8905677.645        5348.445          38.000                  
                                                
  19970312.862    -4717102.674        2537.292          35.000                  
                                                
  24526921.027                         419.995           1.000                  
                                                
  20306263.467    -6630786.383        3834.815          31.000                  
                                                
  20902812.829    -6542625.203        3728.318          30.000                  
                                                
 18  5 18 18 29  2.5000000  0 17G17R17R19R18G28R15G30G13R20R 9R16G 8
                                G 1G 7G 9G11G18
  23330602.984    -9903859.658        6156.221          42.000                  
                                                
  23214621.452       44364.706        -591.685          43.000                  
                                                
  19551980.299    -9759983.624        5714.223          40.000                  
                                                
  19426153.833    -3233417.749        1516.627          32.000                  
                                                
  21735703.554    -7516376.452        4870.948          37.000                  
                                                
  22443646.674                         501.994           1.000                  
                                                
  20152336.487    -7331790.079        4391.130          32.000                  
                                                
  24074499.934                        4771.982          24.000                  
                                                
  23975164.444     -417355.946        7862.436          39.000                  
                                                
  21435043.185   -10733732.045        6876.070          45.000                  
                                                
  19172772.617                        3808.926          20.000                  
                                                
  22184366.130    -1317964.803         715.284          43.000                  
                                                
  21015448.214    -8908351.405        5346.748          38.000                  
                                                
  19970071.488    -4718371.152        2536.668          35.000                  
                                                
  24526881.054                         419.995           1.000                  
                                                
  20305898.296    -6632703.904        3834.533          31.000                  
                                                
  20902457.736    -6544488.990        3727.308          30.000                  
                                                
 18  5 18 18 29  3.0000000  0 17G17R17R19R18G28R15G30G13R20R 9R16G 8
                                G 1G 7G 9G11G18
  23330017.255    -9906937.644        6157.038          43.000                  
                                                
  23214676.757       44660.765        -590.816          43.000                  
                                                
  19551446.337    -9762840.284        5714.143          39.000                  
                                                
  19426013.114    -3234175.763        1516.883          30.000                  
                                                
  21735240.228    -7518811.729        4871.999          38.000                  
                                                
  22443599.750                         501.994           1.000                  
                                                
  20151918.405    -7333984.844        4390.551          33.000                  
                                                
  24074046.025                        4769.626          24.000                  
                                                
  23974430.152     -421287.001        7863.366          39.000                  
                                                
  21434399.524   -10737169.934        6876.910          44.000                  
                                                
  19172416.952                        3805.659          22.000                  
                                                
  22184298.138    -1318322.132         715.646          42.000                  
                                                
  21014939.429    -8911024.737        5347.625          37.000                  
                                                
  19969830.220    -4719639.138        2537.233          36.000                  
                                                
  24526841.099                         419.995           1.000                  
                                                
  20305533.249    -6634620.947        3834.908          32.000                  
                                                
  20902100.177    -6546352.256        3727.541          31.000                  
                                                
 18  5 18 18 29  3.5000000  0 17G17R17R19R18G28R15G30G13R20R 9R16G 8
                                G 1G 7G 9G11G18
  23329431.580    -9910015.359        6156.092          43.000                  
                                                
  23214732.062       44957.048        -591.586          43.000                  
                                                
  19550912.428    -9765696.569        5713.400          39.000                  
                                                
  19425872.789                        1514.536          30.000                  
                                                
  21734776.973    -7521246.732        4870.123          38.000                  
                                                
  22443552.790                         501.994           1.000                  
                                                
  20151500.628    -7336179.319        4388.842          33.000                  
                                                
  24073592.652                        4770.147          24.000                  
                                                
  23973695.824     -425217.805        7862.741          39.000                  
                                                
  21433755.864   -10740607.588        6875.972          44.000                  
                                                
  19172062.144                        3803.572          23.000                  
                                                
  22184230.182    -1318679.282         715.148          42.000                  
                                                
  21014430.716    -8913697.717        5346.133          37.000                  
                                                
  19969589.024    -4720906.768        2535.335          36.000                  
                                                
  24526800.983                         421.995           1.000                  
                                                
  20305168.257    -6636537.633        3834.451          33.000                  
                                                
  20901743.458    -6548215.144        3726.657          31.000                  
                                                
 18  5 18 18 29  4.0000000  0 17G17R17R19R18G28R15G30G13R20R 9R16G 8
                                G 1G 7G 9G11G18
  23328845.869    -9913093.275        6154.734          43.000                  
                                                
  23214787.348       45253.070        -593.004          43.000                  
                                                
  19550378.502    -9768552.954        5711.807          41.000                  
                                                
  19425732.052    -3235690.854        1515.670          29.000                  
                                                
  21734313.683    -7523682.070        4870.041          37.000                  
                                                
  22443505.848                         501.994           1.000                  
                                                
  20151082.957    -7338373.958        4388.927          32.000                  
                                                
  24073139.959                        4771.371          25.000                  
                                                
  23972961.443     -429148.854        7861.455          39.000                  
                                                
  21433112.169   -10744045.508        6875.208          45.000                  
                                                
  19171707.605                        3803.558          24.000                  
                                                
  22184162.191    -1319036.647         714.205          42.000                  
                                                
  21013921.949    -8916370.833        5345.368          37.000                  
                                                
  19969347.810    -4722174.590        2535.352          35.000                  
                                                
  24526760.831                         421.995           1.000                  
                                                
  20304803.264    -6638454.429        3833.230          32.000                  
                                                
  20901388.061    -6550078.186        3725.321          31.000                  
                                                
 18  5 18 18 29  4.5000000  0 17G17R17R19R18G28R15G30G13R20R 9R16G 8
                                G 1G 7G 9G11G18
  23328260.176    -9916171.122        6156.649          43.000                  
                                                
  23214842.617       45549.139        -591.640          43.000                  
                                                
  19549844.593    -9771409.131        5712.812          41.000                  
                                                
  19425590.708    -3236448.495        1517.304          29.000                  
                                                
  21733850.429    -7526117.372        4871.553          37.000                  
                                                
  22443458.871                         501.994           1.000                  
                                                
  20150665.304    -7340568.403        4389.913          32.000                  
                                                
  24072687.408                        4771.082          25.000                  
                                                
  23972226.973     -433079.861        7862.977          39.000                  
                                                
  21432468.455   -10747483.367        6876.569          45.000                  
                                                
  19171353.084                        3805.338          24.000                  
                                                
  22184094.199    -1319393.971         715.474          42.000                  
                                                
  21013413.290    -8919043.784        5346.273          37.000                  
                                                
  19969106.614    -4723442.159        2535.729          35.000                  
                                                
  24526720.680                         421.995           1.000                  
                                                
  20304438.289    -6640371.050        3834.173          32.000                  
                                                
  20901033.289    -6551941.002        3725.803          31.000                  
                                                
 18  5 18 18 29  5.0000000  0 17G17R17R19R18G28R15G30G13R20R 9R16G 8
                                G 1G 7G 9G11G18
  23327674.376    -9919249.401        6156.087          42.000                  
                                                
  23214897.797       45844.700        -591.762          43.000                  
                                                
  19549310.649    -9774265.649        5712.515          41.000                  
                                                
  19425448.650    -3237206.466        1515.527          30.000                  
                                                
  21733387.103    -7528553.132        4870.751          36.000                  
                                                
  22443411.911                         501.994           1.000                  
                                                
  20150247.580    -7342763.258        4389.482          32.000                  
                                                
  24072234.321                        4774.258          23.000                  
                                                
  23971492.431     -437011.314        7862.251          39.000                  
                                                
  21431824.670   -10750921.725        6876.252          45.000                  
                                                
  19170999.098                        3803.240          24.000                  
                                                
  22184026.136    -1319751.750         714.926          41.000                  
                                                
  21012904.541    -8921717.100        5345.917          37.000                  
                                                
  19968865.400    -4724710.093        2535.177          35.000                  
                                                
  24526680.528                         421.995           1.000                  
                                                
  20304073.279    -6642287.999        3833.446          31.000                  
                                                
  20900678.732    -6553804.200        3726.726          30.000                  
                                                
 18  5 18 18 29  5.5000000  0 17G17R17R19R18G28R15G30G13R20R 9R16G 8
                                G 1G 7G 9G11G18
  23327088.665    -9922327.294        6155.798          42.000                  
                                                
  23214953.030       46140.577        -591.089          43.000                  
                                                
  19548776.776    -9777121.652        5712.083          41.000                  
                                                
  19425307.199                        1513.231          30.000                  
                                                
  21732923.813    -7530988.558        4870.951          36.000                  
                                                
  22443364.951                         501.994           1.000                  
                                                
  20149829.874    -7344957.555        4387.685          32.000                  
                                                
  24071780.590                        4771.933          23.000                  
                                                
  23970757.871     -440942.436        7862.917          39.000                  
                                                
  21431180.938   -10754359.718        6876.415          45.000                  
                                                
  19170645.077                        3803.502          24.000                  
                                                
  22183958.126    -1320109.171         715.145          41.000                  
                                                
  21012395.828    -8924389.987        5346.102          37.000                  
                                                
  19968624.293    -4725977.571        2535.184          35.000                  
                                                
  24526640.448                         420.995           1.000                  
                                                
  20303708.376    -6644204.456        3832.640          31.000                  
                                                
  20900327.695    -6555666.789        3725.749          30.000                  
                                                
 18  5 18 18 29  6.0000000  0 17G17R17R19R18G28R15G30G13R20R 9R16G 8
                                G 1G 7G 9G11G18
  23326502.954    -9925405.208        6155.600          42.000                  
                                                
  23215008.281       46436.437        -591.832          42.000                  
                                                
  19548242.939    -9779977.562        5710.898          40.000                  
                                                
  19425166.569                        1512.428          26.000                  
                                                
  21732460.540    -7533424.087        4870.571          37.000                  
                                                
  22443317.991                         501.994           1.000                  
                                                
  20149410.559    -7347152.419        4387.001          31.000                  
                                                
  24071326.539                        4774.349          20.000                  
                                                
  23970023.329     -444873.592        7862.072          39.000                  
                                                
  21430537.207   -10757797.769        6875.745          44.000                  
                                                
  19170290.127                        3803.520          24.000                  
                                                
  22183890.117    -1320466.655         714.685          41.000                  
                                                
  21011887.186    -8927062.749        5344.832          37.000                  
                                                
  19968383.205    -4727244.953        2534.718          35.000                  
                                                
  24526600.403                         420.995           1.000                  
                                                
  20303343.454    -6646120.892        3832.524          31.000                  
                                                
  20899973.817                        3723.610          31.000                  
                                                
 18  5 18 18 29  6.5000000  0 17G17R17R19R18G28R15G30G13R20R 9R16G 8
                                G 1G 7G 9G11G18
  23325917.279    -9928482.932        6154.908          42.000                  
                                                
  23215063.550       46732.378        -591.740          42.000                  
                                                
  19547709.156    -9782833.187        5710.965          40.000                  
                                                
  19425026.637                        1514.799          26.000                  
                                                
  21731997.232    -7535859.499        4870.389          37.000                  
                                                
  22443274.587                         504.809          32.000                  
                                                
  20148993.139    -7349346.480        4388.943          31.000                  
                                                
  24070870.861                        4776.741          20.000                  
                                                
  23969288.787     -448804.626        7861.884          39.000                  
                                                
  21429893.493   -10761235.682        6875.826          44.000                  
                                                
  19169935.141                        3803.596          24.000                  
                                                
  22183822.125    -1320824.000         714.478          41.000                  
                                                
  21011378.544    -8929735.306        5344.683          37.000                  
                                                
  19968142.098    -4728512.094        2534.221          35.000                  
                                                
  24526560.341                         420.995           1.000                  
                                                
  20302978.622    -6648037.044        3831.705          31.000                  
                                                
  20899620.099                        3723.206          31.000                  
                                                
 18  5 18 18 29  7.0000000  0 17G17R17R19R18G28R15G30G13R20R 9R16G 8
                                G 1G 7G 9G11G18
  23325331.622    -9931560.564        6155.503          41.000                  
                                                
  23215118.872       47028.446        -591.628          42.000                  
                                                
  19547175.426    -9785688.575        5711.227          39.000                  
                                                
  19424885.347                        1514.139          26.000                  
                                                
  21731533.942    -7538294.837        4870.967          35.000                  
                                                
  22443231.166                         503.189          19.000                  
                                                
  20148575.665    -7351540.265        4387.605          30.000                  
                                                
  24070415.236                        4778.667          14.000                  
                                                
  23968554.227     -452735.548        7862.054          38.000                  
                                                
  21429249.815   -10764673.505        6875.755          43.000                  
                                                
  19169579.655                        3808.802          17.000                  
                                                
  22183754.151    -1321181.235         714.660          40.000                  
                                                
  21010869.974    -8932407.653        5344.936          36.000                  
                                                
  19967900.973    -4729779.029        2534.671          34.000                  
                                                
  24526520.278                         420.995           1.000                  
                                                
  20302613.844    -6649952.837        3830.325          29.000                  
                                                
  20899265.971                        3724.938          26.000                  
                                                
 18  5 18 18 29  7.5000000  0 17G17R17R19R18G28R15G30G13R20R 9R16G 8
                                G 1G 7G 9G11G18
  23324745.947    -9934638.296        6155.291          41.000                  
                                                
  23215174.123       47324.339        -591.524          42.000                  
                                                
  19546641.660    -9788543.953        5710.616          39.000                  
                                                
  19424742.555                        1513.031          26.000                  
                                                
  21731070.580    -7540730.348        4871.284          35.000                  
                                                
  22443188.816                         502.570          19.000                  
                                                
  20148157.834    -7353734.108        4385.810          30.000                  
                                                
  24069958.111                        4780.262          14.000                  
                                                
  23967819.596     -456666.628        7861.934          38.000                  
                                                
  21428606.066   -10768111.519        6876.028          43.000                  
                                                
  19169223.579                        3804.723          17.000                  
                                                
  22183686.142    -1321538.618         714.504          40.000                  
                                                
  21010361.368    -8935080.025        5344.343          36.000                  
                                                
  19967659.884    -4731045.966        2533.484          34.000                  
                                                
  24526480.145                         421.995           1.000                  
                                                
  20302243.169                        3832.875          29.000                  
                                                
  20898911.736    -6563115.569        3724.101          26.000                  
                                                
 18  5 18 18 29  8.0000000  0 17G17R17R19R18G28R15G30G13R20R 9R16G 8
                                G 1G 7G 9G11G18
  23324160.272    -9937715.986        6155.172          40.000                  
                                                
  23215229.392       47620.247        -591.666          43.000                  
                                                
  19546107.948    -9791399.151        5710.202          40.000                  
                                                
  19424599.978                        1515.667          28.000                  
                                                
  21730607.237    -7543165.854        4871.226          35.000                  
                                                
  22443141.999                         500.275          18.000                  
                                                
  20147739.949    -7355927.882        4387.126          29.000                  
                                                
  24069501.432                        4775.006          18.000                  
                                                
  23967084.983     -460597.688        7862.288          38.000                  
                                                
  21427962.352   -10771549.504        6876.175          43.000                  
                                                
  19168867.145                        3800.320          17.000                  
                                                
  22183618.150    -1321896.010         714.824          39.000                  
                                                
  21009852.798    -8937752.289        5344.248          37.000                  
                                                
  19967418.813    -4732312.802        2533.989          34.000                  
                                                
  24526440.011                         421.995           1.000                  
                                                
  20301878.480                        3832.377          28.000                  
                                                
  20898557.697    -6564977.423        3723.050          31.000                  
                                                
 18  5 18 18 29  8.5000000  0 17G17R17R19R18G28R15G30G13R20R 9R16G 8
                                G 1G 7G 9G11G18
  23323574.633    -9940793.556        6155.352          40.000                  
                                                
  23215284.608       47916.216        -591.744          43.000                  
                                                
  19545574.218    -9794254.120        5709.972          40.000                  
                                                
  19424457.133    -3242504.443        1515.027          28.000                  
                                                
  21730143.857    -7545601.286        4871.152          35.000                  
                                                
  22443090.787                         498.981          18.000                  
                                                
  20147321.510                        4385.024          29.000                  
                                                
  24069045.951                        4768.304          17.000                  
                                                
  23966350.298     -464528.642        7862.181          38.000                  
                                                
  21427318.585   -10774987.388        6875.938          43.000                  
                                                
  19168511.051                        3799.674          17.000                  
                                                
  22183550.159    -1322253.302         714.894          39.000                  
                                                
  21009344.281    -8940424.312        5344.229          36.000                  
                                                
  19967177.832    -4733579.382        2533.423          34.000                  
                                                
  24526399.859                         421.995           1.000                  
                                                
  20301513.684                        3831.346          28.000                  
                                                
  20898202.818    -6566839.049        3723.204          30.000                  
                                                
 18  5 18 18 29  9.0000000  0 17G17R17R19R18G28R15G30G13R20R 9R16G 8
                                G 1G 7G 9G11G18
  23322988.957    -9943871.238        6155.346          40.000                  
                                                
  23215339.805       48211.977        -591.357          43.000                  
                                                
  19545040.506    -9797109.119        5709.837          39.000                  
                                                
  19424314.467    -3243260.986        1512.955          31.000                  
                                                
  21729680.424    -7548036.913        4871.425          36.000                  
                                                
  22443042.147                         503.426          21.000                  
                                                
  20146902.821                        4387.214          29.000                  
                                                
  24068588.558                        4763.187          21.000                  
                                                
  23965615.577     -468459.770        7862.324          38.000                  
                                                
  21426674.799   -10778425.475        6876.268          43.000                  
                                                
  19168155.583                        3800.471          20.000                  
                                                
  22183482.149    -1322610.724         714.775          39.000                  
                                                
  21008835.764    -8943096.389        5344.121          37.000                  
                                                
  19966936.868    -4734846.026        2533.176          35.000                  
                                                
  24526359.690                         421.995           1.000                  
                                                
  20301149.531    -6657617.204        3830.627          28.000                  
                                                
  20897856.337    -6568700.730        3723.301          31.000                  
                                                
 18  5 18 18 29  9.5000000  0 17G17R17R19R18G28R15G30G13R20R 9R16G 8
                                G 1G 7G 9G11G18
  23322403.300    -9946948.791        6155.329          40.000                  
                                                
  23215395.056       48507.831        -591.473          43.000                  
                                                
  19544506.866    -9799963.844        5709.561          39.000                  
                                                
  19424171.479    -3244017.370        1513.694          31.000                  
                                                
  21729216.991    -7550472.444        4871.264          36.000                  
                                                
  22442992.918                         500.583          21.000                  
                                                
  20146483.506                        4387.494          29.000                  
                                                
  24068130.807                        4762.128          21.000                  
                                                
  23964880.875     -472390.821        7862.364          38.000                  
                                                
  21426031.068   -10781863.455        6876.107          43.000                  
                                                
  19167800.507                        3796.910          20.000                  
                                                
  22183414.158    -1322968.091         714.834          39.000                  
                                                
  21008327.283    -8945768.258        5343.865          37.000                  
                                                
  19966695.922    -4736112.487        2533.249          35.000                  
                                                
  24526319.556                         421.995           1.000                  
                                                
  20300785.325    -6659532.641        3833.876          28.000                  
                                                
  20897500.422    -6570562.115        3723.025          32.000                  
                                                
 18  5 18 18 29 10.0000000  0 17G17R17R19R18G28R15G30G13R20R 9R16G 8
                                G 1G 7G 9G11G18
  23321817.643    -9950026.386        6155.488          40.000                  
                                                
  23215450.307       48803.640        -591.438          43.000                  
                                                
  19543973.261    -9802818.475        5709.495          38.000                  
                                                
  19424028.330    -3244773.657        1512.963          31.000                  
                                                
  21728753.522    -7552908.081        4871.696          35.000                  
                                                
  22442944.547                         502.902          17.000                  
                                                
  20146064.353                        4386.429          27.000                  
                                                
  24067673.110                        4760.471          21.000                  
                                                
  23964146.118     -476321.902        7862.302          38.000                  
                                                
  21425387.336   -10785301.483        6876.212          42.000                  
                                                
  19167444.074                        3801.281          22.000                  
                                                
  22183346.130    -1323325.500         714.923          38.000                  
                                                
  21007818.785    -8948440.095        5344.083          36.000                  
                                                
  19966454.976    -4737378.853        2533.156          35.000                  
                                                
  24526279.404                         421.995           1.000                  
                                                
  20300420.886                        3829.810          29.000                  
                                                
  20897148.474    -6572423.424        3723.548          31.000                  
                                                
 18  5 18 18 29 10.5000000  0 17G17R17R19R18G28R15G30G13R20R 9R16G 8
                                G 1G 7G 9G11G18
  23321231.914    -9953104.359        6156.646          40.000                  
                                                
  23215505.469       49099.034        -590.069          43.000                  
                                                
  19543439.567    -9805673.391        5710.768          38.000                  
                                                
  19423884.860    -3245530.174        1513.261          31.000                  
                                                
  21728289.964    -7555344.113        4872.855          35.000                  
                                                
  22442897.640                         500.994           1.000                  
                                                
  20145645.020    -7366895.399        4388.000          27.000                  
                                                
  24067215.806                        4762.761          21.000                  
                                                
  23963411.272     -480253.433        7863.830          38.000                  
                                                
  21424743.498   -10788739.923        6877.379          42.000                  
                                                
  19167086.622                        3800.658          22.000                  
                                                
  22183278.031    -1323683.355         716.952          38.000                  
                                                
  21007310.250    -8951112.182        5344.572          36.000                  
                                                
  19966213.959    -4738645.478        2533.956          35.000                  
                                                
  24526239.252                         421.995           1.000                  
                                                
  20300055.679                        3830.520          30.000                  
                                                
  20896794.649    -6574285.036        3724.334          31.000                  
                                                
 18  5 18 18 29 11.0000000  0 17G17R17R19R18G28R15G30G13R20R 9R16G 8
                                G 1G 7G 9G11G18
  23320646.203    -9956182.184        6154.192          40.000                  
                                                
  23215560.648       49394.486        -592.139          43.000                  
                                                
  19542905.926    -9808528.067        5707.853          37.000                  
                                                
  19423719.375    -3246286.535        1512.065          33.000                  
                                                
  21727826.424    -7557780.092        4870.789          36.000                  
                                                
  22442850.788                         500.994           1.000                  
                                                
  20145225.724                        4387.578          29.000                  
                                                
  24066757.215                        4767.196          20.000                  
                                                
  23962676.445     -484184.860        7861.485          38.000                  
                                                
  21424099.677   -10792178.297        6875.157          44.000                  
                                                
  19166729.188                        3802.518          23.000                  
                                                
  22183209.933    -1324041.110         714.613          38.000                  
                                                
  21006801.716    -8953784.143        5342.653          36.000                  
                                                
  19965972.977    -4739911.886        2531.426          34.000                  
                                                
  24526199.101                         421.995           1.000                  
                                                
  20299690.061                        3830.621          29.000                  
                                                
  20896441.218    -6576146.367        3720.714          34.000                  
                                                
 18  5 18 18 29 11.5000000  0 17G17R17R19R18G28R15G30G13R20R 9R16G 8
                                G 1G 7G 9G11G18
  23320060.582    -9959259.458        6154.159          40.000                  
                                                
  23215615.953       49690.489        -592.237          43.000                  
                                                
  19542372.393    -9811382.054        5707.535          37.000                  
                                                
  19423575.601    -3247042.123        1510.213          33.000                  
                                                
  21727363.008    -7560215.520        4870.576          36.000                  
                                                
  22442803.917                         500.994           1.000                  
                                                
  20144806.373                        4384.762          29.000                  
                                                
  24066297.231                        4771.294          20.000                  
                                                
  23961941.724     -488115.735        7861.434          38.000                  
                                                
  21423455.981   -10795616.147        6875.598          44.000                  
                                                
  19166372.719                        3799.037          23.000                  
                                                
  22183141.959    -1324398.260         713.923          38.000                  
                                                
  21006293.288    -8956455.389        5341.911          36.000                  
                                                
  19965732.121    -4741177.674        2530.829          34.000                  
                                                
  24526158.860                         422.995           1.000                  
                                                
  20299323.853                        3829.585          29.000                  
                                                
  20896087.554    -6578007.022        3720.698          34.000                  
                                                
 18  5 18 18 29 12.0000000  0 17G17R17R19R18G28R15G30G13R20R 9R16G 8
                                G 1G 7G 9G11G18
  23319474.943    -9962336.882        6155.096          39.000                  
                                                
  23215671.204       49986.253        -590.946          43.000                  
                                                
  19541838.860    -9814236.078        5708.017          35.000                  
                                                
  19423437.420    -3247797.880        1510.997          31.000                  
                                                
  21726899.557    -7562651.233        4872.059          35.000                  
                                                
  22442757.065                         500.994           1.000                  
                                                
  20144387.130                        4384.312          27.000                  
                                                
  24065839.408                        4768.229          20.000                  
                                                
  23961206.950     -492046.822        7862.249          38.000                  
                                                
  21422812.231   -10799054.202        6876.664          42.000                  
                                                
  19166017.930                        3798.976          23.000                  
                                                
  22183073.931    -1324755.663         714.848          37.000                  
                                                
  21005784.843    -8959126.723        5343.014          34.000                  
                                                
  19965491.228    -4742443.544        2532.030          33.000                  
                                                
  24526118.619                         422.995           1.000                  
                                                
  20298957.735                        3829.558          27.000                  
                                                
  20895734.105    -6579867.745        3721.438          32.000                  
                                                
 18  5 18 18 29 12.5000000  0 17G17R17R19R18G28R15G30G13R20R 9R16G 8
                                G 1G 7G 9G11G18
  23318889.321    -9965414.248        6154.609          39.000                  
                                                
  23215726.473       50282.044        -591.177          43.000                  
                                                
  19541305.362    -9817089.899        5707.281          35.000                  
                                                
  19423294.128    -3248553.4851       1512.457          31.000                  
                                                
  21726436.089    -7565086.883        4871.281          35.000                  
                                                
  22442710.623                         500.504          31.000                  
                                                
  20143968.388                        4385.258          27.000                  
                                                
  24065383.051                        4769.147          20.000                  
                                                
  23960472.158     -495977.874        7862.200          38.000                  
                                                
  21422168.500   -10802492.215        6876.279          42.000                  
                                                
  19165662.086                        3800.003          23.000                  
                                                
  22183005.904    -1325113.026         714.442          37.000                  
                                                
  21005276.416    -8961797.921        5342.575          34.000                  
                                                
  19965250.318    -4743709.229        2531.916          33.000                  
                                                
  24526078.378                         422.995           1.000                  
                                                
  20298591.545                        3829.065          27.000                  
                                                
  20895380.263    -6581728.284        3721.013          32.000                  
                                                
 18  5 18 18 29 13.0000000  0 17G17R17R19R18G28R15G30G13R20R 9R16G 8
                                G 1G 7G 9G11G18
  23318303.664    -9968491.692        6154.415          40.000                  
                                                
  23215781.688       50577.725        -591.987          43.000                  
                                                
  19540771.829    -9819943.710        5706.959          34.000                  
                                                
  19423152.427    -3249308.949        1510.650          32.000                  
                                                
  21725972.602    -7567522.676        4871.026          35.000                  
                                                
  22442665.933                         504.775          18.000                  
                                                
  20143549.109                        4387.259          27.000                  
                                                
  24064926.694                        4768.930          22.000                  
                                                
  23959737.348     -499908.994        7861.583          38.000                  
                                                
  21421524.715   -10805930.324        6875.489          42.000                  
                                                
  19165306.331                        3801.348          25.000                  
                                                
  22182937.859    -1325470.524         714.826          38.000                  
                                                
  21004768.006    -8964469.135        5341.930          35.000                  
                                                
  19965009.372    -4744974.891        2530.737          32.000                  
                                                
  24526038.136                         422.995           1.000                  
                                                
  20298226.052                        3827.645          28.000                  
                                                
  20895026.402    -6583588.3201       3720.791          32.000                  
                                                
 18  5 18 18 29 13.5000000  0 17G17R17R19R18G28R15G30G13R20R 9R16G 8
                                G 1G 7G 9G11G18
  23317718.025    -9971569.121        6155.083          40.000                  
                                                
  23215836.939       50873.349        -591.370          43.000                  
                                                
  19540238.331    -9822797.396        5707.179          34.000                  
                                                
  19423011.279    -3250064.340        1510.585          32.000                  
                                                
  21725509.133    -7569958.514        4871.458          35.000                  
                                                
  22442620.778                         504.773          18.000                  
                                                
  20143130.062                        4387.103          27.000                  
                                                
  24064470.999                        4769.377          22.000                  
                                                
  23959002.502     -503840.177        7862.141          38.000                  
                                                
  21420880.930   -10809368.507        6876.635          42.000                  
                                                
  19164950.595                        3801.622          25.000                  
                                                
  22182869.814    -1325827.999         715.177          38.000                  
                                                
  21004259.633    -8967140.234        5341.714          35.000                  
                                                
  19964768.426    -4746240.501        2532.192          32.000                  
                                                
  24525997.163                         424.147          30.000                  
                                                
  20297860.827    -6674851.285        3829.743          28.000                  
                                                
  20894672.435    -6585448.672        3720.321          32.000                  
                                                
 18  5 18 18 29 14.0000000  0 17G17R17R19R18G28R15G30G13R20R 9R16G 8
                                G 1G 7G 9G11G18
  23317132.385    -9974646.584        6154.942          39.000                  
                                                
  23215892.154       51168.864        -590.981          42.000                  
                                                
  19539704.834    -9825651.019        5706.964          33.000                  
                                                
  19422870.150    -3250819.762        1511.694          33.000                  
                                                
  21725045.664    -7572394.466        4872.250          35.000                  
                                                
  22442572.925                         502.150          20.000                  
                                                
  20142711.016                        4383.737          28.000                  
                                                
  24064016.214                        4765.830          23.000                  
                                                
  23958267.656     -507771.431        7862.830          38.000                  
                                                
  21420237.144   -10812806.757        6876.631          42.000                  
                                                
  19164595.466                        3800.387          26.000                  
                                                
  22182801.733    -1326185.568         715.292          37.000                  
                                                
  21003751.277    -8969811.313        5342.382          35.000                  
                                                
  19964527.445    -4747506.070        2532.070          33.000                  
                                                
  24525955.457                         422.784          20.000                  
                                                
  20297495.960                        3828.225          28.000                  
                                                
  20894318.342    -6587309.009        3720.651          32.000                  
                                                
 18  5 18 18 29 14.5000000  0 17G17R17R19R18G28R15G30G13R20R 9R16G 8
                                G 1G 7G 9G11G18
  23316546.782    -9977723.768        6154.265          39.000                  
                                                
  23215947.173       51464.655        -591.830          42.000                  
                                                
  19539171.158    -9828504.181        5705.678          33.000                  
                                                
  19422728.681    -3251574.652        1509.215          33.000                  
                                                
  21724582.213    -7574830.157        4871.572          35.000                  
                                                
  22442522.802                         498.901          20.000                  
                                                
  20142292.220                        4385.516          28.000                  
                                                
  24063561.912                        4765.977          23.000                  
                                                
  23957532.578     -511702.375        7861.572          38.000                  
                                                
  21419593.145   -10816244.739        6875.985          42.000                  
                                                
  19164240.426                        3799.465          26.000                  
                                                
  22182733.723    -1326542.851         714.520          37.000                  
                                                
  21003243.028    -8972482.016        5341.292          35.000                  
                                                
  19964286.534    -4748771.192        2531.260          33.000                  
                                                
  24525914.679                         421.263          20.000                  
                                                
  20297130.574                        3827.772          28.000                  
                                                
  20893964.250    -6589168.894        3719.608          32.000                  
                                                
 18  5 18 18 29 15.0000000  0 17G17R17R19R18G28R15G30G13R20R 9R16G 8
                                G 1G 7G 9G11G18
  23315961.196    -9980800.846        6154.300          39.000                  
                                                
  23216002.228       51760.490        -591.831          42.000                  
                                                
  19538637.517    -9831357.141        5705.646          33.000                  
                                                
  19422587.194    -3252329.412        1509.436          33.000                  
                                                
  21724118.780    -7577265.807        4871.727          35.000                  
                                                
  22442474.073                         503.394          18.000                  
                                                
  20141873.566                        4385.437          28.000                  
                                                
  24063107.771                        4766.825          25.000                  
                                                
  23956797.518     -515633.267        7861.471          38.000                  
                                                
  21418949.181   -10819682.667        6875.722          41.000                  
                                                
  19163884.868                        3797.033          26.000                  
                                                
  22182665.731    -1326900.125         715.112          37.000                  
                                                
  21002734.833    -8975152.503        5340.409          35.000                  
                                                
  19964045.642    -4750036.162        2530.448          32.000                  
                                                
  24525872.419                         418.814          21.000                  
                                                
  20296764.866                        3828.005          27.000                  
                                                
  20893610.122    -6591028.589        3719.062          34.000                  
                                                
 18  5 18 18 29 15.5000000  0 17G17R17R19R18G28R15G30G13R20R 9R16G 8
                                G 1G 7G 9G11G18
  23315375.646    -9983877.790        6154.109          39.000                  
                                                
  23216057.282       52056.411        -591.616          42.000                  
                                                
  19538103.912    -9834209.821        5705.089          33.000                  
                                                
  19422445.671    -3253083.933        1508.966          33.000                  
                                                
  21723655.383    -7579701.333        4870.718          35.000                  
                                                
  22442425.076                         502.301          18.000                  
                                                
  20141455.127                        4383.879          28.000                  
                                                
  24062655.399                        4767.299          25.000                  
                                                
  23956062.440     -519564.065        7861.524          38.000                  
                                                
  21418305.199   -10823120.480        6875.323          41.000                  
                                                
  19163528.864                        3796.565          26.000                  
                                                
  22182597.740    -1327257.244         714.107          37.000                  
                                                
  21002226.656    -8977822.824        5340.459          35.000                  
                                                
  19963804.803    -4751300.844        2529.275          32.000                  
                                                
  24525829.569                         414.234          21.000                  
                                                
  20296399.909                        3828.327          27.000                  
                                                
  20893256.029    -6592888.003        3717.830          34.000                  
                                                
 18  5 18 18 29 16.0000000  0 17G17R17R19R18G28R15G30G13R20R 9R16G 8
                                G 1G 7G 9G11G18
  23314790.096    -9986954.797        6154.255          39.000                  
                                                
  23216112.319       52352.247        -591.910          43.000                  
                                                
  19537570.326    -9837062.473        5705.168          34.000                  
                                                
  19422304.059    -3253838.376        1508.645          33.000                  
                                                
  21723191.985    -7582137.011        4871.045          35.000                  
                                                
  22442375.275                         505.187          19.000                  
                                                
  20141036.831                        4382.232          28.000                  
                                                
  24062204.510                        4768.691          25.000                  
                                                
  23955327.344     -523494.934        7861.014          38.000                  
                                                
  21417661.200   -10826558.429        6876.051          41.000                  
                                                
  19163173.038                        3798.323          26.000                  
                                                
  22182529.748    -1327614.474         714.797          37.000                  
                                                
  21001718.479    -8980493.154        5341.081          35.000                  
                                                
  19963563.983    -4752565.534        2528.274          32.000                  
                                                
  24525788.971                         418.723          16.000                  
                                                
  20296035.381                        3829.708          28.000                  
                                                
  20892901.919    -6594747.434        3718.614          34.000                  
                                                
 18  5 18 18 29 16.5000000  0 17G17R17R19R18G28R15G30G13R20R 9R16G 8
                                G 1G 7G 9G11G18
  23314204.564    -9990031.570        6153.670          39.000                  
                                                
  23216167.373       52648.215        -591.471          43.000                  
                                                
  19537036.757    -9839914.802        5704.483          34.000                  
                                                
  19422162.465    -3254592.536        1508.595          33.000                  
                                                
  21722728.588    -7584572.589        4871.545          35.000                  
                                                
  22442326.028                         498.652          19.000                  
                                                
  20140618.750                        4381.494          28.000                  
                                                
  24061755.604                        4763.668          25.000                  
                                                
  23954592.266     -527425.689        7862.129          38.000                  
                                                
  21417017.218   -10829996.206        6876.154          41.000                  
                                                
  19162817.212                        3797.545          26.000                  
                                                
  22182461.792    -1327971.508         714.280          37.000                  
                                                
  21001210.355    -8983163.132        5340.059          35.000                  
                                                
  19963323.233    -4753829.984        2528.116          32.000                  
                                                
  24525746.621                         423.206          16.000                  
                                                
  20295671.103                        3828.049          28.000                  
                                                
  20892547.897    -6596606.530        3718.042          34.000                  
                                                
 18  5 18 18 29 17.0000000  0 17G17R17R19R18G28R15G30G13R20R 9R16G 8
                                G 1G 7G 9G11G18
  23313619.032    -9993108.468        6153.265          38.000                  
                                                
  23216222.410       52944.013        -591.194          42.000                  
                                                
  19536503.223    -9842767.128        5704.386          34.000                  
                                                
  19422020.871    -3255346.690        1508.113          34.000                  
                                                
  21722265.226    -7587008.252        4870.531          35.000                  
                                                
  22442279.819                         491.585          22.000                  
                                                
  20140201.062                        4382.777          29.000                  
                                                
  24061307.949                        4765.971          26.000                  
                                                
  23953857.170     -531356.531        7861.712          37.000                  
                                                
  21416373.236   -10833434.101        6875.888          41.000                  
                                                
  19162461.351                        3797.351          27.000                  
                                                
  22182393.801    -1328328.720         714.184          36.000                  
                                                
  21000702.268    -8985833.183        5340.018          36.000                  
                                                
  19963082.502    -4755094.380        2527.327          33.000                  
                                                
  24525701.913                         426.002          19.000                  
                                                
  20295307.219                        3825.204          27.000                  
                                                
  20892193.859    -6598465.646        3718.506          35.000                  
                                                
 18  5 18 18 29 17.5000000  0 17G17R17R19R18G28R15G30G13R20R 9R16G 8
                                G 1G 7G 9G11G18
  23313033.464    -9996185.355        6154.417          38.000                  
                                                
  23216277.661       53239.864        -591.493          42.000                  
                                                
  19535969.904    -9845619.343        5705.633          34.000                  
                                                
  19421879.580    -3256100.640        1507.753          34.000                  
                                                
  21721801.829    -7589443.945        4871.641          35.000                  
                                                
  22442233.592                         493.175          22.000                  
                                                
  20139783.445                        4383.757          29.000                  
                                                
  24060859.222                        4764.745          26.000                  
                                                
  23953122.271     -535287.344        7861.585          37.000                  
                                                
  21415729.433   -10836871.983        6875.937          41.000                  
                                                
  19162105.543                        3796.471          27.000                  
                                                
  22182325.809    -1328685.965         715.267          36.000                  
                                                
  21000194.215    -8988503.047        5340.008          36.000                  
                                                
  19962841.824    -4756358.739        2528.827          33.000                  
                                                
  24525658.849                         429.297          19.000                  
                                                
  20294943.620                        3824.369          27.000                  
                                                
  20891839.909    -6600324.555        3718.865          35.000                  
                                                
 18  5 18 18 29 18.0000000  0 17G17R17R19R18G28R15G30G13R20R 9R16G 8
                                G 1G 7G 9G11G18
  23312447.931    -9999262.146        6153.190          37.000                  
                                                
  23216332.912       53535.760        -592.371          42.000                  
                                                
  19535436.639    -9848471.196        5702.889          34.000                  
                                                
  19421738.254    -3256854.431        1507.182          33.000                  
                                                
  21721338.485    -7591879.541        4870.417          35.000                  
                                                
  22442186.829                         497.253          23.000                  
                                                
  20139365.935                        4382.605          28.000                  
                                                
  24060409.781                        4764.262          27.000                  
                                                
  23952387.372     -539218.102        7860.966          35.000                  
                                                
  21415085.630   -10840309.802        6874.819          41.000                  
                                                
  19161749.413                        3797.180          26.000                  
                                                
  22182257.853    -1329043.048         714.351          36.000                  
                                                
  20999686.217    -8991172.719        5338.826          35.000                  
                                                
  19962601.235    -4757622.839        2527.677          32.000                  
                                                
  24525616.213                         425.983          22.000                  
                                                
  20294580.074                        3826.576          26.000                  
                                                
  20891485.959    -6602183.189        3716.672          35.000                  
                                                
