     2.10           OBSERVATION DATA    M (MIXED)           RINEX VERSION / TYPE
RTKCONV 2.4.3 b29                       20180511 181750 UTC PGM / RUN BY / DATE 
log: C:\Users\David\Desktop\2018-5-11.ubx                   COMMENT             
format: u-blox                                              COMMENT             
                                                            MARKER NAME         
                                                            MARKER NUMBER       
                                                            OBSERVER / AGENCY   
                                                            REC # / TYPE / VERS 
                                                            ANT # / TYPE        
   654595.1637 -5210182.8253  3608391.6807                  APPROX POSITION XYZ 
        0.0000        0.0000        0.0000                  ANTENNA: DELTA H/E/N
     1     1                                                WAVELENGTH FACT L1/2
     4    C1    L1    D1    S1                              # / TYPES OF OBSERV 
  2018     5    11    14    16   45.9950000     GPS         TIME OF FIRST OBS   
  2018     5    11    14    17   56.9950000     GPS         TIME OF LAST OBS    
                                                            END OF HEADER       
 18  5 11 14 16 45.9950000  0  8G27G31G22G 9G14G 4G26G29
  21204444.217   111430102.052        3042.320          38.000  
  22009425.571   115660224.932       -2451.439          34.000  
  21983368.417   115523315.601       -2918.168          26.000  
  22339140.804   117392999.065        3135.040          32.000  
  21857975.393   114864441.372       -3225.372          38.000  
  20458592.734   107510711.119       -3134.462          27.000  
  19718997.695   103624087.657       -2314.749          30.000  
  23831906.506   125237521.611       -2655.724          32.000  
 18  5 11 14 16 46.9950000  0  8G27G31G22G 9G14G 4G26G29
  21203864.888   111427060.245        3041.794          38.000  
  22009890.270   115662676.935       -2452.539          35.000  
  21983920.630   115526234.174       -2918.363          26.000  
  22338547.026   117389863.816        3134.314          32.000  
  21858589.100   114867667.440       -3226.086          38.000  
  20459188.624   107513846.661       -3135.948          26.000  
  19719438.994   103626403.345       -2316.365          29.000  
  23832412.143   125240177.801       -2656.246          32.000  
 18  5 11 14 16 47.9950000  0  8G27G31G22G 9G14G 4G26G29
  21203285.889   111424018.079        3043.010          38.000  
  22010355.720   115665128.371       -2450.770          35.000  
  21984473.313   115529152.456       -2917.870          26.000  
  22337948.221   117386728.086        3135.559          32.000  
  21859202.929   114870893.223       -3225.061          38.000  
  20459786.068                       -3133.019          26.000  
  19719872.894   103628718.782       -2314.923          29.000  
  23832916.804   125242833.883       -2655.941          32.000  
 18  5 11 14 16 48.9950000  0  8G27G31G22G 9G14G 4G26G29
  21202707.083   111420976.244        3041.562          38.000  
  22010821.309   115667579.972       -2451.456          35.000  
  21985028.160   115532070.861       -2918.811          26.000  
  22337353.361   117383592.518        3135.114          32.000  
  21859817.141   114874119.358       -3226.420          38.000  
  20460387.245                       -3136.423          26.000  
  19720314.733   103631034.649       -2316.298          29.000  
  23833422.773   125245490.512       -2657.686          32.000  
 18  5 11 14 16 49.9950000  0  8G27G31G22G 9G14G 4G26G29
  21202128.713   111417935.123        3040.644          38.000  
  22011286.951   115670032.120       -2452.592          35.000  
  21985582.309   115534989.977       -2920.079          26.000  
  22336758.029   117380457.585        3134.833          32.000  
  21860431.284   114877346.267       -3227.190          38.000  
  20460987.567                       -3135.841          27.000  
  19720756.555   103633351.393       -2317.160          29.000  
  23833928.340   125248147.914       -2657.391          32.000  
 18  5 11 14 16 50.9950000  0  8G27G31G22G 9G14G 4G26G29
  21201550.064   111414893.988        3041.578          38.000  
  22011752.819   115672484.067       -2451.163          35.000  
  21986136.877   115537908.928       -2918.266          25.000  
  22336160.813   117377322.518        3135.968          32.000  
  21861045.375   114880573.236       -3226.515          38.000  
  20461585.586                       -3136.989          26.000  
  19721191.921   103635668.163       -2315.786          29.000  
  23834434.013   125250805.617       -2657.402          32.000  
 18  5 11 14 16 51.9950000  0  8G27G31G22G 9G14G 4G26G29
  21200971.292   111411852.174        3041.443          39.000  
  22012218.374   115674935.157       -2451.300          35.000  
  21986691.724   115540827.183       -2918.746          25.000  
  22335565.045   117374186.644        3135.284          32.000  
  21861659.378   114883799.565       -3226.928          39.000  
  20462184.268                       -3135.844          26.000  
  19721632.068   103637984.476       -2316.438          29.000  
  23834939.598   125253462.822       -2657.853          32.000  
 18  5 11 14 16 52.9950000  0  8G27G31G22G 9G14G 4G26G29
  21200392.486   111408810.836        3041.083          39.000  
  22012684.120   115677386.508       -2451.340          35.000  
  21987247.740   115543745.814       -2919.500          25.000  
  22334968.248   117371051.130        3135.632          32.000  
  21862273.591   114887026.432       -3227.205          39.000  
  20462784.957                       -3137.686          26.000  
  19722073.733   103640301.339       -2317.244          29.000  
  23835445.288   125256120.649       -2658.083          32.000  
 18  5 11 14 16 53.9950000  0  8G27G31G22G 9G14G 4G26G29
  21199814.343   111405770.100        3040.989          39.000  
  22013150.582   115679838.309       -2451.857          36.000  
  21987803.669   115546664.876       -2919.302          25.000  
  22334371.817   117367916.109        3134.979          32.000  
  21862888.031   114890253.939       -3227.809          39.000  
  20463381.929                       -3136.887          26.000  
  19722514.246   103642618.940       -2317.736          29.000  
  23835951.187   125258779.270       -2658.159          32.000  
 18  5 11 14 16 54.9950000  0  8G27G31G22G 9G14G 4G26G29
  21199235.537   111402729.321        3040.480          39.000  
  22013616.956   115682289.822       -2451.276          37.000  
  21988359.441   115549583.883       -2918.939          24.000  
  22333775.019   117364780.919        3134.692          32.000  
  21863502.488   114893481.434       -3227.778          39.000  
  20463979.826                       -3136.986          26.000  
  19722958.389   103644936.618       -2318.159          29.000  
  23836457.086   125261438.065       -2658.564          33.000  
 18  5 11 14 16 55.9950000  0  8G27G31G22G 9G14G 4G26G29
  21198657.079   111399689.188        3039.683          39.000  
  22014083.872   115684741.850       -2452.073          37.000  
  21988915.231                       -2920.562          24.000  
  22333178.012   117361646.269        3134.210          32.000  
  21864116.945   114896709.639       -3228.472          39.000  
  20464577.112                       -3137.923          25.000  
  19723400.961   103647255.067       -2318.780          29.000  
  23836962.637   125264097.749       -2660.625          32.000  
 18  5 11 14 16 56.9950000  0  8G27G31G22G 9G14G 4G26G29
  21198078.867   111396649.886        3038.871          40.000  
  22014550.683   115687194.501       -2452.346          37.000  
  21989471.038                       -2921.072          24.000  
  22332581.390   117358512.261        3134.045          32.000  
  21864731.542   114899938.744       -3229.489          39.000  
  20465176.161                       -3138.501          25.000  
  19723839.834   103649574.489       -2319.013          29.000  
  23837468.937   125266758.357       -2660.399          32.000  
 18  5 11 14 16 57.9950000  0  8G27G31G22G 9G14G 4G26G29
  21197500.793   111393610.700        3039.866          40.000  
  22015017.790   115689647.088       -2451.665          38.000  
  21990028.433                       -2919.411          24.000  
  22331984.365   117355378.328        3134.595          31.000  
  21865346.103   114903168.002       -3228.635          39.000  
  20465775.610                       -3138.067          25.000  
  19724281.604   103651894.140       -2318.570          29.000  
  23837975.098   125269419.347       -2659.896          32.000  
 18  5 11 14 16 58.9950000  0  9G27G31G22G 9G14G 4G26G 8G29
  21196922.144   111390570.416        3039.970          40.000  
  22015484.287   115692098.400       -2451.239          38.000  
  21990586.334                       -2918.234          24.000  
  22331387.358   117352243.149        3135.046          31.000  
  21865960.421   114906396.204       -3228.440          39.000  
  20466375.706                       -3136.028          26.000  
  19724733.704   103654212.816       -2318.887          29.000  
  23716212.505   124629537.106        3396.540          29.000  
  23838481.451   125272079.407       -2660.307          32.000  
 18  5 11 14 16 59.9950000  0  9G27G31G22G 9G14G 4G26G 8G29
  21196343.896   111387531.272        3038.436          40.000  
  22015950.714   115694550.671       -2452.667          38.000  
  21991144.339                       -2921.132          24.000  
  22330789.776   117349109.007        3132.233          31.000  
  21866575.000   114909625.614       -3230.251          40.000  
  20466977.826                       -3139.643          26.000  
  19725172.246   103656532.749       -2320.155          30.000  
  23715568.906   124626141.534        3395.326          29.000  
  23838987.891   125274740.830       -2661.909          32.000  
 18  5 11 14 17  0.9950000  0  9G27G31G22G 9G14G 4G26G 8G29
  21195766.102   111384493.063        3038.064          40.000  
  22016417.734   115697003.721       -2453.539          38.000  
  21991698.226                       -2921.672          23.000  
  22330188.336   117345975.627        3133.026          31.000  
  21867189.928   114912855.991       -3230.404          40.000  
  20467580.801                       -3138.812          25.000  
  19725614.713   103658853.699       -2319.700          30.000  
  23714918.152   124622746.524        3395.342          29.000  
  23839494.471   125277403.365       -2662.589          32.000  
 18  5 11 14 17  1.9950000  0  9G27G31G22G 9G14G 4G26G 8G29
  21195187.837   111381454.147        3038.971          40.000  
  22016884.579   115699455.823       -2452.205          38.000  
  21992252.323                       -2926.020          23.000  
  22329587.997   117342841.452        3133.875          31.000  
  21867804.333   114916085.743       -3230.148          39.000  
  20468178.662                       -3139.315          26.000  
  19726057.007   103661174.179       -2321.170          30.000  
  23714274.169   124619350.497        3395.822          29.000  
  23840000.981   125280065.394       -2662.640          32.000  
 18  5 11 14 17  2.9950000  0  9G27G31G22G 9G14G 4G26G 8G29
  21194610.008   111378415.676        3038.237          40.000  
  22017351.565   115701908.198       -2452.614          39.000  
  21992804.692                       -2920.155          23.000  
  22328995.824   117339707.591        3134.021          31.000  
  21868418.912   114919315.939       -3230.574          39.000  
  20468778.060   107564143.5383      -3139.773          27.000  
  19726504.709   103663495.097       -2321.193          30.000  
  23713627.307   124615954.443        3395.705          29.000  
  23840507.596   125282728.018       -2663.586          32.000  
 18  5 11 14 17  3.9950000  0  9G27G31G22G 9G14G 4G26G 8G29
  21194031.829   111375377.646        3038.216          40.000  
  22017818.742   115704360.845       -2452.602          39.000  
  21993361.040                       -2919.510          22.000  
  22328395.780   117336574.083        3133.075          31.000  
  21869033.683   114922546.665       -3230.734          39.000  
  20469379.063   107567283.5442      -3139.868          28.000  
  19726940.441   103665816.642       -2321.743          29.000  
  23712985.087   124612558.475        3396.294          29.000  
  23841014.246   125285391.289       -2663.256          32.000  
 18  5 11 14 17  4.9950000  0 10G27G31G22G 9G14G 4G26G 8G29G23
  21193453.843   111372339.418        3038.250          41.000  
  22018285.919   115706813.082       -2452.125          40.000  
  21993917.144                       -2927.692          22.000  
  22327798.582   117333440.231        3133.771          31.000  
  21869648.437   114925777.229       -3230.561          39.000  
  20469976.733   107570423.4222      -3139.762          28.000  
  19727378.180   103668138.057       -2320.981          29.000  
  23712338.015   124609161.957        3396.950          29.000  
  23841521.105   125288054.537       -2662.705          32.000  
  19824537.694   104178647.7522       1906.902          34.000  
 18  5 11 14 17  5.9950000  0 10G27G31G22G 9G14G 4G26G 8G29G23
  21192875.840   111369301.352        3037.957          41.000  
  22018753.149   115709265.288       -2452.141          40.000  
  21994472.165                       -2909.952          22.000  
  22327205.955   117330306.422        3132.642          31.000  
  21870262.981   114929007.997       -3231.041          39.000  
  20470574.211   107573563.4872      -3140.514          29.000  
  19727822.009   103670459.867       -2322.505          29.000  
  23711688.832   124605765.265        3396.312          29.000  
  23842027.719   125290718.169       -2663.873          32.000  
  19824175.096   104176740.4762       1907.001          34.000  
 18  5 11 14 17  6.9950000  0 10G27G31G22G 9G14G 4G26G 8G29G23
  21192298.028   111366264.016        3037.144          41.000  
  22019220.204   115711718.061       -2452.777          40.000  
  21995029.107                       -2917.475          21.000  
  22326608.023   117327173.144        3134.021          31.000  
  21870878.014   114932239.542       -3231.679          39.000  
  20471167.117   107576704.2652      -3140.489          29.000  
  19728256.606   103672782.423       -2322.713          29.000  
  23711042.459   124602368.898        3396.105          28.000  
  23842534.509   125293382.736       -2664.778          32.000  
  19823812.358   104174834.1392       1906.454          34.000  
 18  5 11 14 17  7.9950000  0 10G27G31G22G 9G14G 4G26G 8G29G23
  21191720.339   111363227.402        3036.212          41.000  
  22019687.643   115714171.370       -2453.670          40.000  
  21995587.339                       -2917.689          22.000  
  22326012.901   117324040.630        3131.812          31.000  
  21871493.361   114935471.903       -3232.907          40.000  
  20471765.380   107579845.9242      -3141.961          29.000  
  19728699.580   103675105.887       -2323.963          28.000  
  23710396.626   124598972.909        3395.632          28.000  
  23843041.752   125296048.204       -2666.155          32.000  
  19823449.813   104172928.6872       1904.862          34.000  
 18  5 11 14 17  8.9950000  0 10G27G31G22G 9G14G 4G26G 8G29G23
  21191142.597   111360191.265        3036.095          41.000  
  22020154.890   115716624.946       -2453.263          40.000  
  21996146.985                       -2928.226          22.000  
  22325417.098   117320908.323        3132.269          31.000  
  21872108.691   114938704.732       -3232.567          40.000  
  20472361.637   107582988.0372      -3142.833          30.000  
  19729142.362   103677429.870       -2324.220          29.000  
  23709749.153   124595576.972        3395.681          28.000  
  23843549.239   125298714.335       -2666.715          32.000  
  19823087.180   104171023.8362       1904.816          34.000  
 18  5 11 14 17  9.9950000  0 10G27G31G22G 9G14G 4G26G 8G29G23
  21190565.361   111357155.253        3036.036          42.000  
  22020622.050   115719078.451       -2453.364          39.000  
  21996708.411                       -2916.046          22.000  
  22324820.231   117317776.100        3132.458          31.000  
  21872723.968   114941937.783       -3232.950          40.000  
  20472955.956   107586130.2962      -3142.184          30.000  
  19729593.572   103679754.149       -2324.493          29.000  
  23709103.338   124592180.831        3395.956          28.000  
  23844056.604   125301380.757       -2665.860          32.000  
  19822724.442   104169119.2582       1905.348          34.000  
 18  5 11 14 17 10.9950000  0 10G27G31G22G 9G14G 4G26G 8G29G23
  21189987.672   111354119.060        3036.522          42.000  
  22021089.576   115721531.632       -2452.891          41.000  
  21997265.439                       -2929.460          22.000  
  22324222.316   117314643.606        3131.995          30.000  
  21873339.106   114945170.696       -3232.720          40.000  
  20473558.826   107589272.4562      -3141.520          30.000  
  19730036.651   103682078.384       -2324.639          30.000  
  23708457.401   124588784.085        3397.079          28.000  
  23844564.091   125304047.216       -2666.435          31.000  
  19822361.739   104167214.7232       1904.164          33.000  
 18  5 11 14 17 11.9950000  0 10G27G31G22G 9G14G 4G26G 8G29G23
  21189410.035   111351082.760        3035.940          42.000  
  22021556.579   115723984.465       -2452.679          40.000  
  21997823.096                       -2922.479          22.000  
  22323625.292   117311510.798        3132.825          30.000  
  21873954.156   114948403.521       -3232.899          40.000  
  20474148.644   107592414.5222      -3142.100          31.000  
  19730487.250   103684402.566       -2323.959          30.000  
  23707809.858   124585386.831        3397.475          28.000  
  23845071.578   125306713.697       -2666.113          31.000  
  19821999.211   104165310.1542       1904.548          33.000  
 18  5 11 14 17 12.9950000  0 10G27G31G22G 9G14G 4G26G 8G29G23
  21188832.275   111348046.137        3036.444          42.000  
  22022024.175   115726436.831       -2452.308          42.000  
  21998381.677                       -2919.401          23.000  
  22323027.064   117308377.572        3133.948          30.000  
  21874569.154   114951636.100       -3232.839          40.000  
  20474750.135   107595555.823       -3142.057          31.000  
  19730932.091   103686726.594       -2324.080          29.000  
  23707161.565   124581989.049        3397.851          28.000  
  23845577.478   125309380.098       -2666.151          31.000  
  19821636.613   104163405.4532       1904.452          33.000  
 18  5 11 14 17 13.9950000  0 10G27G31G22G 9G14G 4G26G 8G29G23
  21188254.795   111345010.141        3034.848          42.000  
  22022491.491   115728889.654       -2453.862          42.000  
  21998938.967                       -2925.188          24.000  
  22322431.348   117305244.900        3131.109          30.000  
  21875184.693   114954869.355       -3234.472          41.000  
  20475348.730   107598698.250       -3142.590          31.000  
  19731375.938   103689051.349       -2325.800          30.000  
  23706514.127   124578591.431        3396.746          28.000  
  23846086.902   125312047.353       -2668.667          32.000  
  19821273.910   104161501.5372       1902.916          33.000  
 18  5 11 14 17 14.9950000  0 10G27G31G22G 9G14G 4G26G 8G29G23
  21187677.263   111341974.953        3035.423          42.000  
  22022958.739   115731343.110       -2453.162          42.000  
  21999498.474                       -2930.105          24.000  
  22321837.500   117302112.902        3131.592          30.000  
  21875799.988   114958103.453       -3233.793          40.000  
  20475943.311   107601841.575       -3142.598          32.000  
  19731827.148   103691377.067       -2325.609          29.000  
  23705867.824   124575194.229        3397.707          27.000  
  23846588.630   125314715.569       -2667.495          31.000  
  19820911.504   104159598.6192       1902.792          33.000  
 18  5 11 14 17 15.9950000  0 10G27G31G22G 9G14G 4G26G 8G29G23
  21187099.469   111338939.368        3035.547          42.000  
  22023426.108   115733795.926       -2452.748          42.000  
  22000056.636                       -2925.968          24.000  
  22321237.457   117298980.284        3133.203          30.000  
  21876415.352   114961337.199       -3234.111          40.000  
  20476537.718   107604984.493       -3142.165          32.000  
  19732276.997   103693702.465       -2325.509          29.000  
  23705220.368   124571796.281        3398.104          27.000  
  23847097.514   125317383.562       -2667.734          31.000  
  19820549.081   104157695.4372       1902.665          33.000  
 18  5 11 14 17 16.9950000  0 10G27G31G22G 9G14G 4G26G 8G29G23
  21186521.901   111335903.862        3035.544          42.000  
  22023893.425   115736248.615       -2452.381          42.000  
  22000616.143                       -2924.042          24.000  
  22320639.455   117295847.729        3132.428          30.000  
  21877030.560   114964571.081       -3233.908          40.000  
  20477136.330   107608127.613       -3142.887          32.000  
  19732719.500   103696028.104       -2325.864          29.000  
  23704573.890   124568398.056        3397.971          27.000  
  23847608.002   125320051.882       -2669.198          31.000  
  19820186.936   104155792.4592       1903.243          33.000  
 18  5 11 14 17 17.9950000  0  9G27G31G22G 9G14G 4G26G29G23
  21185944.456   111332868.301        3035.314          42.000  
  22024360.654   115738701.145       -2452.339          41.000  
  22001175.143                       -2921.431          24.000  
  22320043.460   117292714.999        3132.227          30.000  
  21877646.134   114967804.951       -3234.332          40.000  
  20477733.337   107611270.719       -3143.418          32.000  
  19733151.183   103698353.755       -2325.243          29.000  
  23848116.502   125322720.333       -2669.557          31.000  
  19819824.722   104153889.6252       1902.485          33.000  
 18  5 11 14 17 18.9950000  0  9G27G31G22G 9G14G 4G26G29G23
  21185367.081   111329832.958        3035.564          42.000  
  22024827.796   115741153.650       -2452.276          41.000  
  22001733.027                       -2921.345          23.000  
  22319451.340   117289582.341        3133.136          30.000  
  21878261.742   114971039.099       -3234.163          40.000  
  20478331.077   107614414.001       -3142.917          32.000  
  19733593.319   103700679.818       -2326.155          30.000  
  23848620.167   125325389.119       -2669.188          31.000  
  19819462.525   104151987.172        1902.058          33.000  
 18  5 11 14 17 19.9950000  0  9G27G31G22G 9G14G 4G26G29G23
  21184789.531   111326797.552        3034.521          42.000  
  22025294.398   115743605.912       -2452.907          41.000  
  22002291.486                       -2930.176          23.000  
  22318854.333   117286449.496        3131.726          30.000  
  21878877.020   114974273.221       -3234.975          40.000  
  20478928.852   107617557.308       -3144.281          32.000  
  19734033.396   103703005.858       -2326.385          31.000  
  23849129.452   125328058.050       -2669.324          31.000  
  19819100.433   104150084.764        1901.882          33.000  
 18  5 11 14 17 20.9950000  0 10G27G31G22G 9G14G 4G26G 8G29G23
  21184212.103   111323763.545        3033.716          42.000  
  22025761.540   115746059.400       -2454.070          41.000  
  22002847.677                       -2920.815          22.000  
  22318258.862   117283317.926        3131.354          30.000  
  21879493.169   114977508.804       -3236.052          40.000  
  20479526.661   107620702.032       -3145.068          33.000  
  19734475.533   103705333.490       -2328.257          31.000  
  23701982.096   124554755.1171       3398.033          27.000  
  23849638.702   125330728.591       -2670.409          31.000  
  19818738.690   104148183.990        1900.084          33.000  
 18  5 11 14 17 21.9950000  0 10G27G31G22G 9G14G 4G26G 8G29G23
  21183634.676   111320729.723        3033.324          42.000  
  22026228.491   115748512.848       -2453.409          41.000  
  22003403.030                       -2921.064          21.000  
  22317659.167   117280186.434        3131.012          30.000  
  21880108.865   114980744.592       -3236.167          41.000  
  20480124.541   107623846.979       -3144.973          33.000  
  19734922.642   103707661.329       -2328.289          31.000  
  23701336.560   124551356.703        3398.618          28.000  
  23850144.653   125333399.438       -2670.308          30.000  
  19818376.773   104146283.461        1899.893          33.000  
 18  5 11 14 17 22.9950000  0  9G27G31G22G 9G14G 4G26G29G23
  21183057.649   111317695.955        3033.569          42.000  
  22026695.528   115750966.196       -2453.389          41.000  
  22003956.813                       -2920.683          20.000  
  22317059.683   117277054.828        3131.970          30.000  
  21880724.422   114983980.481       -3235.744          41.000  
  20480722.123   107626992.006       -3145.195          33.000  
  19735361.323   103709989.423       -2328.881          30.000  
  23850655.735   125336070.608       -2671.433          30.000  
  19818015.099   104144383.190        1900.157          33.000  
 18  5 11 14 17 23.9950000  0  9G27G31G22G 9G14G 4G26G29G23
  21182480.710   111314662.440        3033.440          42.000  
  22027162.112   115753419.606       -2453.397          41.000  
  22004511.799                       -2920.542          20.000  
  22316468.591   117273923.417        3130.603          30.000  
  21881340.397   114987216.698       -3236.303          41.000  
  20481320.247   107630137.387       -3145.999          33.000  
  19735810.893   103712317.841       -2328.770          31.000  
  23851161.128   125338742.191       -2671.320          30.000  
  19817653.339   104142483.347        1899.274          33.000  
 18  5 11 14 17 24.9950000  0  9G27G31G22G 9G14G 4G26G29G23
  21181903.631   111311629.205        3032.680          42.000  
  22027629.429   115755873.063       -2453.983          41.000  
  22005070.206                       -2925.141          19.000  
  22315871.061   117270792.114        3130.353          30.000  
  21881956.163   114990453.227       -3237.356          41.000  
  20481918.161   107633283.018       -3146.969          34.000  
  19736252.192   103714646.670       -2329.777          30.000  
  23851668.982   125341414.251       -2672.661          29.000  
  19817291.544   104140583.884        1899.278          33.000  
 18  5 11 14 17 25.9950000  0  9G27G31G22G 9G14G 4G26G29G23
  21181326.588   111308596.608        3033.233          42.000  
  22028096.606   115758327.026       -2453.434          41.000  
  22005625.577                       -2922.286          18.000  
  22315275.188   117267661.326        3131.262          30.000  
  21882572.190   114993690.456       -3236.777          41.000  
  20482516.337   107636429.358       -3146.418          34.000  
  19736695.602   103716976.247       -2329.304          29.000  
  23852178.459   125344087.095       -2672.265          29.000  
  19816929.940   104138685.313        1898.652          33.000  
 18  5 11 14 17 26.9950000  0 10G27G31G22G 9G14G 4G26G 8G29G23
  21180749.806   111305564.086        3031.852          42.000  
  22028563.556   115760780.839       -2454.385          41.000  
  22006180.057                       -2922.286          16.000  
  22314681.288   117264530.525        3130.151          30.000  
  21883188.131   114996927.797       -3238.209          41.000  
  20483114.321   107639575.788       -3147.378          34.000  
  19737142.554   103719305.960       -2329.973          29.000  
  23698099.196   124534350.6951       3398.321          27.000  
  23852690.343   125346760.243       -2673.588          29.000  
  19816568.354   104136786.870        1898.186          32.000  
 18  5 11 14 17 27.9950000  0  9G27G31G22G 9G14G 4G26G29G23
  21180173.111   111302532.616        3030.956          42.000  
  22029030.891   115763235.549       -2455.401          41.000  
  22006735.236                       -2925.178          14.000  
  22314085.206   117261400.645        3128.979          30.000  
  21883804.193   115000166.229       -3239.030          41.000  
  20483712.410   107642723.302       -3148.085          35.000  
  19737588.145   103721636.965       -2331.595          29.000  
  23853200.640   125349434.678       -2675.197          29.000  
  19816207.309   104134889.674        1896.714          32.000  
 18  5 11 14 17 28.9950000  0  9G27G31G22G 9G14G 4G26G29G23
  21179596.660   111299501.792        3030.453          42.000  
  22029498.557   115765690.694       -2455.632          41.000  
  22007289.961                       -2925.178          13.000  
  22313489.647   117258271.263        3128.979          31.000  
  21884420.552   115003405.346       -3239.358          41.000  
  20484310.673   107645871.511       -3148.223          35.000  
  19738031.137   103723968.643       -2331.658          28.000  
  23853709.680   125352109.856       -2675.667          29.000  
  19815846.090   104132993.291        1895.614          32.000  
 18  5 11 14 17 29.9950000  0  9G27G31G22G 9G14G 4G26G29G23
  21179019.791   111296470.668        3032.179          42.000  
  22029965.873   115768145.361       -2453.671          41.000  
  22007843.761                       -2925.178          11.000  
  22312894.054   117255141.481        3130.927          31.000  
  21885036.842   115006644.245       -3238.139          40.000  
  20484909.146   107649019.480       -3146.955          35.000  
  19738475.088   103726300.210       -2331.217          28.000  
  23854217.674   125354784.958       -2674.491          29.000  
  19815484.923   104131096.779        1897.415          32.000  
 18  5 11 14 17 30.9950000  0  9G27G31G22G 9G14G 4G26G29G23
  21178443.096   111293438.481        3032.075          42.000  
  22030433.120   115770598.765       -2453.474          41.000  
  22008396.602                       -2925.178          13.000  
  22312298.181   117252010.536        3130.603          31.000  
  21885653.044   115009882.103       -3237.878          40.000  
  20485507.322   107652166.392       -3147.193          35.000  
  19738918.463   103728630.759       -2331.060          27.000  
  23854728.127   125357459.168       -2674.568          29.000  
  19815123.598   104129199.366        1895.990          32.000  
 18  5 11 14 17 31.9950000  0  9G27G31G22G 9G14G 4G26G29G23
  21177866.558   111290406.911        3031.343          42.000  
  22030900.385   115773052.589       -2453.820          41.000  
  22008948.831                       -2926.995          15.000  
  22311702.553   117248880.059        3130.298          30.000  
  21886269.438   115013120.628       -3239.102          40.000  
  20486105.550   107655313.953       -3147.927          35.000  
  19739361.297   103730962.129       -2331.835          27.000  
  23855237.360   125360134.223       -2675.653          29.000  
  19814762.501   104127302.637        1896.942          32.000  
 18  5 11 14 17 32.9950000  0  9G27G31G22G 9G14G 4G26G29G23
  21177289.672   111287375.790        3031.290          42.000  
  22031367.545   115775506.699       -2453.685          41.000  
  22009505.580                       -2925.479          16.000  
  22311106.715   117245749.923        3129.932          31.000  
  21886885.500   115016359.637       -3238.829          40.000  
  20486703.901   107658462.015       -3148.022          35.000  
  19739803.695   103733294.022       -2332.747          26.000  
  23855748.005   125362809.849       -2675.800          29.000  
  19814401.753   104125406.595        1896.344          32.000  
 18  5 11 14 17 33.9950000  0  9G27G31G22G 9G14G 4G26G29G23
  21176712.820   111284344.473        3031.193          42.000  
  22031834.146   115777960.425       -2453.509          41.000  
  22010060.916                       -2926.121          17.000  
  22310511.942   117242619.438        3130.676          31.000  
  21887501.720   115019598.507       -3239.060          40.000  
  20487302.025   107661609.902       -3147.818          35.000  
  19740246.162   103735625.762       -2331.778          26.000  
  23856258.512   125365485.456       -2675.313          28.000  
  19814040.830   104123510.478        1896.224          32.000  
 18  5 11 14 17 34.9950000  0  9G27G31G22G 9G14G 4G26G29G23
  21176136.335   111281313.839        3030.228          42.000  
  22032301.027   115780414.645       -2454.493          41.000  
  22010618.084                       -2924.896          18.000  
  22309915.092   117239489.509        3130.298          30.000  
  21888118.044   115022838.096       -3240.154          40.000  
  20487900.637   107664758.536       -3149.642          36.000  
  19740688.054   103737958.387       -2333.062          26.000  
  23856767.587   125368162.013       -2676.825          28.000  
  19813680.047   104121615.257        1894.803          32.000  
 18  5 11 14 17 35.9950000  0  9G27G31G22G 9G14G 4G26G29G23
  21175559.849   111278283.912        3029.832          42.000  
  22032767.820   115782869.380       -2454.996          41.000  
  22011174.746                       -2930.040          19.000  
  22309323.251   117236360.169        3130.072          30.000  
  21888734.752   115026078.451       -3240.682          40.000  
  20488499.197   107667907.868       -3149.638          36.000  
  19741129.772   103740291.810       -2333.885          25.000  
  23857276.575   125370839.368       -2677.163          28.000  
  19813319.386   104119720.850        1894.199          32.000  
 18  5 11 14 17 36.9950000  0  9G27G31G22G 9G14G 4G26G29G23
  21174983.189   111275253.566        3030.427          42.000  
  22033234.683   115785323.504       -2454.092          41.000  
  22011731.303                       -2930.918          18.000  
  22308726.872   117233230.336        3130.041          31.000  
  21889351.356   115029318.412       -3239.951          40.000  
  20489098.071   107671056.839       -3148.586          36.000  
  19741571.681   103742624.889       -2333.045          25.000  
  23857789.384   125373516.620       -2677.474          27.000  
  19812958.847   104117826.199        1894.391          31.000  
 18  5 11 14 17 37.9950000  0  9G27G31G22G 9G14G 4G26G29G23
  21174406.756   111272223.585        3029.578          42.000  
  22033701.860   115787777.793       -2454.683          42.000  
  22012286.639                       -2925.770          18.000  
  22308131.366   117230100.742        3129.626          31.000  
  21889967.942   115032558.791       -3240.815          40.000  
  20489697.015   107674206.226       -3149.688          36.000  
  19742015.580   103744958.503       -2334.168          25.000  
  23858295.894   125376194.288       -2678.004          27.000  
  19812598.465   104115932.038        1893.468          31.000  
 18  5 11 14 17 38.9950000  0  9G27G31G22G 9G14G 4G26G29G23
  21173830.218   111269194.400        3028.885          42.000  
  22034169.282   115790232.687       -2455.172          42.000  
  22012846.669                       -2926.465          18.000  
  22307537.465   117226971.788        3128.467          31.000  
  21890584.685   115035799.991       -3241.592          40.000  
  20490295.871   107677356.419       -3150.602          36.000  
  19742461.834   103747293.021       -2335.197          25.000  
  23858805.284   125378872.928       -2678.884          27.000  
  19812238.013   104114038.801        1893.502          31.000  
 18  5 11 14 17 39.9950000  0  9G27G31G22G 9G14G 4G26G29G23
  21173253.977   111266165.593        3028.643          42.000  
  22034636.320   115792687.771       -2454.849          41.000  
  22013403.994                       -2935.701          20.000  
  22306941.697   117223843.093        3128.424          31.000  
  21891201.306   115039041.634       -3241.734          40.000  
  20490894.920   107680507.041       -3151.074          36.000  
  19742908.804   103749627.959       -2335.159          25.000  
  23859312.858   125381552.210       -2679.160          27.000  
  19811877.422   104112146.137        1893.455          31.000  
 18  5 11 14 17 40.9950000  0  9G27G31G22G 9G14G 4G26G29G23
  21172677.597   111263136.324        3029.886          42.000  
  22035103.514   115795142.203       -2453.602          41.000  
  22013961.057                       -2926.591          20.000  
  22306346.139   117220713.842        3129.279          31.000  
  21891817.874   115042282.851       -3240.745          40.000  
  20491494.143   107683657.222       -3149.722          36.000  
  19743355.495                       -2333.856          25.000  
  23859822.753   125384231.175       -2678.607          26.000  
  19811517.110   104110253.207        1893.732          30.000  
 18  5 11 14 17 41.9950000  0  9G27G31G22G 9G14G 4G26G29G23
  21172101.286   111260107.385        3027.813          42.000  
  22035570.587   115797596.785       -2455.547          41.000  
  22014520.354                       -2922.347          20.000  
  22305750.580   117217584.793        3127.478          31.000  
  21892434.652   115045524.458       -3243.006          40.000  
  20492093.488   107686807.789       -3152.005          36.000  
  19743803.895                       -2336.091          25.000  
  23860333.626   125386910.656       -2679.957          26.000  
  19811156.466   104108360.747        1891.365          30.000  
 18  5 11 14 17 42.9950000  0  9G27G31G22G 9G14G 4G26G29G23
  21171525.062   111257079.768        3027.566          42.000  
  22036037.345   115800052.519       -2455.772          41.000  
  22015080.314                       -2931.952          20.000  
  22305155.493   117214456.904        3127.527          31.000  
  21893051.570   115048767.418       -3243.281          40.000  
  20492692.955   107689959.711       -3152.698          36.000  
  19744250.953                       -2338.575          24.000  
  23860844.324   125389591.701       -2681.922          26.000  
  19810796.538   104106469.706        1891.644          29.000  
 18  5 11 14 17 43.9950000  0  9G27G31G22G 9G14G 4G26G29G23
  21170949.135   111254052.322        3027.752          42.000  
  22036504.365   115802508.197       -2455.057          41.000  
  22015636.959                       -2925.074          20.000  
  22304560.388   117211329.100        3127.704          31.000  
  21893668.365   115052010.581       -3242.864          40.000  
  20493292.405   107693111.796       -3151.634          36.000  
  19744697.800                       -2336.720          24.000  
  23861356.523   125392272.982       -2680.466          26.000  
  19810436.644   104104579.025        1891.180          29.000  
 18  5 11 14 17 44.9950000  0  9G27G31G22G 9G14G 4G26G29G23
  21170372.894   111251024.121        3027.981          42.000  
  22036971.560   115804962.954       -2455.009          42.000  
  22016191.876                       -2922.973          20.000  
  22303965.074   117208200.406        3128.784          31.000  
  21894285.143   115055253.032       -3242.499          40.000  
  20493891.995   107696263.179       -3151.403          36.000  
  19745144.543                       -2335.705          24.000  
  23861867.430   125394953.798       -2680.977          26.000  
  19810076.542   104102687.794        1890.914          29.000  
 18  5 11 14 17 45.9950000  0  9G27G31G22G 9G14G 4G26G29G23
  21169796.705   111247996.367        3027.433          41.000  
  22037438.563   115807417.946       -2455.177          41.000  
  22016750.754                       -2928.237          20.000  
  22303369.830   117205072.040        3127.850          31.000  
  21894902.287   115058495.992       -3243.263          40.000  
  20494491.444   107699415.074       -3152.377          36.000  
  19745592.211                       -2359.384          23.000  
  23862377.814   125397635.184       -2681.797          26.000  
  19809715.078   104100797.104        1890.394          29.000  
 18  5 11 14 17 46.9950000  0  9G27G31G22G 9G14G 4G26G29G23
  21169220.394   111244969.057        3027.417          41.000  
  22037905.600   115809873.205       -2455.073          41.000  
  22017307.503                       -2923.704          20.000  
  22302774.655   117201943.993        3127.313          31.000  
  21895519.188   115061739.435       -3243.427          40.000  
  20495091.121   107702567.428       -3152.366          36.000  
  19746035.883                       -2349.466          22.000  
  23862887.902   125400317.269       -2681.598          26.000  
  19809355.167   104098907.038        1890.034          29.000  
 18  5 11 14 17 47.9950000  0  9G27G31G22G 9G14G 4G26G29G23
  21168644.031   111241941.635        3027.238          41.000  
  22038372.621   115812328.155       -2455.109          41.000  
  22017866.468                       -2927.306          21.000  
  22302179.341   117198815.677        3128.497          31.000  
  21896136.315   115064982.800       -3243.623          40.000  
  20495690.641   107705719.672       -3153.057          36.000  
  19746482.748                       -2334.274          22.000  
  23863395.337   125402999.357       -2682.871          26.000  
  19808994.366   104097017.002        1889.927          29.000  
 18  5 11 14 17 48.9950000  0  9G27G31G22G 9G14G 4G26G29G23
  21168067.982   111238915.208        3025.844          41.000  
  22038839.763   115814783.895       -2456.131          42.000  
  22018423.741                       -2924.636          21.000  
  22301584.184   117195688.313        3126.507          31.000  
  21896753.476   115068227.211       -3245.072          40.000  
  20496290.632   107708872.940       -3153.619          36.000  
  19746930.015                       -2336.446          22.000  
  23863906.366   125405682.660       -2684.012          26.000  
  19808633.793   104095128.147        1888.305          28.000  
 18  5 11 14 17 49.9950000  0  9G27G31G22G 9G14G 4G26G29G23
  21167492.090   111235889.294        3025.940          41.000  
  22039306.818   115817239.983       -2455.901          42.000  
  22018980.438                       -2931.236          22.000  
  22300988.992   117192561.290        3127.179          31.000  
  21897371.022   115071472.169       -3244.804          40.000  
  20496890.657   107712026.782       -3153.553          36.000  
  19747373.669                       -2341.094          22.000  
  23864413.469   125408366.611       -2683.849          26.000  
  19808273.027   104093239.933        1888.230          28.000  
 18  5 11 14 17 50.9950000  0  9G27G31G22G 9G14G 4G26G29G23
  21166916.320   111232863.505        3025.848          41.000  
  22039774.431   115819695.999       -2455.928          42.000  
  22019542.073                       -2930.182          22.000  
  22300393.887   117189434.232        3127.496          31.000  
  21897988.812   115074717.325       -3245.216          41.000  
  20497490.369   107715180.802       -3154.100          36.000  
  19747818.894                       -2324.736          23.000  
  23864926.000   125411050.878       -2683.816          25.000  
  19807912.366   104091352.044        1887.760          27.000  
 18  5 11 14 17 51.9950000  0  9G27G31G22G 9G14G 4G26G29G23
  21166340.376   111229837.048        3025.936          40.000  
  22040241.539   115822151.121       -2455.345          42.000  
  22020096.868                       -2926.171          21.000  
  22299797.177   117186306.458        3127.331          31.000  
  21898606.114   115077961.811       -3244.593          41.000  
  20498089.976   107718334.133       -3153.416          36.000  
  19748262.705                       -2338.366          23.000  
  23865436.768   125413734.707       -2684.071          25.000  
  19807552.211   104089463.566        1888.231          27.000  
 18  5 11 14 17 52.9950000  0  9G27G31G22G 9G14G 4G26G29G23
  21165764.431   111226811.118        3025.323          40.000  
  22040708.664   115824606.629       -2455.896          41.000  
  22020654.437                       -2928.126          22.000  
  22299199.524   117183179.030        3127.515          31.000  
  21899223.607   115081206.896       -3245.484          41.000  
  20498689.757   107721488.054       -3154.145          36.000  
  19748706.901                       -2334.736          24.000  
  23865948.495   125416419.234       -2684.923          26.000  
  19807189.874   104087575.798        1887.398          27.000  
 18  5 11 14 17 53.9950000  0  9G27G31G22G 9G14G 4G26G29G23
  21165188.748   111223785.848        3024.927          40.000  
  22041175.719   115827062.562       -2456.042          41.000  
  22021209.441                       -2925.260          22.000  
  22298607.979   117180052.169        3127.039          31.000  
  21899841.100   115084452.665       -3246.015          41.000  
  20499289.644   107724642.654       -3154.346          36.000  
  19749151.829                       -2339.565          24.000  
  23866458.967   125419104.536       -2685.411          26.000  
  19806831.709   104085688.887        1886.676          27.000  
 18  5 11 14 17 54.9950000  0  9G27G31G22G 9G14G 4G26G29G23
  21164613.048   111220760.301        3026.094          40.000  
  22041643.036   115829518.073       -2455.128          42.000  
  22021768.040                       -2935.604          22.000  
  22298009.402   117176924.948        3127.460          31.000  
  21900458.699   115087698.228       -3245.197          41.000  
  20499889.914   107727797.044       -3153.982          36.000  
  19749594.087                       -2339.149          25.000  
  23866970.415   125421789.869       -2685.146          26.000  
  19806470.646   104083801.829        1887.231          26.000  
 18  5 11 14 17 55.9950000  0  9G27G31G22G 9G14G 4G26G29G23
  21164037.209   111217734.626        3025.389          40.000  
  22042109.934   115831973.200       -2455.144          42.000  
  22022324.563                       -2931.645          23.000  
  22297412.831   117173797.393        3127.399          31.000  
  21901076.105   115090943.653       -3245.699          41.000  
  20500489.974   107730951.298       -3154.487          35.000  
  19750038.125                       -2340.581          26.000  
  23867481.322   125424475.094       -2685.288          26.000  
  19806112.236   104081914.763        1887.594          26.000  
 18  5 11 14 17 56.9950000  0  9G27G31G22G 9G14G 4G26G29G23
  21163461.613   111214709.509        3025.331          40.000  
  22042577.216   115834428.751       -2455.628          43.000  
  22022881.748                       -2933.376          22.000  
  22296817.919   117170670.335        3126.855          31.000  
  21901694.017   115094189.715       -3245.790          41.000  
  20501089.825   107734106.176       -3154.779          35.000  
  19750482.059                       -2340.692          26.000  
  23867994.307   125427161.144       -2685.618          26.000  
  19805752.291   104080028.537        1885.731          27.000  
